,iso3,uid,country,pf_number_plants,pf_number_blast_furnace,pf_total_raw_production_capacity,Unnamed: 6,pf_owner,pf_location,status,latitude,longitude,source,accuracy,owner_permid,owner_name,reported_capacity,reported_production_start,owner_source,date_accessed,parent_permid,parent_name,ownership_stake,parent_permid.1,parent_name.1,ownership_stake.1,comment_ownership
0,DZA,DZA0001,Algeria,22.0,2.0,7050.0,1.0,ARCELORMITTAL ALGERIA,"EL HADJAR, ANNABA",Operating,36.792072,7.701535,PlantFacts,Exact,,,,,,,,,,,,,
1,DZA,DZA0002,Algeria,10.0,,5100.0,1.0,ALGERIAN QATARI STEEL,"BELLARA, JIJEL",Operating,36.747137,6.250612,PlantFacts,Exact,,Algerian Qatari Steel Company,,,https://aqs.dz/about/,2020-07-22,5000010731.0,Qatar Steel Company QPSC,,,,,
2,DZA,DZA0003,Algeria,2.0,,6500.0,1.0,TOSYALI ALGERIA,BETHIOUA,Operating,35.7702333,-0.2646662,PlantFacts,Exact,5074196906,Tosyali Ironsteel Industry Algerie SPA,,,https://www.tosyaliholding.com.tr/en/our-scope-of-activity/group-companies/international-subsidiaries/tosyali-iron-steel-industry-algerie,2020-07-22,5000866267.0,Tosyali Holding AS,,,,,
3,AGO,AGO0001,Angola,5.0,,,0.0,ACERIA DE ANGOLA SA,"BARRA DO DANDE, BENGO PROV.",Operating,-8.5824,13.405271,PlantFacts,Exact,,,,,,,,,,,,,
4,ARG,ARG0001,Argentina,12.0,1.0,360.0,0.0,ACEROS ZAPLA SA,"PALPALA, JUJUY",Operating,-24.24424,-65.198096,PlantFacts,Exact,,,,,,,,,,,,,
5,ARG,ARG0002,Argentina,,,,0.0,,,Operating,-32.926684,-60.714138,https://www.ternium.com/en/contact-us#our-offices,Exact,4295856067,Ternium Argentina SA,,,https://www.ternium.com/en/contact-us#our-offices,2020-04-30,4295856130.0,Ternium SA,,,,,
6,ARG,ARG0003,Argentina,1.0,,,0.0,LAMINADOS INDUSTRIALES (BELTRAME),"VILLA CONSTITUCION, SANTA FE",Operating,-33.26958,-60.28283,PlantFacts,Exact,,,,,,,,,,,,,
7,ARG,ARG0004,Argentina,11.0,,2600.0,1.0,ARCELORMITTAL ACINDAR SA,"VILLA CONSTITUCION, SANTA FE",Operating,-33.25696,-60.286649,PlantFacts,Exact,4295856032,Acindar Industria Argentina de Aceros SA,,,https://www.acindar.com.ar/wp-content/uploads/2018/11/reporte-sustentabilidad-2011.pdf,2020-04-08,5000030092.0,Arcelormittal SA,,,,,
8,ARG,ARG0005,Argentina,1.0,,,0.0,ARCELORMITTAL ACINDAR SA,"SAN NICOLAS, BA",Operating,-33.346459,-60.257842,PlantFacts,Exact,4295856032,Acindar Industria Argentina de Aceros SA,,,https://www.acindar.com.ar/wp-content/uploads/2018/11/reporte-sustentabilidad-2011.pdf,2020-04-08,5000030092.0,Arcelormittal SA,,,,,
9,ARG,ARG0006,Argentina,18.0,2.0,8630.0,1.0,TERNIUM SIDERAR,"RAMALLO-SAN NICOLAS, BA",Operating,-33.36772,-60.149568,PlantFacts,Exact,4295856067,Ternium Argentina SA,,,https://www.ternium.com/en/contact-us#our-offices,2020-04-30,4295856130.0,Ternium SA,,,,,
10,ARG,ARG0007,Argentina,1.0,,,0.0,TERNIUM SIDERAR,"HAEDO, BA",Operating,-34.638826,-58.611764,PlantFacts,Exact,4295856067,Ternium Argentina SA,,,https://www.ternium.com/en/contact-us#our-offices,2020-04-30,4295856130.0,Ternium SA,,,,,
11,ARG,ARG0008,Argentina,1.0,,,0.0,OSTRILION SA,BUENOS AIRES,Operating,-34.653668,-58.372773,PlantFacts,Exact,,,,,,,,,,,,,
12,ARG,ARG0009,Argentina,2.0,,,0.0,TERNIUM SIDERAR,"FLORENCIO VARELA, BA",Operating,-34.819972,-58.199373,PlantFacts,Exact,4295856067,Ternium Argentina SA,,,https://www.ternium.com/en/contact-us#our-offices,2020-04-30,4295856130.0,Ternium SA,,,,,
13,ARG,ARG0010,Argentina,5.0,,,0.0,TERNIUM SIDERAR,"ENSENADA, BA",Operating,-34.854633,-57.941098,PlantFacts,Exact,4295856067,Ternium Argentina SA,,,https://www.ternium.com/en/contact-us#our-offices,2020-04-30,4295856130.0,Ternium SA,,,,,
14,ARG,ARG0011,Argentina,2.0,,,0.0,TERNIUM SIDERAR,"CANNING, BA",Operating,-34.877925,-58.511103,PlantFacts,Exact,4295856067,Ternium Argentina SA,,,https://www.ternium.com/en/contact-us#our-offices,2020-04-30,4295856130.0,Ternium SA,,,,,
15,ARG,ARG0012,Argentina,5.0,,300.0,0.0,VOTORANTIM ACERBRAG SA,"BRAGADO, BA",Operating,-35.140247,-60.44965,PlantFacts,Exact,,,,,,,,,,,,,
16,ARG,ARG0013,Argentina,5.0,,650.0,0.0,GERDAU SA,"PEREZ, SANTA FE",Operating,-32.991766,-60.755798,PlantFacts,Exact,,,,,,,,,,,,,
17,ARG,ARG0014,Argentina,7.0,,1300.0,1.0,TENARIS SIDERCA,"CAMPANA, BA",Operating,-34.155515,-58.975955,PlantFacts,Exact,4298123650,Siderca SAIC,,,https://www.tenaris.com/en/contact/tenaris-around-the-world/,2020-05-15,4295883040.0,Tenaris SA,,,,,
18,ARG,ARG0015,Argentina,,,,0.0,,,Operating,-34.687596,-58.539625,https://www.acindar.com.ar/wp-content/uploads/2018/11/reporte-sustentabilidad-2011.pdf,Exact,4295856032,Acindar Industria Argentina de Aceros SA,,,https://www.acindar.com.ar/wp-content/uploads/2018/11/reporte-sustentabilidad-2011.pdf,2020-07-24,5000030092.0,Arcelormittal SA,,,,,
19,ARG,ARG0016,Argentina,,,,0.0,,,Operating,-32.974327,-60.728177,https://www.acindar.com.ar/wp-content/uploads/2018/11/reporte-sustentabilidad-2011.pdf,Exact,4295856032,Acindar Industria Argentina de Aceros SA,,,https://www.acindar.com.ar/wp-content/uploads/2018/11/reporte-sustentabilidad-2011.pdf,2020-07-24,5000030092.0,Arcelormittal SA,,,,,
20,ARM,ARM0001,Armenia,3.0,,200.0,0.0,ASCE GROUP OJSC,CHARENTSAVAN,Operating,40.413734,44.639174,PlantFacts,Exact,,,,,,,,,,,,,
21,AUS,AUS0001,Australia,2.0,,,0.0,ONESTEEL,"NEWCASTLE, NSW",Operating,-32.887895,151.744629,PlantFacts,Exact,5071167707,Infrabuild Australia Pty Ltd,,,https://www.infrabuild.com/en-au/branch-locator/branches/infrabuild-steel-centre-newcastle/,2020-05-19,5057811578.0,Gfg Alliance Ltd,,,,,
22,AUS,AUS0002,Australia,8.0,1.0,4000.0,1.0,ONESTEEL,"WHYALLA, SA",Operating,-33.009381,137.587836,PlantFacts,Exact,5071167707,Infrabuild Australia Pty Ltd,,,https://www.libertygfg.com/liberty-primary-steel/,2020-05-19,5057811578.0,Gfg Alliance Ltd,,,,,
23,AUS,AUS0003,Australia,4.0,,660.0,0.0,ONESTEEL,"SYDNEY WEST-ROOTY HILL , NSW",Operating,-33.76601,150.849819,PlantFacts,Exact,5071167707,Infrabuild Australia Pty Ltd,,,https://www.infrabuild.com/en-au/branch-locator/branches/infrabuild-steel-rooty-hill/,2020-05-19,5057811578.0,Gfg Alliance Ltd,,,,,
24,AUS,AUS0005,Australia,,,,0.0,,,Operating,-34.457668,150.874433,https://www.bluescope.com/about-us/where-we-are/,Exact,4295858761,BlueScope Steel Ltd,,,https://www.bluescope.com/about-us/where-we-are/,2020-04-30,4295858761.0,BlueScope Steel Ltd,,,,,
25,AUS,AUS0006,Australia,19.0,1.0,10900.0,1.0,BLUESCOPE STEEL,"PORT KEMBLA, NSW",Operating,-34.463834,150.886191,PlantFacts,Exact,4295858761,BlueScope Steel Ltd,2.6,,https://www.bluescope.com/about-us/where-we-are/,2020-04-30,4295858761.0,BlueScope Steel Ltd,,,,,
26,AUS,AUS0007,Australia,5.0,,710.0,0.0,ONESTEEL ,"LAVERTON, VIC",Operating,-37.831379,144.788169,PlantFacts,Exact,5071167707,Infrabuild Australia Pty Ltd,,,https://www.infrabuild.com/en-au/branch-locator/branches/infrabuild-steel-laverton/,2020-05-19,5057811578.0,Gfg Alliance Ltd,,,,,
27,AUS,AUS0008,Australia,9.0,,,0.0,BLUESCOPE STEEL,"WESTERN PORT-HASTINGS, VIC",Operating,-38.283196,145.20503,PlantFacts,Exact,4295858761,BlueScope Steel Ltd,,,https://www.bluescope.com/about-us/where-we-are/,2020-04-30,4295858761.0,BlueScope Steel Ltd,,,,,
28,AUS,AUS0009,Australia,1.0,,,0.0,BLUESCOPE STEEL,"BRISBANE, QLD",Operating,-27.582695,153.032028,PlantFacts,Exact,4295858761,BlueScope Steel Ltd,,,https://www.bluescope.com/about-us/where-we-are/,2020-04-30,4295858761.0,BlueScope Steel Ltd,,,,,
29,AUS,AUS0011,Australia,1.0,,,0.0,BLUESCOPE STEEL,WESTERN SYDNEY,Operating,-33.8757124,151.2092035,PlantFacts,Approximate,,,,,,,,,,,,,
30,AUT,AUT0001,Austria,3.0,,,0.0,VOESTALPINE WIRE ROD AUSTRIA GMBH,DONAWITZ,Operating,47.3907944,15.0413113,PlantFacts,Exact,5000038424,voestalpine Stahl Donawitz GmbH,,,https://www.voestalpine.com/stahldonawitz/en/,2020-03-09,4295858976.0,voestalpine AG,,,,,
31,AUT,AUT0002,Austria,4.0,,,0.0,VOESTALPINE PRECISION STRIP ,KEMATEN,Operating,48.064267,14.792859,PlantFacts,Exact,4298049361,voestalpine Precision Strip GmbH,,,https://www.voestalpine.com/precision-strip/company/locations-worldwide/austria/locations,2020-03-09,4295858976.0,voestalpine AG,,,,,
32,AUT,AUT0003,Austria,40.0,4.0,13780.0,1.0,VOESTALPINE STAHL,LINZ,Operating,48.280419,14.332767,PlantFacts,Exact,5035949909,voestalpine Stahl GmbH,,,https://www.voestalpine.com/search/en/#?category=locations&format=list&ccontinent=europe&ccountry=austria,2020-03-09,4295858976.0,voestalpine AG,,,,,
33,AUT,AUT0004,Austria,1.0,,,0.0,STAHL JUDENBURG GMBH,JUDENBURG,Operating,47.174085,14.667944,PlantFacts,Exact,5039934273,Stahl Judenburg GmbH,,,https://www.gmh-gruppe.de/de-en/gmh-gruppe/units.html,2020-05-13,4296801706.0,Georgsmarienhuette Holding GmbH,,,,,
34,AUT,AUT0005,Austria,10.0,2.0,4340.0,1.0,VA STAHL DONAWITZ GMBH,DONAWITZ,Operating,47.381778,15.061917,PlantFacts,Exact,5000038424,voestalpine Stahl Donawitz GmbH,,,https://www.voestalpine.com/stahldonawitz/en/company/location/,2020-05-13,4295858976.0,voestalpine AG,,,,,
35,AUT,AUT0006,Austria,1.0,,,0.0,VA SCHIENEN GMBH,DONAWITZ,Operating,47.385683,15.054246,PlantFacts,Exact,4297238556,voestalpine Schienen GmbH,,,https://www.voestalpine.com/railway-systems/en/locations/voestalpine-schienen/,2020-05-13,4295858976.0,voestalpine AG,,,,,
36,AUT,AUT0007,Austria,1.0,,,0.0,WUPPERMANN AUSTRIA,JUDENBURG,Operating,47.173627,14.656863,PlantFacts,Exact,5035951450,Wuppermann Austria GmbH,,,https://www.wuppermann.com/locations/business-unit-tube/wuppermann-austria-gmbh,2020-05-14,4297659527.0,Wuppermann AG,,,,,
37,AUT,AUT0008,Austria,22.0,,180.0,0.0,BÌÐHLER EDELSTAHL GMBH,KAPFENBERG,Operating,47.4440644,15.2830786,PlantFacts,Exact,5061187413,Voestalpine Boehler Edelstahl Co GmbH & KG,,,https://www.bohler-edelstahl.com/en/voestalpine-boehler-edelstahl/,2020-05-13,4295858976.0,voestalpine AG,,,,,
38,AUT,AUT0009,Austria,9.0,,300.0,0.0,BREITENFELD EDELSTAHL,MITTERDORF,Operating,47.5345049,15.5006443,PlantFacts,Exact,4297142027,Breitenfeld Edelstahl AG,,1942.0,https://breitenfeld.at/en/how-to-find-us/,2020-05-13,4297142027.0,Breitenfeld Edelstahl AG,,,,,
39,AUT,AUT0010,Austria,4.0,,,0.0,VOESTALPINE PRECISION STRIP ,BOEHLERWERK,Operating,47.989746,14.73982,PlantFacts,Exact,4298049361,voestalpine Precision Strip GmbH,,,https://www.voestalpine.com/precision-strip/company/locations-worldwide/austria/locations,2020-03-09,4295858976.0,voestalpine AG,,,,,
40,AUT,AUT0011,Austria,4.0,,365.0,0.0,ST.+WW. MARIENHÌÏTTE,GRAZ,Operating,47.063927,15.418404,PlantFacts,Exact,5000898379,Stahl- und Walzwerk Marienhütte GmbH,,,https://www.marienhuette.at/kontakt,2020-05-15,,M + S Maschinen und Stahl Holding GmbH,,,,,
41,AUT,AUT0012,Austria,2.0,,,0.0,BÌÐHLER BLECHE GMBH,MÌÏRZZUSCHLAG,Operating,47.601473,15.666271,PlantFacts,Exact,,Voestalpine BÖHLER Bleche GmbH,,,https://www.voestalpine.com/search/en/#?category=locations&format=list&ccontinent=europe&ccountry=austria,2020-05-13,4295858976.0,voestalpine AG,,,,,
42,AUT,AUT0013,Austria,,,,0.0,,,Operating,47.547881,15.546945,https://www.gmh-gruppe.de/de-en/gmh-gruppe/units/vtk-krieglach-gmbh.html,Exact,5057961576,VTK Veredelungstechnik Krieglach GmbH,,,https://www.gmh-gruppe.de/de-en/gmh-gruppe/units/vtk-krieglach-gmbh.html,2020-05-13,4296801706.0,Georgsmarienhuette Holding GmbH,,,,,
43,AZE,AZE0001,Azerbaijan,7.0,,700.0,0.0,BAKU STEEL,BAKU PLANT,Operating,40.430742,49.886409,PlantFacts,Exact,,,,,,,,,,,,,
44,BHR,BHR0001,Bahrain,5.0,,2350.0,1.0,UNITED STEEL CO (SULB),HIDD INDUSTRIAL AREA,Operating,26.195868,50.678224,PlantFacts,Exact,5000674578,Sulb Company BSCC,,,http://www.sulb.com.bh/#!/contactus,2020-07-30,5000674578.0,Sulb Company BSCC,,,,,
45,BHR,BHR0002,Bahrain,1.0,,,0.0,UNIVERSAL ROLLING (UNIROL),HIDD INDUSTRIAL AREA,Operating,26.209857,50.669087,PlantFacts,Exact,,,,,,,,,,,,,
46,BHR,BHR0003,Bahrain,3.0,,,0.0,UNITED STAINLESS STEEL CO,HIDD INDUSTRIAL AREA,Operating,26.20225,50.678547,PlantFacts,Exact,,,,,,,,,,,,,
47,BHR,BHR0004,Bahrain,2.0,,11000.0,1.0,BAHRAIN STEEL,HIDD INDUSTRIAL AREA,Operating,26.196895,50.681574,PlantFacts,Exact,,,,,,,,,,,,,
48,BGD,BGD0001,Bangladesh,2.0,,,0.0,KYCR COIL INDUSTRIES LTD,CHITTAGONG,Operating,22.499834,91.715778,PlantFacts,Exact,,,,,,,,,,,,,
49,BGD,BGD0002,Bangladesh,2.0,,,0.0,BSRM STEELS,CHITTAGONG,Operating,22.38106,91.76862,PlantFacts,Exact,,,,,,,,,,,,,
50,BGD,BGD0003,Bangladesh,2.0,,0.0,0.0,RAHIM STEEL MILLS,DACCA,Operating,23.7167821,90.4221204,PlantFacts,Approximate,,,,,,,,,,,,,
51,BGD,BGD0004,Bangladesh,10.0,,1450.0,1.0,ABUL KHAIR STEEL,CHITTAGONG,Operating,22.472008,91.734827,PlantFacts,Exact,,,,,,,,,,,,,
52,BGD,BGD0005,Bangladesh,4.0,,,0.0,MEGHNA ENG. WORKS,CHITTAGONG,Operating,22.356851,91.7831819,PlantFacts,Approximate,,,,,,,,,,,,,
53,BLR,BLR0001,Belarus,16.0,,2700.0,1.0,BYELORUSSIAN STEEL  WORKS (BMZ),ZHLOBIN,Operating,52.851543,29.992252,PlantFacts,Exact,,,,,,,,,,,,,
54,BLR,BLR0002,Belarus,1.0,,,0.0,MIORY ROLLING MILL (MMPZ-group),"MIORY, VITEBSKAYA",Operating,53.924526,27.511219,PlantFacts,Approximate,,,,,,,,,,,,,
55,BEL,BEL0001,Belgium,1.0,,,0.0,ARCELORMITTAL LIEGE,MARCHIN,Operating,50.493935,5.235437,PlantFacts,Exact,5000060650,Arcelormittal Belgium SA,,,https://belgium.arcelormittal.com/en/inauguration-world-first-steel-industry-jet-vapor-deposition/,2020-04-08,5000030092.0,Arcelormittal SA,,,,,
56,BEL,BEL0002,Belgium,1.0,,,0.0,ARCELORMITTAL GENT ,GEEL,Operating,51.143648,4.925188,PlantFacts,Exact,5000060650,Arcelormittal Belgium SA,,,https://flateurope.arcelormittal.com/ourmills/be/geel,2020-04-08,5000030092.0,Arcelormittal SA,,,,,
57,BEL,BEL0003,Belgium,2.0,,,0.0,EUROPICKLING NV,EVERGEM,Operating,51.097947,3.692931,PlantFacts,Exact,5057778962,Europickling SA NV,,,http://www.europickling.com/en/,2020-05-14,5057778962.0,Europickling SA NV,,,,,
58,BEL,BEL0004,Belgium,1.0,,,0.0,ARCELORMITTAL GENT (SIKEL),GENK,Operating,50.940834,5.47968,PlantFacts,Exact,5000060650,Arcelormittal Belgium SA,,,https://flateurope.arcelormittal.com/ourmills/be/genk,2020-04-08,5000030092.0,Arcelormittal SA,,,,,
59,BEL,BEL0005,Belgium,17.0,,1200.0,1.0,APERAM STAINLESS EUROPE,GENK,Operating,50.935668,5.509796,PlantFacts,Exact,5000047720,Aperam Stainless Belgium NV,,,https://www.aperam.com/belgium,2020-05-13,5001428593.0,Aperam SA,,,,,
60,BEL,BEL0008,Belgium,27.0,2.0,16630.0,1.0,ARCELORMITTAL GENT ,GHENT,Operating,51.170703,3.807688,PlantFacts,Exact,5000060650,Arcelormittal Belgium SA,,,https://flateurope.arcelormittal.com/ourmills/be/gent,2020-04-08,5000030092.0,Arcelormittal SA,,,,,
61,BEL,BEL0009,Belgium,5.0,,,0.0,ARCELORMITTAL LIEGE,LIEGE-KESSALES,Operating,50.613573,5.494676,PlantFacts,Exact,5000060650,Arcelormittal Belgium SA,,,https://belgium.arcelormittal.com/en/inauguration-world-first-steel-industry-jet-vapor-deposition/,2020-04-08,5000030092.0,Arcelormittal SA,,,,,
62,BEL,BEL0010,Belgium,7.0,,,0.0,NLMK LA LOUVIERE,LA LOUVIERE,Operating,50.488137,4.189103,PlantFacts,Exact,4296772966,NLMK la Louviere SA,,,https://eu.nlmk.com/en/strip/la-louviere/,2020-04-08,4295887048.0,Novolipetsk Steel PAO,,,,,
63,BEL,BEL0011,Belgium,5.0,,,0.0,ARCELORMITTAL LIEGE,FLEMALLE,Operating,50.594707,5.466776,PlantFacts,Exact,5000060650,Arcelormittal Belgium SA,,,https://flateurope.arcelormittal.com/ourmills/be/liege,2020-04-08,5000030092.0,Arcelormittal SA,,,,,
64,BEL,BEL0013,Belgium,1.0,,,0.0,TATA STEEL SEGAL,IVOZ-RAMET,Operating,50.585014,5.437697,PlantFacts,Exact,,Segal Le galvaniseur de pointe pour l'automobile,0.6,1986.0,http://www.segal.be/fr/segal.html,2020-04-08,4295872420.0,Tata Steel Ltd,,,,,
65,BEL,BEL0015,Belgium,7.0,,1000.0,0.0,APERAM STAINLESS EUROPE,CHATELET,Operating,50.414695,4.531989,PlantFacts,Exact,5000047720,Aperam Stainless Belgium NV,,,https://www.aperam.com/belgium,2020-05-13,5001428593.0,Aperam SA,,,,,
66,BEL,BEL0016,Belgium,5.0,,850.0,0.0,THY MARCINELLE S.A.,CHARLEROI,Operating,50.410335,4.429693,PlantFacts,Exact,4296671968,Thy Marcinelle S.A.,,,https://www.rivagroup.com/en/production_sites/thy_marcinelle_charleroi,2020-05-13,5039934846.0,Riva Forni Elettrici SpA,,,,,
67,BEL,BEL0017,Belgium,5.0,,450.0,0.0,ARCELORMITTAL INDUSTEEL BELGIUM,CHARLEROI-MARCHIENNE,Operating,50.409829,4.412782,PlantFacts,Exact,4296306422,Industeel Belgium SA,,,https://industeel.arcelormittal.com/industeel/where-we-are/,2020-04-08,5000030092.0,Arcelormittal SA,,,,,storage
68,BEL,BEL0018,Belgium,1.0,,,0.0,NLMK CLABECQ ,ITTRE,Operating,50.6757,4.227263,PlantFacts,Exact,5000738417,NLMK Clabecq SA,,,https://eu.nlmk.com/en/plate/clabecq/production-process/,2020-04-08,4295887048.0,Novolipetsk Steel PAO,,,,,
69,BEL,BEL0019,Belgium,2.0,,,0.0,ARCELORMITTAL LIEGE,LIEGE-TILLEUR,Operating,50.615642,5.517478,PlantFacts,Exact,5039930036,Arcelormittal Ringmill SA,,,https://arcelormittalringmill.com/en/,2020-04-08,5000030092.0,Arcelormittal SA,,,,,
70,BEL,BEL0022,Belgium,,,,0.0,,,Operating,48.577504,7.795943,https://eu.nlmk.com/en/strip/strasbourg/,Exact,5000737650,NLMK Strasbourg SA,,,https://eu.nlmk.com/en/strip/strasbourg/,2020-05-13,4295887048.0,Novolipetsk Steel PAO,,,,,
71,BEL,BEL0023,Belgium,,,,0.0,,,Operating,50.412708,4.333466,https://www.rivagroup.com/en/production_sites/tfe_fontaine_l_eveque,Exact,,Tréfileries de Fontaine l'Eveque,,,https://www.rivagroup.com/en/production_sites/tfe_fontaine_l_eveque,2020-05-13,5039934846.0,Riva Forni Elettrici SpA,,,,,
72,BIH,BIH0001,Bosnia and Herzegovina,9.0,1.0,5000.0,1.0,ARCELORMITTAL ZENICA,ZENICA,Operating,44.227639,17.898785,PlantFacts,Exact,5000032006,Arcelormittal Zenica doo Zenica,,,https://barsandrods.arcelormittal.com/mills/zenica,2020-07-27,5000030092.0,Arcelormittal SA,,,,,
73,BIH,BIH0002,Bosnia and Herzegovina,1.0,,,0.0,GIKIL,LUKAVAC,Operating,44.549915,18.505602,PlantFacts,Exact,,,,,,,,,,,,,
74,BIH,BIH0003,Bosnia and Herzegovina,,,,0.0,,,Operating,44.550961,18.504728,0,Exact,,,,,,,,,,,,,
75,BRA,BRA0001,Brazil,6.0,,870.0,0.0,GERDAU USIBA ,"SIMOES FILHO, BA",Operating,-12.84938,-38.433312,PlantFacts,Exact,4297571558,Gerdau Acos Longos Sa,,,https://www2.gerdau.com.br/sites/default/files/downloadable_files/LO-USB-080722.pdf,2020-07-20,5000004542.0,Gerdau SA,,,,,
76,BRA,BRA0002,Brazil,2.0,2.0,500.0,0.0,COSIPAR,"BARCARENA CITY, PARA",Operating,-5.413941,-49.089814,PlantFacts,Exact,,,,,,,,,,,,,
77,BRA,BRA0003,Brazil,4.0,,,0.0,CIA. SIDERURGICA DE SUAPE,"SUAPE, PERNAMBUCO",Operating,-8.342767,-35.006253,PlantFacts,Exact,,,,,,,,,,,,,
78,BRA,BRA0004,Brazil,8.0,,250.0,0.0,GERDAU ACONORTE,"RECIFE, PE",Operating,-8.071809,-34.977168,PlantFacts,Exact,4297571558,Gerdau Acos Longos Sa,,,https://www2.gerdau.com.br/sites/default/files/downloadable_files/14001-Aconorte-010122.pdf,2020-07-20,5000004542.0,Gerdau SA,,,,,
79,BRA,BRA0005,Brazil,6.0,1.0,610.0,0.0,SID. NORTE BRASIL SA,"MARABA, PARA",Operating,-5.413785,-49.079903,PlantFacts,Exact,,,,,,,,,,,,,
80,BRA,BRA0006,Brazil,6.0,3.0,780.0,0.0,GUSA NORDESTE SA,"ACAILANDIA, MARANHAO",Operating,-4.893147,-47.387118,PlantFacts,Exact,,,,,,,,,,,,,
81,BRA,BRA0007,Brazil,4.0,4.0,340.0,0.0,VIENA SIDERURGICA SA,"ACAILANDIA, MARANHAO",Operating,-4.889582,-47.392827,PlantFacts,Exact,,,,,,,,,,,,,
82,BRA,BRA0008,Brazil,3.0,,190.0,0.0,GERDAU CEARENSE ,"MARACANAU, CE",Operating,-3.856478,-38.607259,PlantFacts,Exact,4297571558,Gerdau Acos Longos Sa,,,https://www2.gerdau.com.br/sites/default/files/downloadable_files/14001-Cearense-010122.pdf,2020-07-20,5000004542.0,Gerdau SA,,,,,
83,BRA,BRA0009,Brazil,2.0,,,0.0,SIDERURGICA LATINO-AMERICANA SA,"CAUCAIA, CEARA",Operating,-3.716437,-38.839305,PlantFacts,Exact,,,,,,,,,,,,,
84,BRA,BRA0010,Brazil,6.0,1.0,10460.0,1.0,CIA. SID. DO PECEM (CSP),"PORTUARIO DO PECEM, CE",Operating,-3.581128,-38.858662,PlantFacts,Exact,5036161673,CSP Companhia Siderurgica do Pecem,,,https://www.cspecem.com/en/about-us/pecem-industry-and-port-complex/,2020-08-03,4295859761.0,Vale SA,,,,,
85,BRA,BRA0011,Brazil,1.0,,7000.0,1.0,VALE,"SAO LUIS, MARANHAO",Operating,-2.565241,-44.346453,PlantFacts,Exact,,,,,,,,,,,,,
86,BRA,BRA0012,Brazil,30.0,3.0,14355.0,1.0,USIMINAS,"IPATINGA, MG",Operating,-19.48595,-42.543737,PlantFacts,Exact,4295859856,Usinas Siderurgicas de Minas Gerais SA (USIMINAS),,,http://ri.usiminas.com/enu/geographical-presence,2020-03-09,5000808305.0,Techint Group,,,,,
87,BRA,BRA0013,Brazil,2.0,,,0.0,UNIGAL,"IPATINGA, MG",Operating,-19.492494,-42.552629,PlantFacts,Exact,4298262119,UNIGAL,,,https://www.nipponsteel.com/en/company/bases/north-central-and-south-america/,2020-04-08,4295877313.0,Nippon Steel Corp,,,,,"seems to be part of the big Usiminas plant in IPATINGA, MG"
88,BRA,BRA0014,Brazil,2.0,,510.0,0.0,GERDAU GUAIRA,"ARAUCARIA, PR",Operating,-25.564046,-49.421697,PlantFacts,Exact,4297571558,Gerdau Acos Longos Sa,,,https://www2.gerdau.com.br/sites/default/files/downloadable_files/LO-UAR-100817.pdf,2020-07-20,5000004542.0,Gerdau SA,,,,,
89,BRA,BRA0015,Brazil,21.0,2.0,940.0,0.0,APERAM SOUTH AMERICA,"TIMOTEO, MG",Operating,-19.530304,-42.643162,PlantFacts,Exact,4295859711,Aperam Inox America do Sul SA,,,https://www.aperam.com/brazil,2020-05-13,5001428593.0,Aperam SA,,,,,
90,BRA,BRA0016,Brazil,13.0,,140.0,0.0,VILLARES METALS SA,"SUMARE, SP",Operating,-22.80243,-47.205493,PlantFacts,Exact,,,,,,,,,,,,,
91,BRA,BRA0017,Brazil,10.0,,600.0,0.0,GERDAU ACOS ESPECIAIS,"PINDAMONHANGABA,SP",Operating,-22.899036,-45.351304,PlantFacts,Exact,4298258054,Gerdau Acos Especiais SA,,,https://www2.gerdau.com.br/blog-acos-especiais,2020-05-22,5000004542.0,Gerdau SA,,,,,
92,BRA,BRA0018,Brazil,10.0,,1200.0,1.0,GERDAU COSIGUA,"SANTA CRUZ, RJ",Operating,-22.911284,-43.740853,PlantFacts,Exact,4297571558,Gerdau Acos Longos Sa,,,https://www2.gerdau.com.br/sites/default/files/downloadable_files/38002_16_Certificado_01_01_22_Correcao_Escopo.pdf,2020-07-20,5000004542.0,Gerdau SA,,,,,
93,BRA,BRA0020,Brazil,,,,0.0,,,Operating,-22.909515,-43.735625,https://www.ternium.com/en/contact-us#our-offices,Exact,5072816151,Ternium Brasil Ltda,,,https://www.ternium.com/en/contact-us#our-offices,2020-04-30,4295856130.0,Ternium SA,,,,,
94,BRA,BRA0021a,Brazil,,,,0.0,,,Operating,-22.920129,-45.413562,https://www.gsimec.com.mx/locations.php,Exact,4295884304,Grupo Simec SAB de CV,,,https://www.gsimec.com.mx/locations.php,2020-04-30,4295884304.0,Grupo Simec SAB de CV,,,,,
95,BRA,BRA0021b,Brazil,,,,0.0,,,Operating,-20.348094,-40.360882,https://www.gsimec.com.mx/locations.php,Exact,4295884304,Grupo Simec SAB de CV,,,https://www.gsimec.com.mx/locations.php,2020-04-30,4295884304.0,Grupo Simec SAB de CV,,,,,
96,BRA,BRA0021c,Brazil,,,,0.0,,,Operating,-20.067539,-44.590902,https://www.gsimec.com.mx/locations.php,Exact,4295884304,Grupo Simec SAB de CV,,,https://www.gsimec.com.mx/locations.php,2020-04-30,4295884304.0,Grupo Simec SAB de CV,,,,,
97,BRA,BRA0022,Brazil,5.0,,520.0,0.0,GV DO BRASIL (SIMEC),"PINDAMONHANGABA, SP",Operating,-22.920462,-45.413671,PlantFacts,Exact,,,,,,,,,,,,,
98,BRA,BRA0023,Brazil,1.0,,,0.0,TEKNO SA,"GUARATINGUETA, SP",Operating,-22.781061,-45.161643,PlantFacts,Exact,,,,,,,,,,,,,
99,BRA,BRA0024,Brazil,2.0,,0.0,0.0,MWL BRASIL MANUFACTURERS,"CACAPAVA, SP",Operating,-23.099299,-45.690689,PlantFacts,Exact,,,,,,,,,,,,,
100,BRA,BRA0025,Brazil,5.0,,360.0,0.0,GERDAU ACOS VILLARES SA,"MOGI DAS CRUZES,SP",Operating,-23.526669,-46.155653,PlantFacts,Exact,4298258054,Gerdau Acos Especiais SA,,,https://www2.gerdau.com.br/blog-acos-especiais,2020-05-22,5000004542.0,Gerdau SA,,,,,
101,BRA,BRA0026,Brazil,26.0,2.0,14100.0,1.0,USIMINAS,"CUBATAO, SP",Operating,-23.864354,-46.375453,PlantFacts,Exact,4295859856,Usinas Siderurgicas de Minas Gerais SA (USIMINAS),,,http://ri.usiminas.com/enu/geographical-presence,2020-03-09,5000808305.0,Techint Group,,,,,
102,BRA,BRA0028,Brazil,4.0,,,0.0,CSN-PARANA,"ARAUCARIA, PARANA",Operating,-25.571562,-49.379677,PlantFacts,Exact,,,,,,,,,,,,,
103,BRA,BRA0029,Brazil,5.0,,,0.0,ARCELORMITTAL VEGA,"SAO  FRANCISCO  DO SUL, SC",Operating,-26.293549,-48.632341,PlantFacts,Exact,,Arcelormittal Vega,,,https://brasil.arcelormittal.com/a-arcelormittal/unidades,2020-07-24,5000030092.0,Arcelormittal SA,,,,,
104,BRA,BRA0030,Brazil,7.0,,300.0,0.0,GERDAU RIOGRANDENSE,"SAPUCAIA do SUL, RS",Operating,-29.814758,-51.174543,PlantFacts,Exact,4297571558,Gerdau Acos Longos Sa,,,https://www2.gerdau.com.br/sites/default/files/downloadable_files/licenca-de-operacao-riograndense.pdf,2020-07-20,5000004542.0,Gerdau SA,,,,,
105,BRA,BRA0031,Brazil,7.0,,440.0,0.0,GERDAU ACOS ESPECIAIS,"PIRATINI, CHARQUEADAS, RS",Operating,-29.955797,-51.615722,PlantFacts,Exact,4298258054,Gerdau Acos Especiais SA,,,https://www2.gerdau.com.br/blog-acos-especiais,2020-05-22,5000004542.0,Gerdau SA,,,,,
106,BRA,BRA0032,Brazil,4.0,,800.0,0.0,GERDAU SAO PAULO,"ARACARIGUAMA, SP",Operating,-23.438837,-47.088448,PlantFacts,Exact,4297571558,Gerdau Acos Longos Sa,,,https://www2.gerdau.com.br/sites/default/files/downloadable_files/LO-GSP-310719.pdf,2020-07-20,5000004542.0,Gerdau SA,,,,,
107,BRA,BRA0033,Brazil,5.0,,1100.0,1.0,ARCELORMITTAL ACOS LONGOS,"PIRACICABA, SP",Operating,-22.697006,-47.657576,PlantFacts,Exact,4297613419,Arcelormittal Acos Longos,,,https://brasil.arcelormittal.com/a-arcelormittal/unidades,2020-07-24,5000030092.0,Arcelormittal SA,,,,,
108,BRA,BRA0034,Brazil,8.0,2.0,16200.0,1.0,THYSSENKRUPP CSA ,"SANTA CRUZ, RJ",Operating,-22.910399,-43.738842,PlantFacts,Exact,5047640306,Thyssenkrupp Companhia Siderurgica do Atlantico,,,https://www.thyssenkrupp-brazil.com/en/locations/,2020-04-08,4295869754.0,Thyssenkrupp AG,,,,,Sold to Ternium https://www.reuters.com/article/us-csa-m-a-ternium/thyssenkrupp-ends-costly-americas-venture-with-csa-sale-to-ternium-idUSKBN1610Y2
109,BRA,BRA0035,Brazil,44.0,3.0,17520.0,1.0,CIA.SID. NACIONAL,"VOLTA REDONDA, RJ",Operating,-22.51241,-44.111205,PlantFacts,Exact,,,,,,,,,,,,,
110,BRA,BRA0036,Brazil,9.0,1.0,4400.0,1.0,ARCELORMITTAL ACOS LONGOS,"MONLEVADE, MG",Operating,-19.832517,-43.1306,PlantFacts,Exact,4297613419,Arcelormittal Acos Longos,,,https://brasil.arcelormittal.com/a-arcelormittal/unidades,2020-07-24,5000030092.0,Arcelormittal SA,,,,,
111,BRA,BRA0037,Brazil,5.0,2.0,680.0,0.0,GERDAU BARAO DE COCAIS,"BARAO DE COCAIS, MG",Operating,-19.937757,-43.479802,PlantFacts,Exact,4297571558,Gerdau Acos Longos Sa,,,https://www2.gerdau.com.br/sites/default/files/downloadable_files/14001-BCOC-010122.pdf,2020-07-20,5000004542.0,Gerdau SA,,,,,
112,BRA,BRA0038,Brazil,6.0,2.0,1150.0,1.0,VALLOUREC TUBOS DO BRASIL,"BELO HORIZONTE, MG",Operating,-19.967326,-44.010111,PlantFacts,Exact,5050269481 & 5001083353,Vallourec Soluções Tubulares do Brasil S.A. VSB,,,https://www.vallourec.com/en/brazil/about-us,2020-03-09,4295867374.0,Vallourec SA,,,,,"Website: ""Vallourec Soluções Tubulares do Brasil, established in October 2016, is the result of the merging between Vallourec Tubos do Brasil and Vallourec & Sumitomo Tubos do Brasil. The company has two plants for the production of seamless steel pipes, one in Belo Horizonte (MG) in the district of Barreiro, and the other in Jeceaba (MG)."" PermID from the new company NA. Thus added permIDs from both former companies.  Registration doc 2018 states: ""close the blast furnace and steel mill in Belo Horizonte, which
was launched in 2017 and completed, as planned, in July 2018;"" (p. 56)"
113,BRA,BRA0039,Brazil,7.0,,700.0,0.0,VOTORANTIM SIDERURGIA,"BARRA MANSA, RJ",Operating,-22.525002,-44.192582,PlantFacts,Exact,4295859712,Arcelormittal Brasil SA,,,https://brasil.arcelormittal.com/a-arcelormittal/unidades,2020-07-27,5000030092.0,ArcelorMittal SA,,,,,Company is now owned by ArcelorMittal Brasil
114,BRA,BRA0040,Brazil,7.0,3.0,790.0,0.0,GERDAU DIVINOPOLIS,"DIVINOPOLIS, MG",Operating,-20.154319,-44.879285,PlantFacts,Exact,4297571558,Gerdau Acos Longos Sa,,,https://www2.gerdau.com.br/sites/default/files/downloadable_files/14001_Divinopolis_010122.pdf,2020-07-20,5000004542.0,Gerdau SA,,,,,
115,BRA,BRA0041,Brazil,1.0,,7000.0,1.0,VALE,"VARGEM GRANDE, MG",Operating,-20.177001,-43.877478,PlantFacts,Exact,,,,,,,,,,,,,
116,BRA,BRA0042,Brazil,14.0,3.0,21390.0,1.0,ARCELORMITTAL TUBARAO,"VITORIA, ES",Operating,-20.252175,-40.235543,PlantFacts,Exact,4295860088,Arcelormittal Tubarao Comercial SA,,,https://brasil.arcelormittal.com/a-arcelormittal/unidades,2020-07-24,5000030092.0,Arcelormittal SA,,,,,
117,BRA,BRA0043,Brazil,1.0,1.0,75.0,0.0,SIDERSUL,RIBAS DO RIO PARDO,Operating,-20.443546,-53.774033,PlantFacts,Exact,,,,,http://www.vetorial.ind.br/pt/negocios/siderurgia,,,,,,,,Owned by Vetorial 
118,BRA,BRA0044,Brazil,22.0,2.0,15460.0,1.0,GERDAU ACOMINAS SA,"OURO BRANCO, MG",Operating,-20.545246,-43.751023,PlantFacts,Exact,4296998615,Gerdau Acominas SA,,,https://www2.gerdau.com.br/sites/default/files/downloadable_files/14001-OuroBranco-010122.pdf,2020-07-20,5000004542.0,Gerdau SA,,,,,
119,BRA,BRA0045,Brazil,6.0,2.0,1650.0,1.0,VALLOUREC & SUMITOMO TUBOS DO BRAZIL,"JECEABA CITY, MG",Operating,-20.584536,-43.962919,PlantFacts,Exact,5050269481 & 5001083353,Vallourec Soluções Tubulares do Brasil S.A. VSB,,,https://www.vallourec.com/en/brazil/about-us,2020-03-09,4295867374.0,Vallourec SA,,,,,"Website: ""Vallourec Soluções Tubulares do Brasil, established in October 2016, is the result of the merging between Vallourec Tubos do Brasil and Vallourec & Sumitomo Tubos do Brasil. The company has two plants for the production of seamless steel pipes, one in Belo Horizonte (MG) in the district of Barreiro, and the other in Jeceaba (MG)."" PermID from the new company NA. Thus added permIDs from both former companies."
120,BRA,BRA0046,Brazil,4.0,,30500.0,1.0,SAMARCO MINERACAO,"PONTA UBU, ES",Operating,-20.779552,-40.582788,PlantFacts,Exact,,,,,https://www.samarco.com/en?s=ubu,,,,,,,,This is a port; company owned by Vale & BHP (50/50)
121,BRA,BRA0047,Brazil,6.0,2.0,1110.0,1.0,ARCELORMITTAL ACOS LONGOS,"JUIZ DE FORA, MG",Operating,-21.626262,-43.465857,PlantFacts,Exact,4297613419,Arcelormittal Acos Longos,,,https://brasil.arcelormittal.com/a-arcelormittal/unidades,2020-07-24,5000030092.0,Arcelormittal SA,,,,,
122,BRA,BRA0048,Brazil,1.0,,,0.0,GALVASUD S.A.,"PORTO REAL, RJ",Operating,-22.432299,-44.346012,PlantFacts,Exact,,,,,,,,,,,,,
123,BRA,BRA0049,Brazil,5.0,,1000.0,0.0,VOTORANTIM SIDERURGIA,"RESENDE, RJ",Operating,-22.493036,-44.511737,PlantFacts,Exact,4295859712,Arcelormittal Brasil SA,,,https://brasil.arcelormittal.com/a-arcelormittal/unidades,2020-07-27,5000030092.0,ArcelorMittal SA,,,,,Company is now owned by ArcelorMittal Brasil
124,BRA,BRA0050,Brazil,1.0,,4600.0,1.0,VALE,"FABRICA, MG.",Operating,-20.418922,-43.877319,PlantFacts,Exact,,,,,,,,,,,,,
125,BRA,BRA0051,Brazil,1.0,,,0.0,GERDAU ACOS VILLARES SA,"SOROCABA, SP",Operating,-23.5015338,-47.4525944,PlantFacts,Approximate,,,,,,,,,,,,,
126,BRA,BRA0053,Brazil,2.0,,5200.0,1.0,VALE,"TUBARAO, VITORIA, ES",Operating,-20.27353,-40.244719,PlantFacts,Exact,,,,,,,,,,,,,No idea which facility in the area this one refers to
127,BRA,BRA0058,Brazil,1.0,,,0.0,CIA. IND. ITAUNENSE,"ITAUNA, MG",Operating,-20.057648,-44.606158,PlantFacts,Approximate,,,,,,,,,,,,,No idea which facility in the area this one refers to
128,BRA,BRA0059,Brazil,2.0,2.0,230.0,0.0,GERDAU COSIGUA,"CONTAGEM, MG",Operating,-19.961966,-44.024426,PlantFacts,Exact,4297571558,Gerdau Acos Longos Sa,,,https://www2.gerdau.com.br/sites/default/files/downloadable_files/Declaracao_Ambiental_CED_Contagem_jun_2020.pdf,2020-07-20,5000004542.0,Gerdau SA,,,,,No idea which facility in the area this one refers to
129,BRA,BRA0060,Brazil,1.0,1.0,180.0,0.0,MMX MINERACAO E METALICOS SA,"CORUMBA, MS",Operating,-19.023313,-57.621604,PlantFacts,Approximate,4295860310,MMX Mineração e Metálicos S.A.,,,http://www.mmx.com.br/show.aspx?idCanal=xtbcR0qZQ71ieFEq0nPVng== ; https://www.bnamericas.com/en/news/brazil-court-orders-winding-up-of-mmx,2020-02-19,5001422351.0,Ebx Group,,,,,"Unclear where the facility is. Company filed for bankruptcy protection in 2016, parent company EBX Group (website NA). Port assets sold off, no idea what happened to this plant. "
130,BRA,BRA0061,Brazil,4.0,4.0,480.0,0.0,COSIPAR,"MARABA CITY, PARA",Operating,-5.432496,-49.07869,PlantFacts,Approximate,,,,,,,,,,,,,No idea which facility in the area this one refers to
131,BRA,BRA0062,Brazil,2.0,2.0,200.0,0.0,GERDAU MARGUSA,"BACABEIRA, MARANHAO",Operating,-2.960714,-44.328337,PlantFacts,Approximate,,,,,,,,,,,,,No idea which facility in the area this one refers to
132,BRA,BRA0063,Brazil,3.0,,,0.0,MANGELS INDUSTIA E COMERCIO LTDA,"S. BERNANDO DO CAMPO, SP",Operating,-23.694565,-46.572822,PlantFacts,Approximate,,,,,,,,,,,,,No idea which facility in the area this one refers to
133,BRA,BRA0064,Brazil,,,,0.0,,,Operating,-22.524566,-44.192888,https://brasil.arcelormittal.com/a-arcelormittal/unidades,Exact,4297613419,Arcelormittal Acos Longos,,,https://brasil.arcelormittal.com/a-arcelormittal/unidades,2020-07-24,5000030092.0,Arcelormittal SA,,,,,
134,BRA,BRA0065,Brazil,,,,0.0,,,Operating,-22.493336,-44.512854,https://brasil.arcelormittal.com/a-arcelormittal/unidades,Exact,4297613419,Arcelormittal Acos Longos,,,https://brasil.arcelormittal.com/a-arcelormittal/unidades,2020-07-24,5000030092.0,Arcelormittal SA,,,,,
135,BRA,BRA0066,Brazil,,,,0.0,,,Operating,-23.526901,-46.155852,https://www2.gerdau.com.br/sites/default/files/downloadable_files/LO-MOGI-050417.pdf,Exact,4297571558,Gerdau Acos Longos Sa,,,https://www2.gerdau.com.br/sites/default/files/downloadable_files/LO-MOGI-050417.pdf,2020-07-20,5000004542.0,Gerdau SA,,,,,
136,BRA,BRA0067,Brazil,,,,0.0,,,Operating,-23.257903,-45.920223,https://www2.gerdau.com.br/sites/default/files/downloadable_files/14001-SJC-150922.pdf,Exact,4297571558,Gerdau Acos Longos Sa,,,https://www2.gerdau.com.br/sites/default/files/downloadable_files/14001-SJC-150922.pdf,2020-07-20,5000004542.0,Gerdau SA,,,,,
137,BRA,BRA0068,Brazil,,,,0.0,,,Operating,-23.598177,-46.882013,https://www2.gerdau.com.br/sites/default/files/downloadable_files/LO-COT-270819.pdf,Exact,4297571558,Gerdau Acos Longos Sa,,,https://www2.gerdau.com.br/sites/default/files/downloadable_files/LO-COT-270819.pdf,2020-07-20,5000004542.0,Gerdau SA,,,,,
138,BGR,BGR0001,Bulgaria,10.0,,1000.0,0.0,STOMANA INDUSTRY SA,PERNIK,Operating,42.598509,23.099229,PlantFacts,Exact,,Stomana Industry S.A.,,,https://sidenor.gr/en/start/production-facilities/,2020-05-13,5040438569.0,Viohalco SA,,,,,
139,BGR,BGR0002,Bulgaria,1.0,,,0.0,PROMET STEEL JSC,BOURGAS,Operating,42.381594,27.295882,PlantFacts,Exact,5036178411,Promet Steel JSC,,,https://promet.metinvestholding.com/en/about/structure,2020-05-15,5037839870.0,SCM Holdings Ltd,,,,,
140,BGR,BGR0003,Bulgaria,6.0,,0.0,0.0,RADOMIR METAL IND. JSC,RADOMIR,Operating,42.522862,22.989212,PlantFacts,Exact,,Radomir Metal Industries Ad,,,http://www.radomir-metal-industries.com/en/index.php,2020-05-15,,Radomir Metal Industries Ad,,,,,
141,KHM,KHM0001,Cambodia,1.0,,,0.0,EASTERN STEEL IND.,PHNOM PENH,Operating,11.5563738,104.9282099,PlantFacts,Approximate,,,,,,,,,,,,,
142,CAN,CAN0001,Canada,4.0,,330.0,0.0,GERDAU,"SELKIRK, MANITOBA",Operating,50.129954,-96.899991,PlantFacts,Exact,5035931883,Gerdau Steel North America Inc,,,https://www2.gerdau.com/gerdau-locations,2020-04-08,5000004542.0,Gerdau SA,,,,,
143,CAN,CAN0002,Canada,1.0,,5700.0,1.0,WABUSH MINES,"POINTE NOIRE-Septlies, QC",Operating,50.159447,-66.491004,PlantFacts,Exact,,,,,,,,,,,,,
144,CAN,CAN0003,Canada,1.0,,6000.0,1.0,IRON ORE CO OF CANADA,"SEPT-IIES, QC",Operating,50.194727,-66.357231,PlantFacts,Exact,4296654348,Iron Ore Company of Canada,,,http://www.ironore.ca/en/what-we-do/our-operations,2020-05-22,4295894786.0,Rio Tinto PLC,,,,,
145,CAN,CAN0004,Canada,6.0,,950.0,0.0,EVRAZ REGINA STEEL,"REGINA, SK",Operating,50.516767,-104.630721,PlantFacts,Exact,5044009886,Evraz North America PLC,,,https://www.evraz.com/en/company/assets/evraz-regina/,2020-04-08,5036227579.0,EVRAZ plc,,,,,
146,CAN,CAN0005,Canada,3.0,,290.0,0.0,ALBERTA STEEL (SCAW METALS GROUP),"EDMONTON, ALBERTA",Operating,53.530394,-113.386731,PlantFacts,Exact,5073667894,AltaSteel Inc,,,https://www.altasteel.com/contact,2020-08-04,4295875990.0,Kyoei Steel Ltd,,,,,
147,CAN,CAN0006,Canada,14.0,2.0,6060.0,1.0,ESSAR STEEL ALGOMA INC,"SAULT-STE.MARIE, ONT",Operating,46.522246,-84.368822,PlantFacts,Exact,4295860713,Algoma Steel Inc,2.8,,https://www.algoma.com/about-algoma/visitor-information/,2020-08-04,4295860713.0,Algoma Steel Inc,,,,,
148,CAN,CAN0007,Canada,2.0,,10000.0,1.0,IRON ORE CO OF CANADA,"LABRADOR-CITY, NL",Operating,52.958007,-66.891681,PlantFacts,Exact,4296654348,Iron Ore Company of Canada,,,http://www.ironore.ca/en/what-we-do/our-operations,2020-05-22,4295894786.0,Rio Tinto PLC,,,,,
149,CAN,CAN0008,Canada,3.0,,72.0,0.0,FINKL STEEL,"SOREL, QC",Operating,46.045904,-73.123999,PlantFacts,Exact,4297029961,Sorel Forge Inc,,,http://www.sorelforge.com/en/contact-us.aspx,2020-08-05,4295890566.0,Schmolz+Bickenbach AG,,,,,
150,CAN,CAN0009,Canada,2.0,,140.0,0.0,QUEBEC METAL POWDERS,"SOREL-TRACY, QC",Operating,46.040936,-73.145793,PlantFacts,Exact,,,,,,,,,,,,,
151,CAN,CAN0010,Canada,3.0,,400.0,0.0,"RIO TINTO, FER ET TITANE","SOREL-TRACY, QC",Operating,46.044984,-73.138363,PlantFacts,Exact,,,,,,,,,,,,,
152,CAN,CAN0011,Canada,1.0,,,0.0,ARCELORMITTAL DOFASCO WINDSOR,"WINDSOR, ONT",Operating,42.261466,-83.095251,PlantFacts,Exact,,,,,,,,,,,,,
153,CAN,CAN0012,Canada,6.0,1.0,4390.0,1.0,U.S. STEEL CANDA INC,"NANTICOKE, ONT",Operating,42.810542,-80.096124,PlantFacts,Exact,4295861119,Stelco Inc,,,https://www.stelco.com/about/contact-us,2020-04-30,4295903049.0,United States Steel Corp,,,,,
154,CAN,CAN0013,Canada,6.0,,330.0,0.0,ASW STEEL INC.,"WELLAND, ONT",Operating,42.999368,-79.235554,PlantFacts,Exact,,Valbruna ASW Inc,,,https://www.asw-steel.com/about-us/,2020-08-04,4298375291.0,Acciaierie Valbruna SpA,,,,,
155,CAN,CAN0014,Canada,3.0,,,0.0,NELSON STEEL,"STONEY-CREEK, ONT",Operating,43.223098,-79.675475,PlantFacts,Exact,,,,,,,,,,,,,
156,CAN,CAN0015,Canada,3.0,,,0.0,BAYCOAT,"HAMILTON, ONT",Operating,43.241624,-79.749057,PlantFacts,Exact,4297637377,Baycoat Ltd,0.2,,http://www.baycoat.com/about.html,2020-08-04,4295861119.0,Stelco Inc,,,,,
157,CAN,CAN0016,Canada,,,,0.0,,,Operating,43.25631,-79.896656,https://www.gsimec.com.mx/locations.php,Exact,4298219370,Republic Steel,,,https://www.gsimec.com.mx/locations.php,2020-04-30,4295884304.0,Grupo Simec SAB de CV,,,,,
158,CAN,CAN0017,Canada,31.0,3.0,7208.0,1.0,ARCELORMITTAL DOFASCO,"HAMILTON, ONT",Operating,43.270861,-79.804217,PlantFacts,Exact,5044365193,ArcelorMittal Dofasco Inc,,,https://dofasco.arcelormittal.com/who-we-are/at-a-glance/about-dofasco.aspx,2020-04-08,5000030092.0,Arcelormittal SA,,,,,
159,CAN,CAN0019,Canada,15.0,,3050.0,1.0,ARCELORMITTAL MONTREAL,"CONTRECOEUR-EAST, QC",Operating,45.834665,-73.252253,PlantFacts,Exact,5000047717,ArcelorMittal Montreal Inc,,,https://long-canada.arcelormittal.com/en/our-locations/,2020-04-08,5000030092.0,Arcelormittal SA,,,,,
160,CAN,CAN0020,Canada,4.0,,500.0,0.0,IVACO ROLLING MILLS LTD,"L'ORIGNAL, ONT",Operating,45.613941,-74.704608,PlantFacts,Exact,,,,,,,,,,,,,
161,CAN,CAN0021,Canada,1.0,,,0.0,ARCELORMITTAL MONTREAL,"LONGUEUIL, QC",Operating,45.567953,-73.456647,PlantFacts,Exact,5000047717,ArcelorMittal Montreal Inc,,,https://long-canada.arcelormittal.com/en/our-locations/,2020-04-08,5000030092.0,Arcelormittal SA,,,,,
162,CAN,CAN0022,Canada,1.0,,,0.0,ARCELORMITTAL COTEAU-DU-LAC INC,"COTEAU-DU-LAC, QC",Operating,45.300868,-74.202862,PlantFacts,Exact,5057800518,ArcelorMittal Coteau-du-Lac LP,,,https://dofasco.arcelormittal.com/~/media/Files/A/Arcelormittal-Canada/documents/corporate-publications/solution-in-steel-141015.pdf,2020-04-08,5000030092.0,Arcelormittal SA,,,,,
163,CAN,CAN0023,Canada,3.0,,,0.0,MAX AICHER NORTH AMERICA,"HAMILTON, ONT",Operating,43.266553,-79.823015,PlantFacts,Exact,,,,,,,,,,,,,
164,CAN,CAN0024,Canada,1.0,,,0.0,GERDAU,"CAMBRIDGE, ONT",Operating,43.371349,-80.279304,PlantFacts,Exact,5035931883,Gerdau Steel North America Inc,,,https://www2.gerdau.com/gerdau-locations,2020-04-08,5000004542.0,Gerdau SA,,,,,
165,CAN,CAN0025,Canada,4.0,,910.0,0.0,GERDAU,"WHITBY, ONT",Operating,43.859169,-78.910219,PlantFacts,Exact,5035931883,Gerdau Steel North America Inc,,,https://www2.gerdau.com/gerdau-locations,2020-04-08,5000004542.0,Gerdau SA,,,,,
166,CAN,CAN0026,Canada,5.0,,,0.0,U.S. STEEL CANDA INC,"HAMILTON, ONT",Operating,43.26922,-79.824398,PlantFacts,Exact,4295861119,Stelco Inc,,,https://www.stelco.com/about/contact-us,2020-04-30,4295903049.0,United States Steel Corp,,,,,
167,CAN,CAN0028,Canada,2.0,,150.0,0.0,CANAD. ST. FOUNDRIES,"MONTREAL, QC",Operating,45.5016889,-73.567256,PlantFacts,Approximate,,,,,,,,,,,,,
168,CAN,CAN0029,Canada,4.0,,600.0,0.0,ARCELORMITTAL MONTREAL,"CONTRECOEUR-WEST, QC",Operating,45.820803,-73.26465,PlantFacts,Exact,5000047717,ArcelorMittal Montreal Inc,,,https://long-canada.arcelormittal.com/en/our-locations/,2020-04-08,5000030092.0,Arcelormittal SA,,,,,
169,CAN,CAN0030,Canada,1.0,,2000.0,1.0,SOCIETE INT. METALLIQUE,"BECANCOUR, QC",Under Construction,46.359215,-72.412211,PlantFacts,Exact,,Société Internationale Métallique,2.0,2021.0,https://www.imetallics.ca/location/,2020-05-13,,Société Internationale Métallique,,,,,
170,CAN,CAN0031,Canada,2.0,,6000.0,1.0,ARCELORMITTAL MINES CANADA,"PORT CARTIER, QC",Operating,50.032736,-66.795524,PlantFacts,Exact,5056442020,ArcelorMittal Mining Canada GP,,,https://www.transformerlavenir.com/en/facilities/,2020-04-08,5000030092.0,Arcelormittal SA,,,,,
171,CAN,CAN0032,Canada,,,,0.0,,,Operating,45.458752,-73.606281,https://long-canada.arcelormittal.com/en/our-locations/,Exact,5000047717,ArcelorMittal Montreal Inc,,,https://long-canada.arcelormittal.com/en/our-locations/,2020-04-08,5000030092.0,Arcelormittal SA,,,,,
172,CAN,CAN0033,Canada,,,,0.0,,,Operating,43.2625,-79.78609,https://long-canada.arcelormittal.com/en/our-locations/,Exact,5000047717,ArcelorMittal Montreal Inc,,,https://long-canada.arcelormittal.com/en/our-locations/,2020-04-08,5000030092.0,Arcelormittal SA,,,,,
173,CHL,CHL0001,Chile,19.0,2.0,2600.0,1.0,CIA. SID.HUACHIPATO SA,TALCAHUANO,Operating,-36.750028,-73.129171,PlantFacts,Exact,,,,,,,,,,,,,
174,CHL,CHL0002,Chile,1.0,,3800.0,1.0,CIA MINERA DEL PACIFICO SA,HUASCO,Operating,-28.481533,-71.247411,PlantFacts,Exact,,,,,,,,,,,,,
175,CHL,CHL0003,Chile,5.0,,360.0,0.0,GERDAU SA,"COLINA, SANTIAGO",Operating,-33.2045451,-70.6759654,PlantFacts,Approximate,,,,,,,,,,,,,
176,CHL,CHL0004,Chile,1.0,,,0.0,CIA. SID.HUACHIPATO SA,"MAIPU, SANTIAGO",Operating,-33.5105866,-70.7572607,PlantFacts,Approximate,,,,,,,,,,,,,
177,CHN,CHN0001,China,9.0,3.0,3900.0,1.0,LINGYUAN I&S GROUP CO LTD,"LINGYUAN, LIAONING",Operating,41.27388,119.412404,PlantFacts,Exact,5000066764,Ling Yuan Iron & Steel Group Co Ltd,,,https://markets.ft.com/data/equities/tearsheet/profile?s=600231:SHH,2020-04-08,5000066764.0,Ling Yuan Iron & Steel Group Co Ltd,,,,,This plant is in LINGYUAN; the company is Lingyuan Iron & Steel Co Ltd
178,CHN,CHN0002,China,28.0,12.0,21063.0,1.0,BEITAI I&S GROUP,"BENXI, LIAONING",Operating,41.220324,123.615418,PlantFacts,Exact,5000005802,Beitai Iron & Steel Group Co Ltd,,,http://www.bxsteel.com/en/Benxi_steel_plates_co___ltd/,2020-04-08,5000014433.0,State-owned Assets Supervision and Administration Commission of Liaoning Provincial Government,,,,,"seems to be part of Benxi Iron & Steel Group;unclear if this is refering to the Benxi plant in Benxi, Liaoning (see above), or to the plant in Bentai, Benxi, Liaoning"
179,CHN,CHN0003,China,3.0,2.0,1300.0,1.0,ANSHAN BAODE I&S,"ANSHAN, LIAONING",Operating,41.172838,122.94421,PlantFacts,Exact,,"Anshan Baode Iron & Steel Co., Ltd",1.3,,http://www.baode.com.cn/about/index.php?aid=3,2020-04-06,,"Anshan Baode Iron & Steel Co., Ltd",,,,,"Plant address not on the website, but listed/located on Gmaps"
180,CHN,CHN0004,China,,,,0.0,Jianlong Beiman,"QIQIHAR, HEILONGJIANG",Operating,47.19187,123.616174,http://www.ejianlong.com/d/jl001/steel/company.jsp?entryid=0e902d701de34206bcba509b9311a65d&parentId=14,Exact,,Jianlong Beiman,,,http://www.ejianlong.com/d/jl001/steel/company.jsp?entryid=0e902d701de34206bcba509b9311a65d&parentId=14,2020-04-06,5000564682.0,"Beijing Jianlong Heavy Industry Group Co., Ltd (Jianlong Group)",,,,,"Newly added to the list; not sure if this one refers to an existing entry ; parts of the plant nearby seem also to belong to Dongbei Special Steel Group and Beiman Special Steel Co.,Ltd."
181,CHN,CHN0005,China,20.0,3.0,11200.0,1.0,CHENGDE I&S GROUP CO LTD,"CHENGDE, HEBEI",Operating,40.946739,117.721016,PlantFacts,Exact,5000577496,Chengde Iron & Steel Group Co Ltd (HBIS Group),,,http://www.cdsteel.cn/main/About.asp,2020-04-06,5000022648.0,HBIS Group Co Ltd,,,,,No address available but there is only one big plant near Chengde
182,CHN,CHN0006,China,42.0,4.0,33100.0,1.0,BENXI IRON & STEEL,"BENXI, LIAONING",Operating,41.280013,123.732009,PlantFacts,Exact,5037655413,Benxi Steel Group Corp,,,http://www.bxsteel.com/en/Benxi_steel_plates_co___ltd/,2020-04-08,5000014433.0,State-owned Assets Supervision and Administration Commission of Liaoning Provincial Government,,,,,
183,CHN,CHN0007,China,89.0,8.0,57240.0,1.0,ANSHAN IRON & STEEL,"ANSHAN, LIAONING",Operating,41.139644,122.986939,PlantFacts,Exact,5000069947,Angang Steel Co Ltd,,,http://www.ansteelgroup.com/a/news.php?pcid=16&cid1=18&cid=18&id=26 ; https://www1.hkexnews.hk/listedco/listconews/sehk/2019/0411/ltn201904111113.pdf (AR 2017),2020-03-20,5037655487.0,Ansteel Group Corp Ltd,,,,,There is only one massive plant in Anshan city which belongs to the company. The company's registered address is close to the plant. Address on the website and in AR2017
184,CHN,CHN0008,China,21.0,6.0,12930.0,1.0,MINMETAL YINKOU MEDIUM PLATE ,"YINGKOU, LIAONING",Operating,40.669466,122.396226,PlantFacts,Exact,5000024140,Minmetals Yingkou Medium Plate Co Ltd,,,http://www.wkyg.com/about_55.html,2020-04-08,4295865030.0,Minmetals Development Co Ltd,,,,,
185,CHN,CHN0009,China,,,,0.0,Jilin Jianlong Steel Co Ltd,"LONGTAN, JILIN",Operating,44.018496,126.533673,http://www.ejianlong.com/d/jl001/steel/company.jsp?entryid=25e1a14e819c4b6e9975aeadcb951d62&parentId=14,Exact,5000536907,Jilin Jianlong Steel Co Ltd,,,http://www.ejianlong.com/d/jl001/steel/company.jsp?entryid=25e1a14e819c4b6e9975aeadcb951d62&parentId=14,2020-04-06,5000564682.0,"Beijing Jianlong Heavy Industry Group Co., Ltd (Jianlong Group)",,,,,Newly added to the list; not sure if this one refers to an existing entry
186,CHN,CHN0010,China,33.0,5.0,12080.0,1.0,SHOUGANG TONGHUA I&S,"TONGHUA-CITY, JILIN",Operating,41.779388,126.021293,PlantFacts,Exact,4297406696,Tonghua Iron & Steel Grp Co,4.11,,https://www.shougang.com.cn/en/ehtml/IronSteelIndustry/20170329/827.html,2020-04-29,4296818551.0,"Shougang Group Co., Ltd.",,,,,
187,CHN,CHN0011,China,25.0,,400.0,0.0,DONGBEI SPEC. STEEL GROUP,"FUSHUN, LIAONING",Operating,41.838158,123.794543,PlantFacts,Exact,4295864950,"Fushun Special Steel Co., Ltd",,,http://eng.shasteel.cn/doc/2019/03/20/11941.shtml,2020-04-06,5000051246.0,"Jiangsu Shagang Group Co., Ltd",,,,,Address provided on webside does not work but in the given district is only this plant
188,CHN,CHN0012,China,11.0,2.0,2630.0,1.0,FUSHUN NEW I&S CO LTD,"FUSHUN-CITY, LIAONING",Operating,41.841329,123.754745,PlantFacts,Exact,4298345075,Fushun New Steel Corp Ltd,,,http://www.ejianlong.com/d/jl001/steel/company.jsp?entryid=63e60883a5f341269665a969635f651d&parentId=14,2020-04-06,5000564682.0,"Beijing Jianlong Heavy Industry Group Co., Ltd (Jianlong Group)",,,,,Address provided on webside does not work but in the given district is only this plant
189,CHN,CHN0013,China,,,,0.0,Jilin Henglian Precision Casting Technology Co Ltd,"PANSHI, JILIN",Operating,43.196606,126.001849,http://www.ejianlong.com/d/jl001/steel/company.jsp?entryid=20365046d55e4257b051877c043dc443&parentId=14,Exact,5051781052,Jilin Henglian Precision Casting Technology Co Ltd,,,http://www.ejianlong.com/d/jl001/steel/company.jsp?entryid=20365046d55e4257b051877c043dc443&parentId=14,2020-04-06,5000564682.0,"Beijing Jianlong Heavy Industry Group Co., Ltd (Jianlong Group)",,,,,Newly added to the list; not sure if this one refers to an existing entry
190,CHN,CHN0014,China,33.0,3.0,24250.0,1.0,BAOSTEEL BAYI I&S ,"URUMQI, XINJIANG-UYGUR",Operating,43.851167,87.307955,PlantFacts,Exact,5000069959,Baosteel Group Xinjiang Bayi Iron & Steel Co Ltd,,,http://www.baosteel.com/group_en/contents/2898/40044.html,2020-07-23,5000039946.0,China Baowu Steel Group Corp Ltd,,,,,Address provided on website; Sustainability Report highlights that Baosteel owns 50.02% of Bayi I&S
191,CHN,CHN0015,China,6.0,2.0,4000.0,1.0,"Heilongjiang Jianlong Iron & Steel Co., Ltd.","SHUANGYASHAN-CITY, HEILONGJIANG",Operating,46.604985,131.083002,PlantFacts,Exact,5000695241,"Heilongjiang Jianlong Iron & Steel Co., Ltd.",,,http://www.ejianlong.com/d/jl001/steel/company.jsp?entryid=2c81fb29d6624c75b43196a1017250da&parentId=14,2020-04-06,5000564682.0,"Beijing Jianlong Heavy Industry Group Co., Ltd (Jianlong Group)",,,,,Address provided on website
192,CHN,CHN0016,China,47.0,7.0,39380.0,1.0,BAOTOU I&S,"BAOTOU, INN-MONGOLIA",Operating,40.652771,109.747754,PlantFacts,Exact,5000014386,Baotou Iron & Steel Group Co Ltd,,,http://www.btsteel.com/istool/JSZX/JSP/bao_gufen.jsp?,2020-04-08,5000014386.0,Baotou Iron & Steel Group Co Ltd,,,,,
193,CHN,CHN0017,China,5.0,1.0,4050.0,1.0,ANGANG LINGYUAN I&S,"CHAOYANG-CITY, LIAONING",Operating,41.527567,120.368355,PlantFacts,Exact,5064653915,"Angang Group Chaoyang Steel and Iron Co., Ltd. ",2.0,,https://www1.hkexnews.hk/listedco/listconews/sehk/2019/0411/ltn201904111113.pdf (AR 2018),2020-03-20,5037655487.0,Ansteel Group Corp Ltd,,,,,There is only one plant in this city which belongs to the company.
194,CHN,CHN0018,China,26.0,8.0,18280.0,1.0,XUANHUA I&S ,"XUANHUA CITY, HEBEI",Operating,40.587671,115.09458,PlantFacts,Exact,5000575826,Xuanhua Iron & Steel Group Co Ltd,,,http://www.hbisco.com/site/en/steelbusiness/index.html,2020-04-08,5000022648.0,HBIS Group,,,,,"part of Tangsteel, which is part of HBIS group"
195,CHN,CHN0019,China,17.0,,1120.0,1.0,DONGBEI SPEC. STEEL GROUP,"DALIAN I, LIAONING",Operating,39.191582,122.060879,PlantFacts,Exact,5000042856,Dongbei Special Steel Group Co Ltd,,,http://eng.shasteel.cn/doc/2019/05/11/10125.shtml,2020-03-27,5000051246.0,"Jiangsu Shagang Group Co., Ltd",,,,,Company lists production base in this city but no exact location or address
196,CHN,CHN0020,China,20.0,2.0,24440.0,1.0,ANSHAN IRON & STEEL,"BAYUQUAN-YINGKOU, LIAONING",Operating,40.311737,122.133357,PlantFacts,Exact,,Angang Group Bayuquan Iron & Steel Branch Company,,,https://www1.hkexnews.hk/listedco/listconews/sehk/2019/0411/ltn201904111113.pdf (AR 2018),2020-03-20,5037655487.0,Ansteel Group Corp Ltd,,,,,There is only one plant in Bayuquan city which belongs to the company.
197,CHN,CHN0021,China,12.0,4.0,2620.0,1.0,SHIJIAZHUANG I&S CO,"SHIJIAZHUANG, HEBEI",Operating,38.058342,114.565382,PlantFacts,Exact,4296807460,Shijiazhuang Iron and Steel Co Ltd (SHISTEEL),,,http://www.csggs.com/qyjj.asp?menulb=159%C6%F3%D2%B5%B8%C5%BF%F6&id=79,2020-03-30,5000022648.0,HBIS Group Co Ltd,,,,,Plant close to the address given on website
198,CHN,CHN0022,China,7.0,1.0,3800.0,1.0,HEBEI ZONGHENG I&S CO LTD,"CANGZHOU-CITY, HEBEI",Operating,38.288641,117.816946,PlantFacts,Exact,,,,,https://www.metalbulletin.com/Article/3749063/Chinas-Zongheng-Steel-shuts-down-operations.html,,,,,,,,"Company apparently shut down all operations, but this plant does not seem closed ; not sure if this is the plant to which the database entry refers as I couldn't validate the company but it's the only one in the region"
199,CHN,CHN0023,China,26.0,9.0,17150.0,1.0,HEBEI JINGYE GROUP,"NANDIAN-TOWN, HEBEI",Operating,38.392272,114.141132,PlantFacts,Exact,4296192493,Hebei Jingye Group Co Ltd,,,http://www.hbjyjt.com/list/?204_1.html,2020-04-08,5015596280.0,British Steel Corporation Ltd,,,,,
200,CHN,CHN0024,China,35.0,2.0,37820.0,1.0,SHOUGANG JINGTANG UNITED I&S,"CAOFEIDIAN ISLAND, HEBEI",Operating,38.959941,118.501447,PlantFacts,Exact,5001098404,Shougang Jingtang United Iron & Steel Co Ltd,10.0,2010.0,,2020-04-06,4296818551.0,"Shougang Group Co., Ltd.",,,,,"There is only this one major completed and operational plant in CAOFEIDIAN ISLAND, HEBEI. The ultimate parent company website states that the plant is in CAOFEIDIAN. The picture shows the plant being nearby the harbour. News websites also report that the plant is directly by the harbour. "
201,CHN,CHN0025,China,14.0,2.0,6350.0,1.0,TIANJIN ROCKCHECK I&S CO. LTD,"TIANJIN, TIANJIN",Operating,38.970363,117.498606,PlantFacts,Exact,,,,,,,,,,,,,
202,CHN,CHN0026,China,16.0,3.0,11570.0,1.0,TIANJIN IRON & STEEL,"TIANJIN-CITY, TIANJIN ",Operating,39.030407,117.499299,PlantFacts,Exact,5040195312,Tianjin Iron&Steel Group Co Ltd,,,http://www.xbysteel.com/contact.asp,2020-04-08,5000069899.0,State-owned Assets Supervision and Administration Commission of Shan Xi Provincial Government,,,,,
203,CHN,CHN0027,China,,,,0.0,Tangshan Guofeng Iron & Steel Co Ltd,"Caofeidian, Tangshan, Hebei",Operating,39.539941,118.105791,https://www.argusmedia.com/en/news/1820817-tangshan-upgrades-sintering-units-cuts-steel-capacity?backToResults=true,Exact,4298150363,Tangshan Guofeng Iron & Steel Co Ltd,8.0,2019.0,https://www.argusmedia.com/en/news/1820817-tangshan-upgrades-sintering-units-cuts-steel-capacity?backToResults=true,2020-04-06,,Xinhua Metallurgy / CTS (H.K.) Steel Limited (UNCLEAR),,,,,"Seems to be the new location of the relocated Guofeng plant (formerly in Fengnan district, Tangshan). But this could not be verified with company information. Unclear if this plant is already operational or not: http://www.asianmetal.com/news/data/1465652/Tangshan%20Guofeng%20Iron%20&%20Steel%20suspends%20production"
204,CHN,CHN0028,China,4.0,1.0,2200.0,1.0,XILIN IRON & STEEL GROUP,"XILIN-YICHUN CITY, HEILONGJIANG",Operating,47.494755,129.288261,PlantFacts,Exact,4297276891,Jianlong Xilin,4.0,,https://www.mysteel.net/article/5012960-0503/Jianlong-Xilin-steel-output-hit-record-4-mln-t-in-2019.html,2020-04-06,5000564682.0,"Beijing Jianlong Heavy Industry Group Co., Ltd (Jianlong Group)",,,,,"It seems this company was bought by Jianlong Group. Original company website NA (www.xlsteel.com.cn). Several news point toward the acquisition: https://www.mysteel.net/article/5012960-0503/Jianlong-Xilin-steel-output-hit-record-4-mln-t-in-2019.html ; https://www.kallanish.com/en/steel-news/market-reports/article-details/jianlong-buy-xilin-iron-and-steel-1118/ ; https://www.tivlon.com/news/jianlong-group-to-spend-3-4-billion-rmb-in-2-years-to-upgrade-xilin-iron-steel-group/ ; https://mp.weixin.qq.com/s/kbAtSkWU3qTxxozIyDAOzw ; however, no news on Jianlong Group website available. "
205,CHN,CHN0029,China,,,,0.0,Tangshan Iron and Steel Group Co Ltd (TANGSTEEL),"Loating, Tangshan, HEBEI",Operating,39.271834,119.030843,http://www.tangsteel.com/Type/ThirdType1/39/134/60 ; http://www.xinhuanet.com/english/2019-04/21/c_137995249.htm ; ,Exact,5065322737,Tangshan Iron and Steel Group Co Ltd (TANGSTEEL),,,http://www.tangsteel.com/Type/ThirdType1/39/134/60 ; http://www.xinhuanet.com/english/2019-04/21/c_137995249.htm ; ,2020-03-20,5000022648.0,HBIS Group Co Ltd,,,,,This plant is already listed on the Tangsteel website as one of the company's major prodution facilities. It also seems to be the new location for some of the old Tangshan-city based plants which needed to be relocated (http://www.xinhuanet.com/english/2019-04/21/c_137995249.htm). But unclear as there is no information available on the company website.  
206,CHN,CHN0030,China,21.0,9.0,13050.0,1.0,TANGSHAN GUOFENG I&S GROUP ,"FEGNAN TANGSHAN, HEBEI",Operating,39.538655,118.106334,PlantFacts,Exact,4298150363,Tangshan Guofeng Iron & Steel Co Ltd,,,http://www.asianmetal.com/news/data/1465652/Tangshan%20Guofeng%20Iron%20&%20Steel%20suspends%20production ; https://www.reuters.com/article/us-china-pollution-steel/chinas-steel-heartland-tests-mills-mettle-with-new-smog-busting-plan-idUSKCN1LQ2P3,2020-03-20,,Xinhua Metallurgy / CTS (H.K.) Steel Limited (UNCLEAR),,,,,"Plant shut down. New plant to be built in the coastal region, but unclear where exactly. Company websites of Tangshan Guofeng and Xinhua not available (http://www.gfgt.com/   & NA). Ultimate parent unlcear. Company acquired by Xinhua Metallurgy in 2019 (Reuters). However, S&P Capital IQ lists China National Travel Service (HK) Group Corporation as the parent company of Tangshan Guofeng based on information on the outdated parent company's website (from 2011), which lists Tangshan Guofeng as subsidiary (http://www.ctseb.com/en/self_en/11000073.html). Also, Guofeng has another plant in Fengnan district of Tangshan which is also shut down and probably relocated (https://www.mysteel.net/article/5001185-050302/Tangshans-Guofeng-to-close-its-second-old-steelworks.html). "
207,CHN,CHN0031,China,2.0,2.0,600.0,0.0,HUANGHE GONGMAO GROUP,"WUHAI CITY, INN-MONGOLIA",Operating,39.655248,106.794216,PlantFacts,Approximate,,,,,,,,,,,,,
208,CHN,CHN0032,China,41.0,5.0,24450.0,1.0,TANGSHAN I&S CO,"TANGSHAN, HEBEI",Operating,39.710978,118.209809,PlantFacts,Exact,5000013130,Tangshan Iron and Steel Group Co Ltd (TANGSTEEL),,,http://www.tangsteel.com/Type/ThirdType1/39/130/56,2020-03-20,5000022648.0,HBIS Group Co Ltd,,,,,"The plant is the only big plant in Kaiping Distict and the location fits the information from the company website: ""The ironworks is located in the north of Jializi Village, Kaiping District, Tangshan City. It is adjacent to the coal mining spread line of the Kailuan Jinggezhuang Mine in the east, the Jiazunzi Station of the Tangzun Railway in the west, and the steep river flowing two kilometers to the southwest. Across the village, the plant covers an area of 2.2 square kilometers, 7 kilometers away from the headquarters of Hegang Tangsteel ."""
209,CHN,CHN0033,China,39.0,3.0,14070.0,1.0,JIUQUAN I&S GROUP CO LTD,"JIAYUGUAN-CITY, GANSU",Operating,39.811774,98.295914,PlantFacts,Exact,5000051244,JiuQuan Iron and Steel Group Co Ltd,,,https://www.jiugang.com/article/business/steel/,2020-04-08,5000051244.0,JiuQuan Iron and Steel Group Co Ltd,,,,,
210,CHN,CHN0034,China,14.0,2.0,10760.0,1.0,"Qinhuangdao Shouqin Metals Materials Co., Lt","QINHUANGDAO, HEBEI",Operating,40.01798,119.507581,PlantFacts,Exact,4296064672,Qinhuangdao Shouqin Metal Materials Co Ltd,,,https://www.shougang.com.cn/en/ehtml/ShougangQinhuangdaoPark/,2020-04-08,5037118093.0,Shougang Group,,,,,
211,CHN,CHN0035,China,6.0,,,0.0,SHOUGANG I&S GROUP,"SHUNYI, BEIJING",Operating,40.025631,116.677817,PlantFacts,Approximate,5000098195,Beijing Shougang Cold Rolled Sheet Co Ltd,,,https://www.shougang.com.cn/en/ehtml/IronSteelIndustry/20170329/832.html,2020-04-29,4296818551.0,"Shougang Group Co., Ltd.",,,,,
212,CHN,CHN0036,China,9.0,3.0,3100.0,1.0,TANGSHAN JIANLONG,"TANGSHAN, HEBEI",Operating,40.167705,117.965916,PlantFacts,Exact,5000695265,Tangshan Jianlong Special Steel Co Ltd,2.0,2000.0,http://www.ejianlong.com/d/jl001/steel/company.jsp?entryid=19dda10b6e604d129c125a7eb2eecd23&parentId=14 ; Group company: http://www.ejianlong.com/d/jl001/steel/steelindex.jsp?entryid=14,2020-04-06,5000564682.0,"Beijing Jianlong Heavy Industry Group Co., Ltd (Jianlong Group)",,,,,Address on website is close to the plant
213,CHN,CHN0037,China,18.0,6.0,11660.0,1.0,HEBEI JINXI I&S CO LTD,"SANTUNYING, HEBEI",Operating,40.213289,118.222862,PlantFacts,Exact,4298153651,Hebei Jinxi Iron & Steel Co Ltd,,,http://www.hbjxgtjt.com.cn/zh_aboutlist1.shtml,2020-04-08,4295864675.0,China Oriental Group Co Ltd,,,,,"this plant is in Santunyingzhen, Qianxi, Tangshan, Hebei, China"
214,CHN,CHN0038,China,4.0,,1600.0,1.0,CHENGDE JIANLONG I&S,"CHENGDE, HEBEI",Operating,40.511648,117.59281,PlantFacts,Exact,5000695381,Chengde Jianlong Steel Co Ltd,,,http://www.ejianlong.com/d/jl001/steel/company.jsp?entryid=0c6253aa96694221a243b23c0a4a43c4&parentId=14 ; Group company: http://www.ejianlong.com/d/jl001/steel/steelindex.jsp?entryid=14,2020-04-06,5000564682.0,"Beijing Jianlong Heavy Industry Group Co., Ltd (Jianlong Group)",,,,,Address on website is close to the plant
215,CHN,CHN0039,China,9.0,2.0,4100.0,1.0,"SHANXI ZHONGYANG I&S CO, LTD","ZHONGYANG COUNTY, SHANXI",Operating,37.380181,111.155391,PlantFacts,Exact,,,,,,,,,,,,,
216,CHN,CHN0040,China,1.0,,,0.0,SHANXI COKING,"SHANXI, SHANXI",Operating,37.2425649,111.8568586,PlantFacts,Approximate,,,,,,,,,,,,,
217,CHN,CHN0041,China,20.0,3.0,29430.0,1.0,CHONGQING I&S CO,"CHANGSHOU CHEM. ZONE, CHONGQING",Operating,29.795085,107.049395,PlantFacts,Exact,4295864574,Chongching Iron & Steel Co Ltd. ,8.4,,http://www.cqgt.cn/plus/list.php?tid=1 ; http://www.cqgt.cn/uploads/soft/190425/1-1Z425203A8.pdf	,2020-04-02,4296768729.0,Chongqing Iron & Steel Group Co Ltd,,,,,Address on the website is close to the plant 
218,CHN,CHN0042,China,25.0,5.0,5400.0,1.0,XINGTAI I&S CO,"XINGTAI, HEBEI",Operating,37.043134,114.454013,PlantFacts,Exact,4297791408,Xingtai Iron & Steel Corp Ltd,,,http://www.xtsteel.com/Item/3.aspx,2020-04-08,4297791408.0,Xingtai Iron & Steel Corp Ltd,,,,,
219,CHN,CHN0043,China,31.0,5.0,17590.0,1.0,HUNAN VALIN XIANGTAN I&S,"XIANGTAN, HUNAN",Operating,27.816832,112.896788,PlantFacts,Exact,5000040686,Xiangtan Iron&Steel Co Ltd of Hunan Valin,,,http://en.hnxg.com.cn/introduce/3.html,2020-04-08,4295865471.0,Hunan Valin Steel Co Ltd,,,,,
220,CHN,CHN0044,China,1.0,,,0.0,HUNAN XIANGTOU GOLDSKY TITANIUM,"CHANGSHA, HUNAN",Operating,28.225502,112.85842,PlantFacts,Approximate,,,,,,,,,,,,,
221,CHN,CHN0045,China,17.0,3.0,7720.0,1.0,FANGDA SPECIAL STEEL,"NANCHANG, JIANGXI",Operating,28.645564,115.991285,PlantFacts,Exact,4295864832,Fangda Special Steel Technology Co Ltd,,,http://www.fangda-specialsteels.com/web/comesteel/comesteel.aspx,2020-04-08,4295864832.0,Fangda Special Steel Technology Co Ltd,,,,,
222,CHN,CHN0046,China,4.0,,,0.0,ZHEJIANG YUANLI  METAL PRODUCT LTD,"QUZHOU-CITY, ZHEJIANG ",Operating,28.89351,118.866587,PlantFacts,Approximate,4298155857,Quzhou Yuanli Metal Products Co Ltd,,,http://www.yuanligroup.com/en/about.aspx,2020-04-29,,"Zhejiang Yuanli Metal Product Group Co.,Ltd",,,,,"Ownership link is not clear, but it seems that Zhejiang Yuanli Metal Product Group Co.,Ltd is the ultimate parent compant."
223,CHN,CHN0047,China,11.0,3.0,5960.0,1.0,SICHUAN DESHENG I&S,"LESHAN-CITY, SICHUAN",Operating,29.398216,103.541757,PlantFacts,Exact,,,,,,,,,,,,,
224,CHN,CHN0048,China,4.0,1.0,4200.0,1.0,PINGXIANG I&S,"JIUJIANG-CITY, JIANGXI",Operating,29.781083,116.278826,PlantFacts,Exact,,,,,,,,,,,,,
225,CHN,CHN0049,China,1.0,,,0.0,NINGBO QI YI METAL CO LTD,"NINGBO, ZHEJIANG",Operating,29.868336,121.54399,PlantFacts,Approximate,,,,,,,,,,,,,
226,CHN,CHN0050,China,46.0,7.0,31840.0,1.0,XINYU I&S CO,"XINYU, JIANGXI",Operating,27.78356,114.912549,PlantFacts,Exact,5000069709,"Xinyu Iron and Steel Group Co., Ltd.",,,https://www.xinsteel.com.cn/portal/about_us/about_us_brief.jsp?me_tag=introduce ; http://www.xyusteel.com/newsview.asp?newsId=935,2020-03-09,5000069709.0,"Xinyu Iron and Steel Group Co., Ltd.",,,,,"There is only one big plant in Xinyu city. The main plant is the ""Jiangxi Xinyu Iron and Steel General Plant"" highlighted on the website. "
227,CHN,CHN0051,China,11.0,2.0,15400.0,1.0,NINGBO IRON & STEEL CO LTD,"NINGBO, ZHEJIANG",Operating,29.918396,121.876347,PlantFacts,Exact,4298155661,"Ningbo Iron & Steel Co., Ltd.",,,http://www.baosteel.com/group_en/contents/2898/40045.html,2020-07-23,5000039946.0,China Baowu Steel Group Corp Ltd,,,,,"Address provided on Baosteel website couldn’t be found on Gmaps. There is only one big plant in Bailun habour, so it must be this. It's also on the map of subsidary website. "
228,CHN,CHN0053,China,,,,0.0,UNKNOWN,"EZHOU, HUBEI",Operating,30.394366,114.941847,0,Approximate,,,,,,,,,,,,,
229,CHN,CHN0054,China,27.0,4.0,18315.0,1.0,"ECHENG I&S CO, LTD","EZHOU, HUBEI",Operating,30.396278,114.860936,PlantFacts,Exact,4298154971,Wuhan Iron & Steel Group Echeng Iron & Steel Co Ltd,,,http://www.ecsteel.com.cn/index.php?id=3118,2020-04-08,5000039946.0,China Baowu Steel Group Corp Ltd,,,,,"part of Wuhan Iron and Steel Corp, which merged with Baosteel Group to become China Baowu Steel Group Corp., Ltd.,"
230,CHN,CHN0055,China,82.0,6.0,49560.0,1.0,WUHAN I&S CO,"WUHAN, HUBEI",Operating,30.624575,114.445602,PlantFacts,Exact,4295864079,"Wuhan Iron & Steel Co., Ltd.",,,http://www.baosteel.com/en/about/product,2020-07-23,5000039946.0,China Baowu Steel Group Corp Ltd,,,,,"No address or exact location provided, but city district in which is only this massive plant (Wuhan Qingshan Steel Plant)"
231,CHN,CHN0056,China,3.0,,,0.0,SAMSUNG PRECISION STAINLESS CO LTD,"PINGHU, ZHEJIANG",Operating,30.750311,120.98041,PlantFacts,Exact,,,,,,,,,,,,,
232,CHN,CHN0057,China,24.0,4.0,3300.0,1.0,CHENGDU STEEL & VANADIUM (PANGANG),"CHENGDU-CITY, SICHUAN",Operating,30.871889,104.288928,PlantFacts,Exact,5035972173,"Pangang Group Chengdu Steel Vanadium Co., Ltd.",,,http://www.csstco.com/About/Index?parentId=1&categoryId=2,2020-04-06,5037655487.0,Ansteel Group Corp Ltd,,,,,"Steel plant closed in 2015 due to national excess capacity reduction policy. Only mills and industrial park in operation, unclear what the capacity of those is. Coordinates locate the industrial park, not the steel plant (which is nearby). "
233,CHN,CHN0058,China,10.0,,240.0,0.0,YONGXING SPEC. STAINLESS STEEL,"HUZHOU, ZHEJIANG",Operating,30.897042,120.013387,PlantFacts,Exact,,,,,,,,,,,,,
234,CHN,CHN0059,China,1.0,,2000.0,1.0,WUHAN I&S CO,"CHENGCHAO IRON MINE, EZHOU, HUBEI",Operating,30.328403,114.904271,PlantFacts,Exact,4295864079,"Wuhan Iron & Steel Co., Ltd.",,,http://www.baosteel.com/en/about/product,2020-07-23,5000039946.0,China Baowu Steel Group Corp Ltd,,,,,company website not available
235,CHN,CHN0060,China,35.0,7.0,18936.0,1.0,HUNAN VALIN LIANYUAN I&S ,"LOUDI, HUNAN",Operating,27.749305,111.962418,PlantFacts,Exact,5055943656,Hunan Valin Lianyuan Iron & Steel Co Ltd,,,http://www.lysteel.com/Column.aspx?ColId=30,2020-04-08,4295865471.0,Hunan Valin Steel Co Ltd,,,,,
236,CHN,CHN0061,China,15.0,3.0,15450.0,1.0,PANGANG XICHANG STEEL & VANADIUM,"XICHANG II, SICHUAN ",Operating,27.746401,102.205709,PlantFacts,Exact,5045880137,"Pangang Group Xichang Steel and Vanadium Co., Ltd",,,http://www.pzhsteel.com.cn/index.php?s=/Home/Article/pg_jianjie/art_bm_id/134/fl/two/msg_id/545,2020-04-06,5037655487.0,Ansteel Group Corp Ltd,,,,,Address on the website is close to the plant ; plant shown on picture on website
237,CHN,CHN0062,China,11.0,3.0,3700.0,1.0,PINGXIANG I&S,"PINGXIANG-CITY, JIANGXI",Operating,27.630957,113.725787,PlantFacts,Exact,4297177966,Pingxiang Iron & Steel Co Ltd,,,http://pinggang.fengj.com/en/,2020-04-08,4297177966.0,Pingxiang Iron & Steel Co Ltd,,,,,
238,CHN,CHN0063,China,1.0,,,0.0,SHIU WING STEEL LTD.,"TUEN-MUN, HONGKONG",Operating,22.367069,113.928706,PlantFacts,Approximate,,,,,,,,,,,,,
239,CHN,CHN0064,China,5.0,,,0.0,GUANGZHOU JFE ST. SHEET,"NANSHA, GUANGDONG",Operating,22.63951,113.634577,PlantFacts,Exact,4298508931, Guangzhou Jfe Steel Sheet Co Ltd,,,http://www.gjss.com.cn/jfe/content/jfeportal/aboutUs/intro/index.html,2020-04-08,4295877328.0,JFE Steel Corp,0.5,5000039946.0,China Baowu Steel Group Corp Ltd,0.5,
240,CHN,CHN0066,China,16.0,,800.0,0.0,LIANZHONG STAINL. STEEL,"GUANGZHOU, GUANGDONG",Operating,23.12658,113.505658,PlantFacts,Exact,4298153672,Angang Guangzhou Lianzhong Stainless Steel Co,,,http://en.ansteel.cn/yewubankuai/gangtiechanye/ ; http://www.lisco.com.cn/,2020-04-06,5037655487.0,Ansteel Group Corp Ltd,,,,,Address on website
241,CHN,CHN0067,China,1.0,,,0.0,DONGNAN GANGGOU,"CHENGDU-CITY, SICHUAN",Operating,23.12911,113.264385,PlantFacts,Approximate,,,,,,,,,,,,,
242,CHN,CHN0068,China,30.0,7.0,17640.0,1.0,LIUZHOU I&S GROUP,"LIUZHOU-CITY, GUANGXI ",Operating,24.385393,109.380271,PlantFacts,Exact,4295864829,Liuzhou Iron & Steel Co Ltd,,,http://www.liuzhousteel.com/ggsjj.aspx,2020-04-08,5000047079.0,Guangxi Liuzhou Iron and Steel Group Co Ltd,,,,,http://www.liusteel.com
243,CHN,CHN0069,China,6.0,,720.0,0.0,FUJIAN FUXIN SPECIAL STEEL,"ZHANGZHOU, FUJIAN",Operating,24.472396,117.948692,PlantFacts,Exact,,,,,https://www.emis.com/php/company-profile/CN/Fujian_Fuxin_Special_Steel_Co_Ltd__%E7%A6%8F%E5%BB%BA%E7%A6%8F%E6%AC%A3%E7%89%B9%E6%AE%8A%E9%92%A2%E6%9C%89%E9%99%90%E5%85%AC%E5%8F%B8__en_5438475.html,,,,,,,,
244,CHN,CHN0070,China,35.0,8.0,18490.0,1.0,SHAOGUAN I&S GROUP CO,"QUJIANG, GUANGDONG",Operating,24.705898,113.636333,PlantFacts,Exact,4297683841,Guangdong Shaoguan Iron & Steel Co Ltd,,,http://www.baosteel.com/group_en/contents/2763/36204.html,2020-07-23,5000039946.0,China Baowu Steel Group Corp Ltd,,,,,Address provided on website; plant nearby.
245,CHN,CHN0071,China,15.0,4.0,12320.0,1.0,SHAANXI LONGMEN I&S,"HANCHENG CITY, SHAANXI",Operating,24.953728,102.378688,PlantFacts,Exact,5000225856,Shaanxi Longmen Iron & Steel Co Ltd,,,http://www.sxlmgt.com/info/2014011517/201409131413161381.shtml,2020-04-08,5046708432.0,Hummingbird Holdings Ltd,,,,,
246,CHN,CHN0072,China,11.0,3.0,4730.0,1.0,YONGCHANG I&S,"ANNING-CITY, YUNNAN",Operating,25.023955,102.311894,PlantFacts,Exact,,,,,http://www.asianmetal.com/news/data/1371519/Yongchang%20Iron%20&%20Steel%20to%20resume%20production%20soon%20after%203-year%20suspension,,,,,,,,"company is Anning Yongchang Iron and Steel Co., Ltd."
247,CHN,CHN0073,China,2.0,,,0.0,FUJIAN WUHANG STAINLESS,"CHANGLE-CITY , FUJIAN",Operating,25.959119,119.449457,PlantFacts,Exact,,,,,,,,,,,,,
248,CHN,CHN0074,China,18.0,5.0,9208.0,1.0,FUJIAN SANGANG I&S,"SANMING, FUJIAN",Operating,26.260714,117.612294,PlantFacts,Exact,,,,,,,,,,,,,
249,CHN,CHN0075,China,29.0,4.0,21550.0,1.0,PANZHIHUA I&S GROUP CO,"DUKOU, SICHUAN",Operating,26.565119,101.675036,PlantFacts,Exact,5000059681,Pangang Group Company Limited,,,http://www.pzhsteel.com.cn/index.php?s=/Home/Article/pg_jianjie/art_bm_id/126/fl/two/msg_id/559,2020-04-06,5037655487.0,Ansteel Group Corp Ltd,,,,,Address on the website is close to the plant ; plant shown on picture on website
250,CHN,CHN0076,China,19.0,4.0,13470.0,1.0,SHOUGANG SHUICHENG I&S CO,"LIUPANSHUI-CITY, GUIZHOU",Operating,26.595884,104.87792,PlantFacts,Exact,5042952656,Shougang Shuicheng Iron & Steel Group Co Ltd,,,https://www.shougang.com.cn/en/ehtml/IronSteelIndustry/20170329/830.html,2020-04-08,5037118093.0,Shougang Group,,,,,
251,CHN,CHN0077,China,9.0,,500.0,0.0,SHOUGANG GUIYANG SPECIAL STEEL CO,"GUIYANG-CITY, GUIZHOU",Operating,26.862028,106.732145,PlantFacts,Approximate,4298346489,Shougang Guiyang Special Steel Co Ltd,,,http://www.sggg.com.cn/#/sggg/38 ; https://www.shougang.com.cn/en/ehtml/IronSteelIndustry/20170329/829.html ; https://www.shougang.com.cn/en/ehtml/IronSteelIndustry/20170329/829.html ; ,2020-04-29,4296818551.0,"Shougang Group Co., Ltd.",,,,,
252,CHN,CHN0078,China,12.0,1.0,2980.0,1.0,HENGYANG VALIN STEEL TUBE CO LTD,"HENGYANG-CITY, HUNAN",Operating,26.879573,112.585904,PlantFacts,Exact,,,,,,,,,,,,,
253,CHN,CHN0079,China,5.0,,,0.0,SHANGHAI STAL PRECISION STAINL.,"SHANGHAI, SHANGHAI",Operating,31.082222,121.390641,PlantFacts,Approximate,,,,,,,,,,,,,
254,CHN,CHN0080,China,14.0,4.0,7880.0,1.0,DAZHOU I&S GROUP CO,"DAZHOU, SICHUAN",Operating,31.189673,107.454137,PlantFacts,Exact,,,,,https://www.bloomberg.com/profile/company/8102266Z:CH,,,,,,,,
255,CHN,CHN0081,China,1.0,,,0.0,SHANGHAI ERGANG,"SHANGHAI, SHANGHAI",Operating,31.230416,121.473701,PlantFacts,Approximate,,,,,,,,,,,,,
256,CHN,CHN0082,China,1.0,,,0.0,SHANGHAI QICHANG STAINL. STEEL,"SHANGHAI, SHANGHAI",Operating,31.230416,121.473701,PlantFacts,Approximate,,,,,,,,,,,,,
257,CHN,CHN0084,China,17.0,5.0,4350.0,1.0,HENAN JIYUAN I&S,"JIYUAN, HENAN",Operating,35.087539,112.554357,PlantFacts,Exact,4298155240,Henan Jiyuan Iron & Steel (Group) Co Ltd,,,http://www.hnjg.com/Index.html,2020-04-08,4298155240.0,Henan Jiyuan Iron & Steel (Group) Co Ltd,,,,,
258,CHN,CHN0085,China,61.0,18.0,50678.0,1.0,RIZHAO IRON & STEEL,"RIZHAO, SHANDONG",Operating,35.158452,119.363665,PlantFacts,Exact,4298435622,Rizhao Steel Holding Group Co Ltd,,,https://www.rizhaosteel.com/en/About_video.asp?YCL=85,2020-04-08,5000045132.0,Shandong Iron & Steel Group Co Ltd,,,,,owned by Shandong Iron and Steel Group
259,CHN,CHN0086,China,27.0,6.0,15850.0,1.0,SHANXI HAIXIN I&S CO LTD,"WENXI-COUNTY, SHANXI",Operating,35.413622,111.303682,PlantFacts,Exact,4297044876,Shanxi Haixin Iron & Steel,,,http://www.ejianlong.com/d/jl001/steel/sxsteel.jsp,2020-04-08,4297143270.0,Jianlong Iron & Steel Group Co Ltd,,,,,
260,CHN,CHN0087,China,1.0,,,0.0,SHANDONG HENGXIN COKING,"JINING-CITY, SHANDONG",Operating,35.750602,116.758475,PlantFacts,Exact,,,,,,,,,,,,,
261,CHN,CHN0088,China,1.0,,,0.0,SHANDONG YANKUANG INT. COKING,"JINING-CITY, SHANDONG",Operating,35.503037,116.746788,PlantFacts,Exact,5000515514,Shandong Yankuang International Coking Co Ltd,2.0,,http://www.vale.com/EN/investors/information-market/Press-Releases/Pages/cvrd-associa-se-para-a-producao-de-coque-metalurgico-na-china.aspx ; http://www.vale.com/Documents/valehistorybook9.pdf,2020-04-29,5000006765.0,Yankuang Group Co Ltd,,,,,"Vale owns 25% in JV, Yankuang Group Co Ltd seems to own 75%. No info on Yankuang Group website available. "
262,CHN,CHN0089,China,15.0,5.0,4400.0,1.0,TAIYUAN LINFEN I&S CO,"LINFEN, SHANXI",Operating,36.066695,111.551081,PlantFacts,Exact,,,,,https://www.bloomberg.com/profile/company/TAIGAZ:CH,,,,,,,,not sure if abondoned or not; company is Tisco Linfen Iron & Steel Co Ltd according to Bloomberg
263,CHN,CHN0090,China,40.0,8.0,30790.0,1.0,ANYANG I&S GROUP,"ANYANG, HENAN",Operating,36.124096,114.286617,PlantFacts,Exact,5000017744,Anyang Iron & Steel Group Co Ltd,,,http://www.angang.com.cn/gsjj/index.shtml,2020-04-08,5000017744.0,Anyang Iron & Steel Group Co Ltd,,,,,http://www.aysteel.com.cn/gsjj/index.shtml
264,CHN,CHN0091,China,10.0,2.0,4700.0,1.0,SHAGANG ANYANG YONGXING I&S,"ANYANG, HENAN",Operating,36.141676,114.146453,PlantFacts,Exact,5000551917,Shagang Group Anyang Yongxing Iron & Steel Co Ltd,,,http://eng.shasteel.cn/doc/2015/06/23/4386.shtml,2020-03-27,5000051246.0,"Jiangsu Shagang Group Co., Ltd",,,,,"this is closest to the address on Bloomberg, and matches the address in Mandarin"
265,CHN,CHN0092,China,26.0,5.0,9460.0,1.0,QINGDAO I&S GROUP CO,"QINGDAO I, SHANDONG",Operating,36.221915,120.384591,PlantFacts,Exact,4296935883,Qingdao Iron & Steel Group,,,http://www.hbisco.com/site/en/steelbusiness/index.html,2020-04-08,5000022648.0,HBIS Group,,,,,
266,CHN,CHN0093,China,12.0,6.0,5000.0,1.0,SHANDONG TAISHAN I&S,"LAIWU CITY, SHANDONG",Operating,36.219385,117.62111,PlantFacts,Exact,5050923126,Shandong Taishan Steel Co Ltd,,,https://www.bloomberg.com/profile/company/STSGZ:CH,2020-04-08,5000045132.0,Shandong Iron & Steel Group Co Ltd,,,,,
267,CHN,CHN0094,China,7.0,1.0,2850.0,1.0,Shandong Fulun Iron & Steel Co. Ltd.,"LAIWU CITY, SHANDONG",Operating,36.307437,117.537203,PlantFacts,Exact,,,,,https://www.bloomberg.com/profile/company/QRALMZ:CH,,,,,,,,
268,CHN,CHN0095,China,21.0,6.0,9320.0,1.0,SHOUGANG CHANGZHI I&S,"CHANGZHI, SHANXI",Operating,36.350491,113.062539,PlantFacts,Exact,5036786696,Shougang Changzhi Steel Co Ltd,,,https://www.shougang.com.cn/en/ehtml/IronSteelIndustry/20170329/828.html,2020-04-08,5037118093.0,Shougang Group,,,,,
269,CHN,CHN0096,China,11.0,2.0,7220.0,1.0,WEIFANG I&S GROUP,"WEIFANG, SHANDONG",Operating,36.645482,119.238373,PlantFacts,Exact,,,,,,,,,,,,,
270,CHN,CHN0097,China,22.0,8.0,10530.0,1.0,"HEBEI PUYANG I&S CO, LTD","YANGYI TOWN-WUAN, HEBEI",Operating,36.71948,113.912838,PlantFacts,Exact,,,,,,,,,,,,,
271,CHN,CHN0100,China,15.0,3.0,6650.0,1.0,JIANGSU HUAIGANG SPEC. STEEL,"HUAIJIN-(BOF), JIANGSU",Operating,33.565103,118.982517,PlantFacts,Exact,5000054758,"Jiangsu Shagang Group Huaigang Special Steel Co., Ltd",,,http://eng.shasteel.cn/doc/2015/06/23/4385.shtml,2020-03-27,5000051246.0,"Jiangsu Shagang Group Co., Ltd",,,,,There is only one plant but two entries in this database; both should refer to the same plant (if different facilities within that plant). 
272,CHN,CHN0101,China,8.0,3.0,3630.0,1.0,SHANXI ANTAI GROUP,"JIEXIU, SHANXI",Operating,37.077397,111.981381,PlantFacts,Exact,4295864372,Shanxi Antai Group Co Ltd,,,http://www.antaigroup.com/docc/home/main.asp,2020-04-08,4295864372.0,Shanxi Antai Group Co Ltd,,,,,not sure if this is the correct plant
273,CHN,CHN0102,China,10.0,,1800.0,1.0,WUYANG I&S CORP LTD,"PINGDINGSHANG, HENAN",Operating,33.28754,113.479755,PlantFacts,Exact,4297970274,Wuyang Iron and Steel Co Ltd (WUSTEEL),,,http://www.hbisco.com/site/en/steelbusiness/index.html,2020-03-23,5000022648.0,HBIS Group Co Ltd,,,,,There is only one facility in this city
274,CHN,CHN0103,China,11.0,2.0,4800.0,1.0,HANZHONG I&S,"HANZHONG, SHAANXI",Operating,33.132678,106.661454,PlantFacts,Exact,,,,,,,,,,,,,
275,CHN,CHN0104,China,28.0,2.0,11940.0,1.0,BAOSTEEL STAINLESS STEEL BRANCH,"SHANGHAI, SHANGHAI",Operating,31.354429,121.475482,PlantFacts,Exact,5037629013,Baosteel Stainless Steel Co Ltd,3.75,2012.0,http://www.baosteel.com/group_en/contents/2898/40047.html,2020-07-23,5000039946.0,China Baowu Steel Group Corp Ltd,,,,,Address of admin office close to the plant
276,CHN,CHN0105,China,73.0,4.0,55410.0,1.0,BAOSHAN I&S  CO LTD,"BAOSHAN, SHANGHAI",Operating,31.435431,121.436098,PlantFacts,Exact,4295864974,Baoshan Iron & Steel Co Ltd,,,http://www.baosteel.com/group_en/contents/2763/36201.html,2020-07-23,5000039946.0,China Baowu Steel Group Corp Ltd,,,,,Address of admin office close to the main plant (Baoshan base)
277,CHN,CHN0106,China,14.0,4.0,7840.0,1.0,CHANGZHOU ZHONGTIAN (ZENITH),"CHANGZHOU, JIANGSU",Operating,31.703164,120.075372,PlantFacts,Exact,,,,,,,,,,,,,
278,CHN,CHN0107,China,11.0,3.0,11820.0,1.0,ZENITH STEEL,"CHANGZHOU-CITY, JIANGSU",Operating,31.705757,120.076674,PlantFacts,Exact,5042952736,Zenith Steel Group Co Ltd,,,http://www.zt.net.cn/index.php?m=content&c=index&a=show&catid=42&id=1026,2020-04-08,5042952736.0,Zenith Steel Group Co Ltd,,,,,
279,CHN,CHN0108,China,11.0,,,0.0,YIEH PHUI TECHNOMATERIAL CO LTD,"CHANGSHU-CITY, JIANGSU",Operating,31.745797,120.993418,PlantFacts,Approximate,,,,,http://www.yiehphuichina.com/introduction_president_cn.asp,,,,,,,,
280,CHN,CHN0109,China,12.0,,40.0,0.0,CHANGCHENG SPEC. STEEL,"NO.3-JIANGYOU, SICHUAN",Operating,31.763469,104.76384,PlantFacts,Exact,,"Pangang Group Jiangyou Great Wall Special Steel Co., Ltd.",,,https://www.cssc.com.cn/Blurb,2020-04-06,5037655487.0,Ansteel Group Corp Ltd,,,,,Address on website close to the plant
281,CHN,CHN0114,China,36.0,3.0,9460.0,1.0,JIANGSU SHAGANG GROUP,"ZHANGJIAGANG I, JIANGSU",Operating,31.850953,120.729196,PlantFacts,Exact,4295865268,Jiangsu Shagang Co Ltd,,,http://eng.shasteel.cn/doc/2018/03/10/4384.shtml,2020-03-27,5000051246.0,"Jiangsu Shagang Group Co., Ltd",,,,,"There are two distinct plants near ZHANGJIAGANG, one of which is the big plant in the North. Not sure which plant this refers to as it cannot be found on any website. It could be part of the big plant in the North (ZHANGJIAGANG II, JIANGSU), or the other plant in the East. The coordinates filled in refer to the most likely guess (plant in the East). We need to get the AR of the liste subsidiary Jiangsu Shagang Co Ltd to confirm."
282,CHN,CHN0115,China,29.0,3.0,28674.0,1.0,BAOSTEEL MEISHAN ,"NANJING, JIANGSU",Operating,31.904391,118.611093,PlantFacts,Exact,4297103773,"Shanghai Meishan Iron & Steel Co., Ltd.",,,"http://www.baosteel.com/en/about/recom ; http://res.baowugroup.com/files/2019/10/24/d787d4f8411c4fad87b5fbdba974ace6.pdf, p. 3, 40 ; http://res.baowugroup.com/files/2019/07/02/5fdee415e3994b128ee0c48834d91464.pdf, p. 7",2020-07-23,5000039946.0,China Baowu Steel Group Corp Ltd,,,,,"No address or exact location provided, but city district in which is only this massive plant (Nanjing Meishan Steel Plant)"
283,CHN,CHN0116,China,14.0,1.0,2780.0,1.0,JIANGYIN XINGCHENG STEEL ,"JIANGYIN-CITY-I, JIANGSU",Operating,31.948763,120.328071,PlantFacts,Exact,5001097575,Jiangyin Xingcheng Special Steel Works Co Ltd,,,https://xctg.citicsteel.com/,2020-04-08,5036397450.0,Daye Special Steel Co Ltd,,,,,
284,CHN,CHN0118,China,46.0,4.0,48450.0,1.0,JIANGSU SHAGANG GROUP,"ZHANGJIAGANG II, JIANGSU",Operating,31.981374,120.635041,PlantFacts,Exact,4295865268,Jiangsu Shagang Co Ltd,,,http://eng.shasteel.cn/doc/2018/03/10/4384.shtml,2020-03-27,5000051246.0,"Jiangsu Shagang Group Co., Ltd",,,,,"There are two distinct plants near ZHANGJIAGANG, one of which is the big plant in the North. There is only one large plant north of ZHANGJIAGANG in Jinfeng Town which is one of the largest plants in China, so it must be this one."
285,CHN,CHN0119,China,16.0,,800.0,0.0,ZHANGJIAGANG POHANG STAINL.,"ZHANGJIAGANG, JIANGSU",Operating,31.980084,120.654259,PlantFacts,Exact,5000043720,Zhangjiagang Pohang Stainless Steel Co Ltd,,,http://www.posco.com/homepage/docs/eng6/jsp/company/family/foreign_02_02.jsp,2020-04-08,4295881204.0,POSCO,,,,,
286,CHN,CHN0120,China,41.0,8.0,21190.0,1.0,NANJING I&S CO LTD,"NANJING-CITY, JIANGSU",Operating,32.193796,118.745046,PlantFacts,Exact,4298499795,Nanjing Steel Group,,,http://www.njsteel.com.cn/En/Products?ccId=e8c97f6d-5231-49d8-aa46-4ecb64113f06,2020-04-08,5000675707.0,Nanjing Nangang Iron & Steel United Co Ltd,,,,,
287,CHN,CHN0121,China,10.0,1.0,5300.0,1.0,NANYANG HANYE SPECIAL STEEL CO LTD,"HUICHE-XIXIA, HENAN",Operating,33.269856,111.532465,PlantFacts,Exact,,,,,,,,,,,,,
288,CHN,CHN0122,China,27.0,2.0,34448.0,1.0,BAOSTEEL ZHANJIANG I&S,"ZHANJIANG CITY, GUANGDONG",Operating,21.057353,110.501174,PlantFacts,Exact,5037438588,Baosteel Zhanjiang Iron & Steel Co Ltd,,,http://www.baosteel.com/en/about/product,2020-07-23,5000039946.0,China Baowu Steel Group Corp Ltd,,,,,"No address or exact location provided, but city district in which is only this massive plant (Zhanjiang Dongshan Steel Plant)"
289,CHN,CHN0123,China,1.0,,,0.0,HAINAN HAIWOO TINPLATE,"HAIKOU, HAINAN",Operating,20.001091,110.297955,PlantFacts,Approximate,,,,,,,,,,,,,
290,CHN,CHN0125,China,1.0,,,0.0,CALGO GUANGZHOU ST. CO LTD,"GUANGZHOU, GUANGDONG",Operating,23.12911,113.264385,PlantFacts,Approximate,,,,,,,,,,,,,
291,CHN,CHN0126,China,9.0,,,0.0,BAOSTEEL YICHANG,"SHANGHAI, SHANGHAI  ",Operating,30.691966,111.286471,PlantFacts,Approximate,,,,,,,,,,,,,Not mentioned on parent company website nor in Baosteel AR 2018.
292,CHN,CHN0127,China,1.0,,,0.0,FUJIAN FUXIN SPECIAL STEEL,"SANMING, FUJIAN",Operating,26.263406,117.638678,PlantFacts,Approximate,,,,,,,,,,,,,
293,CHN,CHN0128,China,2.0,,,0.0,FUJIAN NEW MATERIAL,"SANMING, FUJIAN",Operating,26.263406,117.638678,PlantFacts,Approximate,,,,,,,,,,,,,
294,CHN,CHN0129,China,1.0,,,0.0,FUJIAN SINO-JAPAN M.,"FUZHOU, FUJIAN",Operating,26.074478,119.296482,PlantFacts,Approximate,,,,,,,,,,,,,
295,CHN,CHN0130,China,2.0,,,0.0,FUJIAN TONYI TINPLATE,"ZHANGZHOU-CITY, FUJIAN",Operating,24.513025,117.647093,PlantFacts,Approximate,,,,,,,,,,,,,
296,CHN,CHN0131,China,1.0,,,0.0,FUJIAN YUXING,"FUZHOU, FUJIAN",Operating,26.074478,119.296482,PlantFacts,Approximate,,,,,,,,,,,,,
297,CHN,CHN0132,China,4.0,,,0.0,FUSHAN SPEC. STEEL CO,"ZONGHUA, GUANGDONG",Operating,23.1259702,113.2849573,PlantFacts,Approximate,,,,,,,,,,,,,
298,CHN,CHN0133,China,1.0,,,0.0,"Fuxin Precision Stainless Steel Co., Ltd.","Hanchuan, Hubei",Operating,30.661243,113.839149,PlantFacts,Approximate,,,,,,,,,,,,,
299,CHN,CHN0134,China,1.0,,,0.0,GANGYUAN COKE,"QINGXU-(TAIYUAN), SHANXI",Operating,37.607443,112.358667,PlantFacts,Approximate,,,,,,,,,,,,,
300,CHN,CHN0135,China,4.0,1.0,2000.0,1.0,GANXIN IRON & STEEL,"ATUSH-CITY, XINJIANG-UYGUR",Operating,39.71616,76.1684,PlantFacts,Approximate,,,,,,,,,,,,,
301,CHN,CHN0136,China,1.0,,,0.0,GUANGZHOU PACIFIC TINPLATE,"GUANGZHOU CITY, GUANGDONG",Operating,23.12911,113.264385,PlantFacts,Approximate,,,,,,,,,,,,,
302,CHN,CHN0137,China,8.0,,2000.0,1.0,GUANGZHOU ZHUJIANG I&S CO LTD,"GUANGZHOU, GUANGDONG",Operating,23.12911,113.264385,PlantFacts,Approximate,,,,,,,,,,,,,
303,CHN,CHN0138,China,2.0,1.0,850.0,0.0,GUIGANG I&S GROUP,"GUIGANG, GUANGXI",Operating,23.11153,109.598926,PlantFacts,Approximate,,,,,,,,,,,,,
304,CHN,CHN0139,China,2.0,,,0.0,HEBEI LONGQI  COLD ROLLING SHEET,"DAMING-COUNTY, HEBEI",Operating,36.285616,115.147814,PlantFacts,Approximate,,,,,,,,,,,,,
305,CHN,CHN0140,China,7.0,,1400.0,1.0,HEBEI ZONGHENG I&S CO LTD,"HANDAN CITY, HEBEI",Operating,36.625656,114.538961,PlantFacts,Approximate,,,,,,,,,,,,,
306,CHN,CHN0141,China,1.0,,,0.0,HENGSHUI JINGHUA,"SHANGDONG, SHANGDONG",Operating,35.8939566,117.9249002,PlantFacts,Approximate,,,,,,,,,,,,,
307,CHN,CHN0142,China,2.0,,,0.0,HENGSHUI SHEET,"HENGSHUI CITY, HEBEI",Operating,37.73892,115.670177,PlantFacts,Approximate,,,,,,,,,,,,,
308,CHN,CHN0143,China,1.0,,,0.0,FORMOSA HEAVY IND.,"NINGBO, ZHEJIANG",Operating,29.868336,121.54399,PlantFacts,Approximate,,,,,,,,,,,,,
309,CHN,CHN0144,China,6.0,,2100.0,1.0,SICHUAN CHUANWEI GROUP,SICHUAN,Operating,29.731359,104.501308,PlantFacts,Exact,,,,,,,,,,,,,
310,CHN,CHN0145,China,1.0,1.0,1200.0,1.0,"Donghai Iron & Steel Co., Ltd.","Ciyutuo Ind. Zone Luan County, Hebei",Operating,39.740593,118.703598,PlantFacts,Approximate,,,,,,,,,,,,,
311,CHN,CHN0146,China,1.0,,30.0,0.0,DENFENG,"DENFENG, HENAN",Operating,34.454443,113.050581,PlantFacts,Approximate,,,,,,,,,,,,,
312,CHN,CHN0148,China,4.0,,1000.0,0.0,HANGGANG-CHANGXING,"HANGZHOU, ZHEJIANG",Operating,30.274084,120.15507,PlantFacts,Approximate,,,,,,,,,,,,,"This company and plant seems to be owned by Hanggang Group (Hangzhou Iron & Steel Group Co Ltd), but no evidence could be found on company websites. Info is probably in company AR2019 (Chinese): http://www.hzsteel.com/ueditor/jsp/upload/file/20200416/1587011560201072833.pdf"
313,CHN,CHN0149,China,3.0,2.0,2000.0,1.0,JINTE I&S,"JINTE, XINJIANG-UYGUR",Operating,42.5246357,87.5395855,PlantFacts,Approximate,5057748292,Xinjiang Jinte Steel Co Ltd,,,http://www.asianmetal.com/news/data/1470805/Xinjiang%20Jinte%20Iron%20&%20Steel%20applies%20for%20bankruptcy%20reorganization ; https://www2.deloitte.com/content/dam/Deloitte/ru/Documents/manufacturing/overview-of-steel-iron-market-2017-eng.pdf,2020-04-29,5057748292.0,Xinjiang Jinte Steel Co Ltd,,,,,"Company filed for bankruptcy in 2019. No website, no info on plant or location. But it seems to exist, see Deloitte report. "
314,CHN,CHN0150,China,1.0,,,0.0,SHAGANG HENGXIN COKE,"ZOUCHENG, SHANDONG",Operating,35.405184,117.003743,PlantFacts,Approximate,,,,,,,,,,,,,
315,CHN,CHN0151,China,2.0,,,0.0,TANGSHAN FENGNAN CM GALVANIZING,"FEGNAN TANGSHAN, HEBEI",Operating,39.576031,118.085169,PlantFacts,Approximate,,,,,,2020-04-29,,,,,,,"No idea which company or facility this is. No website, Bloomberg entry, or PermID entry. But it seems to exist, see this news: https://www.steeltimesint.com/issue-archive/P93"
316,CHN,CHN0152,China,2.0,,,0.0,TIANJIN Nå¡3 COKE & CHEM.,"TIANJIN-CITY,TIANJIN ",Operating,39.3433574,117.3616476,PlantFacts,Approximate,4297768270,Tianjin General Nice Coke & Chemicals Co Ltd,,,http://www.generalnice.com.cn/templates/T_second/index.aspx?nodeid=14,2020-04-29,5052134187.0,General Nice Group Holdings Ltd,,,,,No address or location disclosed. Not even info about the plant or subsidiary. 
317,CHN,CHN0153,China,7.0,,300.0,0.0,ANHUI JINAN STAINL. CASTING CO,"LIUAN-CITY, ANHUI",Operating,31.734476,116.521442,PlantFacts,Approximate,,,,,,,,,,,,,
318,CHN,CHN0154,China,1.0,,5000.0,1.0,BAOTOU I&S,"GUYANG, INN-MONGOLIA",Operating,41.034105,110.060514,PlantFacts,Approximate,,,,,,,,,,,,,Should be somehwere close to the main plant of Baotou in Baotou City
319,CHN,CHN0155,China,1.0,,,0.0,BLUESCOPE STEEL,"SUZHOU, JIANGSU",Operating,31.298974,120.585289,PlantFacts,Approximate,,,,,,,,,,,,,
320,CHN,CHN0156,China,4.0,,,0.0,BX STEEL POSCO COLD R. SHEET,"BENXI, LIAONING",Operating,41.486981,123.685142,PlantFacts,Approximate,5000520990,BX STEEL POSCO Cold Rolled Sheet Co Ltd,,,http://www.posco.com/homepage/docs/eng6/jsp/company/family/foreign_02_02.jsp,2020-04-08,4295881204.0,POSCO,,,,,
321,CHN,CHN0157,China,1.0,,,0.0,CHANGCHUN COKING & CHEM.,"CHANGCHUN, JILIN",Operating,43.817071,125.323544,PlantFacts,Approximate,,,,,,,,,,,,,
322,CHN,CHN0158,China,6.0,2.0,700.0,0.0,CHENGDU I&S,"CHENGDU-CITY, SICHUAN",Operating,30.572815,104.066801,PlantFacts,Approximate,,,,,,,,,,,,,
323,CHN,CHN0159,China,1.0,,,0.0,CHINA BEKAERT STEEL,"JIANGYIN, JIANGSU",Operating,31.920658,120.284938,PlantFacts,Approximate,,,,,,,,,,,,,
324,CHN,CHN0160,China,2.0,,130.0,0.0,CHINA INT. I&S PROD.,"FUZHOU, FUJIAN",Operating,26.074478,119.296482,PlantFacts,Approximate,,,,,,,,,,,,,
325,CHN,CHN0161,China,1.0,,,0.0,CHINA METALLURG. COKING C.,"LINFEN, SHANXI",Operating,36.088005,111.518975,PlantFacts,Approximate,,,,,,,,,,,,,
326,CHN,CHN0162,China,1.0,,,0.0,DALI COKE & GAS,"LINFEN, SHANXI",Operating,36.088005,111.518975,PlantFacts,Approximate,,,,,,,,,,,,,
327,CHN,CHN0163,China,3.0,,,0.0,DALIAN POSCO CFM,"DALIAN, LIAONING",Operating,38.914003,121.614682,PlantFacts,Approximate,4296355540,DALIAN POSCO CFM COATED STEEL,,,http://www.posco.com/homepage/docs/eng6/jsp/company/family/foreign_02_03.jsp,2020-04-08,4295881204.0,POSCO,,,,,
328,CHN,CHN0164,China,5.0,,600.0,0.0,Dongfang Speical Steel Co. (Zhenshi Group),"Jiaxing, Zhejiang ",Operating,30.753924,120.758543,PlantFacts,Approximate,,,,,,,,,,,,,
329,CHN,CHN0165,China,5.0,,,0.0,HENGTONG  JINGMI SHEET,"TANGSHAN, HEBEI",Operating,39.630867,118.180193,PlantFacts,Approximate,,,,,,,,,,,,,
330,CHN,CHN0166,China,1.0,,,0.0,HONGYI I&S,"TANGSHAN, HEBEI",Operating,39.630867,118.180193,PlantFacts,Approximate,,,,,,,,,,,,,
331,CHN,CHN0167,China,4.0,,2850.0,1.0,ZHUHAI YUE YUFENG I&S CO,"ZHUHAI, GUANGDONG",Operating,21.960449,113.200803,PlantFacts,Exact,,,,,,,,,,,,,
332,CHN,CHN0168,China,2.0,,,0.0,HUAREN GANGYE,"SHANDONG, SHANDONG",Operating,35.8939566,117.9249002,PlantFacts,Approximate,,,,,,,,,,,,,
333,CHN,CHN0169,China,2.0,,2600.0,1.0,PANZHIHUA I&S GROUP CO,"BAIMA, SICHUAN",Operating,27.010206,102.165426,PlantFacts,Approximate,5000059681,Pangang Group Company Limited,,,,2020-04-06,5037655487.0,Ansteel Group Corp Ltd,,,,,Website NA. No info available.
334,CHN,CHN0170,China,6.0,2.0,2000.0,1.0,PANGANG XICHANG STEEL & VANADIUM,"XICHANG I, SICHUAN ",Operating,27.746401,102.205709,PlantFacts,Approximate,5045880137,"Pangang Group Xichang Steel and Vanadium Co., Ltd",,,http://www.pzhsteel.com.cn/index.php?s=/Home/Article/pg_jianjie/art_bm_id/134/fl/two/msg_id/545,2020-04-06,5037655487.0,Ansteel Group Corp Ltd,,,,,"this plant must be part of the bigger plant in Xichang, as there is only one big plant in this district"
335,CHN,CHN0171,China,4.0,,250.0,0.0,CHONGQING I&S CO,"CHONGQING SPEC. STEEL, CHONGQING ",Operating,29.4315861,106.912251,PlantFacts,Approximate,4295864574,Chongching Iron & Steel Co Ltd. ,,,,2020-04-08,4296768729.0,Chongqing Iron & Steel Group Co Ltd,,,,,
336,CHN,CHN0172,China,2.0,,,0.0,CHONGQING I&S CO,"DADUKOU CHONGQING, CHONGQING",Operating,29.484527,106.482346,PlantFacts,Approximate,4295864574,Chongching Iron & Steel Co Ltd. ,,,,2020-04-08,4296768729.0,Chongqing Iron & Steel Group Co Ltd,,,,,
337,CHN,CHN0173,China,8.0,,,0.0,"PANHUA GROUP CO, LTD","FULIN, CHONGQING",Operating,29.756768,107.263494,PlantFacts,Approximate,,"Chongqing Wanda Steel Sheet Co., Ltd.",,,https://www.panhuagroup.com/index.php?m=content&c=index&a=lists&catid=11 ; https://www.panhuagroup.com/index.php?m=content&c=index&a=show&catid=17&id=1,2020-04-02,,"Panhua Group Co., Ltd.",,,,,No exact address of the plant available on the company website
338,CHN,CHN0174,China,15.0,,,0.0,NINGBO BAOXIN STAINLESS,"BEILUN, ZHEJIANG",Operating,29.897548,121.873368,PlantFacts,Exact,5000010093,Ningbo Baoxin Stainless Steel Co. Ltd,,,http://www.baosteel.com/group_en/contents/2898/40047.html,2020-07-23,5000039946.0,China Baowu Steel Group Corp Ltd,,,,,"Address provided on website, but according to Gmaps it’s the Admin Office. This plant is nearby but includes the big Ningbo plant owned by Ningbo Iron & Steel Co., Ltd."
339,CHN,CHN0175,China,2.0,,,0.0,ZHEJIANG XINYING STEEL TRADE,"NINGBO, ZHEJIANG",Operating,29.9188958,121.6073273,PlantFacts,Approximate,,,,,,,,,,,,,
340,CHN,CHN0176,China,3.0,,,0.0,BAOSTEEL DESHENG STAINLESS STEEL,"LUOYUAN, FUJIAN",Operating,26.485812,119.651134,PlantFacts,Exact,5037629018,Baosteel Desheng Stainless Steel Co. Ltd.,1.2,2012.0,http://www.baosteel.com/group_en/contents/2898/40047.html,2020-07-23,5000039946.0,China Baowu Steel Group Corp Ltd,,,,,"Address provided on website, but could not be found on Gmaps. This plant is nearby the postcode and seems to fit the description on the website."
341,CHN,CHN0177,China,24.0,1.0,940.0,0.0,DAYE SPEC. STEEL CO,"HUANGSHI-CITY, HUBEI",Operating,30.0881443,114.5749935,PlantFacts,Approximate,,,,,,,,,,,,,
342,CHN,CHN0178,China,4.0,,1000.0,0.0,BAOSTEEL SPECIAL STEEL BRUNCH,"SHANGHAI-SMP NO.3, SHANGHAI",Operating,31.388753,121.475617,PlantFacts,Exact,5050312016,Baosteel Special Steel Co Ltd,,,http://www.baosteel.com/group_en/contents/2898/40048.html,2020-07-23,5000039946.0,China Baowu Steel Group Corp Ltd,,,,,"All company names (Baosteel Special Material Co Ltd, Baosteel Special Metals Co., Ltd, Shanghai Baosteel Special Metal Materials Co Ltd, Baowu Special Steel Co., Ltd.) refer to the same plant which is close to the address on the websites. There are several facilities, no idea which one refers to which entry in this database."
343,CHN,CHN0181,China,7.0,,,0.0,BAOSTEEL-NSC AUTOM. STEEL SHEETS,"BAOSHAN, SHANGHAI",Operating,31.430841,121.44427,PlantFacts,Approximate,,,,,,,,,,,,,no location/address available; seems to be somewhere near/in the main Baoshan plant in Shanghai
344,CHN,CHN0182,China,4.0,,550.0,0.0,WUXI STEEL GROUP,"WUXI, JIANGSU",Operating,31.491169,120.31191,PlantFacts,Approximate,4296824562,JIANGSU WUXI STEEL GROUP COROPORATION,30.0,,http://www.wxsteelgroup.com/Html/About.asp?ID=29,2020-04-29,4296824562.0,JIANGSU WUXI STEEL GROUP COROPORATION,,,,,"No exact location or address disclosed. There are many plants in Wuxi & Zhangjiagang, so no idea which one is owned by the company."
345,CHN,CHN0183,China,17.0,2.0,15380.0,1.0,MAANSHAN I&S CO,"MAANSHAN-II, ANHUI",Operating,31.740729,118.484919,PlantFacts,Exact,4295864332,Maanshan Iron & Steel Co Ltd,,,http://www.magang.com.cn/eportal/ui?pageId=371865,2020-04-08,5000039946.0,China Baowu Steel Group Corp Ltd,,,,,not sure if that's the correct facility; owned by Baowu Steel Group
346,CHN,CHN0185,China,1.0,,,0.0,SHANGHAI XINHU I&S,"SHANGHAI, SHANGHAI",Operating,31.230416,121.473701,PlantFacts,Approximate,,,,,,,,,,,,,
347,CHN,CHN0186,China,4.0,,,0.0,ANSHAN IRON & STEEL,"PUTIAN-CITY, FUJIAN",Operating,25.455993,119.13594,PlantFacts,Approximate,,"Anshan steel cold rolled steel plate (Putian) Co., Ltd",,,https://www1.hkexnews.hk/listedco/listconews/sehk/2019/0411/ltn201904111113.pdf (AR 2018),2020-04-06,5037655487.0,Ansteel Group Corp Ltd,,,,,"Company and city is mentioned in Group AR2018, but not exact location. Website NA. "
348,CHN,CHN0187,China,23.0,3.0,9780.0,1.0,"KUNMING I&S CO, LTD","KUNMING-I, YUNNAN",Operating,24.907594,102.481921,PlantFacts,Exact,,,,,,,,,,,,,"plant is nearby in the east and west ;  no idea which plant this is, could also be the one of the other two in Kunming (Kunming-I, see below)"
349,CHN,CHN0189,China,1.0,,1000.0,0.0,XUANHUA I&S ,"NN, HEBEI",Operating,22.525685,88.3320102,PlantFacts,Approximate,5000575826,Xuanhua Iron & Steel Group Co Ltd,,,https://www.bloomberg.com/profile/company/WUISCZ:CH,2020-04-08,5000022648.0,HBIS Group,,,,,
350,CHN,CHN0190,China,2.0,,,0.0,YANTAI DONGHAI ST. STRIP,"YANTAI, SHANDONG",Operating,37.464539,121.447852,PlantFacts,Approximate,,,,,,,,,,,,,
351,CHN,CHN0191,China,24.0,,,0.0,"Yichang Three Gorges Quantong Co., Ltd.","YICHANG CITY, HUBEI",Operating,30.691966,111.286471,PlantFacts,Approximate,,,,,,,,,,,,,
352,CHN,CHN0192,China,1.0,,,0.0,YUNNAN TIANGAO,"QUJING-CITY, YUNNAN",Operating,25.489999,103.796167,PlantFacts,Approximate,,,,,,,,,,,,,
353,CHN,CHN0193,China,1.0,,,0.0,ZAOZHUANG COKING PLANT,"ZAOZHUANG, SHANDONG",Operating,34.810487,117.323725,PlantFacts,Approximate,,,,,,,,,,,,,
354,CHN,CHN0194,China,2.0,,,0.0,ZHEJIANG BAOJI METAL ROLLING CO,"CIXI-CITY, ZHEJIANG",Operating,30.169665,121.266579,PlantFacts,Approximate,,,,,,,,,,,,,
355,CHN,CHN0195,China,2.0,,,0.0,ZHEJIANG LONSEN STEEL STRIP,"SHANGYU, ZHEJIANG",Operating,30.03312,120.868122,PlantFacts,Approximate,,,,,,,,,,,,,
356,CHN,CHN0196,China,3.0,,,0.0,ZHEJIANG SOUTHEAST METAL SHEET,"HANGZHOU, ZHEJIANG",Operating,30.274084,120.15507,PlantFacts,Approximate,,,,,,,,,,,,,
357,CHN,CHN0197,China,1.0,,,0.0,ZHENJIANG COKING & CHEM.,"ZHENJIANG, JIANGSU",Operating,32.187849,119.425836,PlantFacts,Approximate,,,,,,,,,,,,,
358,CHN,CHN0198,China,3.0,,,0.0,ZHONGSHAN ZHONGYUE TINPLATE,"ZHONGSHAN, GUANGDONG",Operating,22.517585,113.39277,PlantFacts,Approximate,,,,,,,,,,,,,
359,CHN,CHN0199,China,1.0,,,0.0,ZHONGYUE POSCO TINPLATE,"QINHUANGDAO, HEBEI",Operating,39.935361,119.600523,PlantFacts,Approximate,5000471363,Zhongyue POSCO Qinhuangdao Tinplate Industrial Co Ltd,,,http://www.posco.com/homepage/docs/eng6/jsp/company/family/foreign_02_02.jsp,2020-04-08,4295881204.0,POSCO,,,,,
360,CHN,CHN0200,China,6.0,,360.0,0.0,ZIBO I&S HOLDING CO LTD,"ZIBO-CITY, SHANDONG",Operating,36.813546,118.055019,PlantFacts,Approximate,,,,,,,,,,,,,
361,CHN,CHN0201,China,2.0,,,0.0,HAINAN PENGDA STEEL,"HAIKOU, HAINAN",Operating,19.691761,110.327471,PlantFacts,Approximate,,,,,,,,,,,,,
362,CHN,CHN0202,China,1.0,,5000.0,1.0,ZHANJIANG LONGTENG ,"ZHANJIANG-PORT, GUANGDONG",Operating,21.056478,110.502,PlantFacts,Exact,,,,,,,,,,,,,"Must be close to the big plant of BAOSTEEL ZHANJIANG in ZHANJIANG CITY, GUANGDONG"
363,CHN,CHN0203,China,4.0,,,0.0,BEIHAI CHENGDE STAINL. STEEL CO,"BEIHAI, GUANGXI",Operating,21.481291,109.120161,PlantFacts,Approximate,,,,,,,,,,,,,
364,CHN,CHN0204,China,24.0,2.0,17600.0,1.0,WUHAN I&S CO,"FANGCHENGGANG, GUANGXI",Operating,21.68594,108.409138,PlantFacts,Exact,4295864079,"Wuhan Iron & Steel Co., Ltd.",,,http://www.baosteel.com/en/about/product,2020-07-23,5000039946.0,China Baowu Steel Group Corp Ltd,,,,,not sure if that's the correct facility
365,CHN,CHN0205,China,5.0,,,0.0,CHANGZHOU EVERBRIGHT,"CHANGZHOU, JIANGSU",Operating,31.746871,120.957644,PlantFacts,Approximate,4297472150,Changshu Everbright Material Technology Co Ltd,,,https://doc.irasia.com/listco/hk/ebchinaintl/annual/ar227894-ew0257.pdf,2020-04-29,5000038293.0,China Everbright Group Ltd,,,,,There only is an waste-to-energy project and an equipment manufacturing facility in Changzhou owned by Everbright. No info an any Iron/Steel-related facility.  
366,CHN,CHN0208,China,3.0,,,0.0,LIANFENG STEEL CO,"Yonglian-Zhangjiagang, Jiangsu",Operating,31.851728,120.72914,PlantFacts,Exact,,,,,,,,,,,,,
367,CHN,CHN0209,China,10.0,1.0,3350.0,1.0,TIANJIN PIPE CORP,"TIANJIN-CITY, TIANJIN ",Operating,39.030407,117.499299,PlantFacts,Exact,4297987027,Tianjin Pipe Group Corp,,,http://www.tpco.com.cn/,2020-04-08,4297987027.0,Tianjin Pipe Group Corp,,,,,seems to be same location as TIANJIN IRON & STEEL in Tianjin
368,CHN,CHN0210,China,5.0,,,0.0,TANGSHAN HENGTONG ,"TANGSHAN, HEBEI",Operating,39.630867,118.180193,PlantFacts,Approximate,,,,,,2020-04-29,,,,,,,"No idea which company or facility this is. No website or PermID entry. But it seems to exist, see BBG: https://www.bloomberg.com/profile/company/AAXVNZ:CH"
369,CHN,CHN0211,China,6.0,,,0.0,TANGGANG AUTO SHEET CO,"TANGSHAN, HEBEI",Operating,39.634587,118.180484,PlantFacts,Approximate,,,,,https://www.metalbulletin.com/Article/3482164/Hebei-Iron-and-Steels-auto-sheet-expansion-plan-rankles-market.html,,,,,,,,bought bei Hebei Iron and Steel; part of Tangsteel; plant could be anywhere in Tangshan; location is city centre
370,CHN,CHN0212,China,4.0,,,0.0,TANGSHAN STAINLESS STEEL CO,"TANGSHAN, HEBEI",Operating,39.732411,118.465637,PlantFacts,Approximate,5000013130,Tangshan Iron and Steel Group Co Ltd (TANGSTEEL),,,http://www.tangsteel.com.cn/en/Type/ThirdType2/39/62/66,2020-04-29,5000022648.0,HBIS Group Co Ltd,,,,,"Not certain if this company is the stainless steel branch of Tangsteel, but seems likely. PermID doesn't list an entity with that name. "
371,CHN,CHN0213,China,9.0,2.0,2820.0,1.0,TANGSHAN XINYI I&S,"TANGSHAN, HEBEI",Operating,39.80389,118.205891,PlantFacts,Exact,,,,,https://www.asiaoffice.biz/company-tangshan-xinyiyuan-iron-and-steel-hebei-43359,,,,,,,,not sure if this is the correct plant
