iso3,uid,country,plant_type,gcd_plant_name,gcd_company_name,gcd_location,status,latitude,longitude,source,accuracy,permid,company_name,reported_capacity,reported_online_modernisation,owner_source,date_accessed,parent_permid,parent_name,desc,num_kilns_1,kiln_type_1,num_kilns_2,kiln_type_2,capacity,capacity_unit,contact,tel,fax
AFG,AFG0001,Afghanistan,Integrated,Ghori II Plant,Ghori Cement,"Baghlan, Pul-e-Khumri",Operating,35.96580023,68.68633787,GCD,Exact,,,,,,,,,2 Wet - 0.4Mt/yr (Unfinished - To be closed when Ghori III is completed),2.0,WET,,,0.4,Mt/yr,,,
AFG,AFG0003,Afghanistan,Integrated,,Jabal Saraj Cement,"Jabal Saraj, Parwan",Operating,35.1186016,69.19368259999989,GCD,Approximate,,,,,,,,,1 Wet - 0.03Mt/yr (Re-opened 2016)),1.0,WET,,,0.03,Mt/yr,,,
ALB,ALB0001,Albania,Integrated,,Antea Cement (Titan),"Boka e Kuqe, Kruja",Operating,41.549091,19.725338,GCD,Exact,5036173163.0,Antea Cement ShA,1.4,,http://www.anteacement.com/_home/antea-cement/,2020-02-13,5066579091.0,Titan Cement International SA,1.5Mt/yr,,,,,1.5,Mt/yr,George Batsakis,Tel: +355 4450 2427,Fax: +355 4450 2412
ALB,ALB0002,Albania,Integrated,Vlore Plant,ECA Euro Cement Albania,Vlora,Operating,40.462357,19.501867999999998,GCD,Exact,,,,,,,,,2 Semidry - 0.1Mt/yr,2.0,Semidry,,,0.1,Mt/yr,,,
ALB,ALB0003,Albania,Grinding,Elbasan Plant,Elbasan Cement Factory (Seament Albania),Elbasan,Operating,41.120103,20.045136,GCD,Exact,,,,,,,,,0.15Mt/yr,,,,,0.15,Mt/yr,Peter Russell,Tel: +355 4450,Fax: +355 4450
ALB,ALB0004,Albania,Integrated,Fushë Krujë Plant,Fushë Krujë Cement Factory (FKCF) (Seament Albania),Fushë Krujë,Operating,41.503079,19.743606,GCD,Exact,4296766190.0,Kushe Kruje Cement Factory,,,http://www.seament.com/contactus.php,2020-02-20,5041753428.0,Seament Holding Sal,1 Dry - 1.3Mt/yr,1.0,DRY,,,1.3,Mt/yr,Luan Bici,Tel: +355 0424 3936,Fax: +355 0224 3935
ALB,ALB0005,Albania,Grinding,,Colacem Albania,"Balldre, Lezhë",Operating,41.83677,19.63345,GCD,Exact,,Colacem Albania Shpk,,,https://www.colacem.com/al/sq/ku_dhe_si,2020-02-05,4296427455.0,Colacem SpA,0.5Mt/yr,,,,,0.5,Mt/yr,Ardian Ndoi,Tel: +355,
DZA,DZA0001,Algeria,Integrated,,CILAS (51% LafargeHolcim / 49% Souakri Group),"Biskra, 400km south of Algiers",Operating,35.096288,5.646743,GCD,Exact,5053127532.0,Lafarge Beton Algerie LBA,2.7,2016.0,https://www.lafarge.dz/1_2_2-ciments,2020-02-09,4295890620.0,LafargeHolcim Ltd,1 Dry - 2.7Mt/yr (Opened Oct. 2017).,1.0,DRY,,,2.7,Mt/yr,,Tel: +213 782 223092,
DZA,DZA0002,Algeria,Integrated,,ASEC Cement Algerie,Djelfa City,Operating,34.671359,3.254037,GCD,Approximate,,,,,,,,,2 Dry - 2.0Mt/yr New 1.5Mt/yr CBMI line due 2020,2.0,DRY,,,2.0,Mt/yr,Benali Tegguer,Tel: +213 770 254242,Fax: +213 219 19591
DZA,DZA0003,Algeria,Integrated,,China Triumph International Engineering Group (CTIEC),"Adrar struction, 2018)",Operating,27.8733807,-0.2874884,GCD,Approximate,,,,,,,,,1.5Mt/yr (2nd 1.4Mt/yr line under con- 0.2Mt/yr (Oil well cement),,,,,1.5,Mt/yr,,,
DZA,DZA0004,Algeria,Integrated,Meftah Plant,Société des Ciments de la Mitidja (SCMI) (GICA) (35% LafargeHolcim),"Meftah, Blida",Operating,36.63025,3.2324319999999997,GCD,Exact,,Société des Ciments de la Mitidja Meftah,,,https://www.gica.dz/filiales/,2020-02-16,5039190010.0,Groupe Industriel des Ciments d'Algerie,1 Dry - 0.8Mt/yr,1.0,DRY,,,0.8,Mt/yr,Mourad Ghanem,Tel: +213 2545 5350,Fax: +213 2545 5886
DZA,DZA0005,Algeria,Integrated,SCAL Plant,SCAL Raïs Hamidou (GICA) (35% LafargeHolcim),"Raïs Hamidou, Wilaya d’Alger",Operating,36.815388,3.015907,GCD,Exact,,Societe des Ciments de l'Algerois Raïs Hamidou,,,https://www.gica.dz/filiales/,2020-02-16,5039190010.0,Groupe Industriel des Ciments d'Algerie,2 Wet - 0.4Mt/yr,2.0,WET,,,0.4,Mt/yr,Zoubir Tiar,Tel: +213 217 09322,Fax: +213 217 09565
DZA,DZA0006,Algeria,Integrated,Chlef Plant,Entreprise des Ciments et Dérives d’Ech-Cheliff (ECDE) (GICA),"Cité Hammadia, Oued Sly, Chlef",Operating,36.127206,1.2420879999999999,GCD,Exact,,Entreprise des Ciments et Dérives d’Ech Oued Sly,,,https://www.gica.dz/filiales/,2020-02-16,5039190010.0,Groupe Industriel des Ciments d'Algerie,1Mt/yr (est),,,,,1.0,Mt/yr,,Tel: +213 2777 8410,Fax: +213 2777 8160
DZA,DZA0007,Algeria,Integrated,SCIMAT Plant,Societé de Ciment de Aïn Touta (GICA),"Aïn Touta, El Boustene, Batna",Operating,35.350288,5.762104,GCD,Exact,5050904729.0,Societe des Ciments de Ain Touta,,,https://www.gica.dz/filiales/,2020-02-16,5039190010.0,Groupe Industriel des Ciments d'Algerie,2 Dry - 0.9Mt/yr,2.0,DRY,,,0.9,Mt/yr,Salim Zagar,Tel: +213 3385 1300,Fax: +213 3385 1101
DZA,DZA0008,Algeria,Integrated,Ain El Kebira Plant,Entreprise des Ciments et Dérivés Est (ERCE),Constantine,Operating,36.358101,6.638186,GCD,Approximate,,,,,,,,,1 Dry - 1.05Mt/yr,1.0,Dry,,,1.05,Mt/yr,,Tel: +213 3691 9655,Fax: +213 3691 9656
DZA,DZA0009,Algeria,Integrated,SCHB Plant,Cement Company Hamma Bouziane (GICA),"Hamma Bouziane, Boussouf, Constantine",Operating,36.430427,6.622378,GCD,Exact,5044016655.0,Societe Des Ciments De Hamma Bouziane,,,http://www.schb.dz/contacts/,2020-02-16,5039190010.0,Groupe Industriel des Ciments d'Algerie,1 Dry - 1.0Mt/yr,1.0,DRY,,,1.0,Mt/yr,Alssa Bouhelt,Tel: +213 3160 6543,Fax: +213 3160 6539
DZA,DZA0010,Algeria,Integrated,Saida Plant,Societé de Ciments de Saïda (SCIS) (GICA),Saida,Operating,34.797336,0.328081,GCD,Exact,5044016653.0,Societe Des Ciments De Saida,,,https://www.gica.dz/filiales/,2020-02-16,5039190010.0,Groupe Industriel des Ciments d'Algerie,1 Dry - 0.5Mt/yr,1.0,DRY,,,0.5,Mt/yr,Mr Rokbi,Tel: +213 48 311212,Fax: +213 48 311316
DZA,DZA0013,Algeria,Integrated,M’Sila Plant,Lafarge Cement of Msila (LafargeHolcim),"Debil, Hammam EL Dalla",Operating,35.877318,4.445901,GCD,Exact,4295890620.0,LafargeHolcim Ltd,5.0,2003.0,https://www.lafarge.dz/1_2_2-ciments,2020-02-09,4295890620.0,LafargeHolcim Ltd,5.2Mt/yr (Grey) 0.6Mt/yr (White),,,,,5.2,Mt/yr,Xavier Lenclud,,
DZA,DZA0014,Algeria,Integrated,Oggaz Plant,Lafarge Ciment d’Oggaz (LafargeHolcim),Mascara,Operating,35.532649,-0.27516,GCD,Exact,4295890620.0,LafargeHolcim Ltd,3.7,2007.0,https://www.lafarge.dz/1_2_2-ciments,2020-02-09,4295890620.0,LafargeHolcim Ltd,1 Dry - 3.2Mt/yr 1 White - 0.6Mt/yr,1.0,DRY,,,3.2,Mt/yr,,Tel: 213 770 276366,Fax: 213 2392 4294
DZA,DZA0015,Algeria,Integrated,El  Ma Labiod Plant,SCT Société des Ciments de Tebessa (GICA),Tebessa,Operating,35.231931,8.174786,GCD,Exact,,Societe des Ciments de El Ma Labiod,,,https://www.gica.dz/filiales/,2020-02-16,5039190010.0,Groupe Industriel des Ciments d'Algerie,2 Dry - 0.5Mt/yr,2.0,DRY,,,0.5,Mt/yr,Bachir Kenzari,Tel: +213 3759 1798,Fax: +213 3759 1584
DZA,DZA0016,Algeria,Integrated,Aïn El Kebira Plant,Société des Ciments de Aïn El Kebira (SCAEK) (GICA),"Aïn El Kebira, Sétif Wilaya de Aïn Témouchent",Operating,36.334151,5.480683,GCD,Exact,5044170284.0,Societe des Ciments d'Ain El Kebira,,,http://www.scaek.dz/Contacts,2020-02-15,5039190010.0,Groupe Industriel des Ciments d'Algerie,2 Dry - 3.0Mt/yr (inc. new Polysius 2Mt line in 2017).,2.0,DRY,,,3.0,Mt/yr,"Khaber Ugly, CEO",Tel: +213 3666 0028,Fax: +213 3684 5697
DZA,DZA0017,Algeria,Integrated,Beni Saf Plant,Société des Ciments de Beni Saf (SCIBS) (GICA),"Sidi Sohbi, Beni Saf, Aïn Témouchent",Operating,35.311588,-1.3423399999999999,GCD,Exact,5050904989.0,Societe des Ciments de Beni Saf,,,https://www.gica.dz/filiales/,2020-02-16,5039190010.0,Groupe Industriel des Ciments d'Algerie,1 Dry - 1.6Mt/yr,1.0,DRY,,,1.6,Mt/yr,Tanem Mokrane,Tel: +213 4374 9234,Fax: +213 4374 9226
DZA,DZA0018,Algeria,Integrated,Sour El Ghozlane Plant,Société des Ciments de Sour El Ghozlane (GICA) (Buzzi Unicem),"Beccouche PAss, Wilaya de Bouira",Operating,36.180377,3.7503830000000002,GCD,Exact,5000847449.0,Societe des Ciments de Sour El Ghozlane EPE SpA,,,https://www.buzziunicem.com/algeria,2020-02-07,4295875751.0,Buzzi Unicem SpA,1 Dry - 1.0Mt/yr,1.0,DRY,,,1.0,Mt/yr,Meslem Mustapha,Tel: +213 26756932,Fax: +213 26756936
DZA,DZA0019,Algeria,Integrated,Hadjar Soud Plant,Société des Ciments des Hadjar Soud (SCHS) (GICA) (Buzzi Unicem),"AzzabaWilaya de Skikda Constantine, Lakhdar",Operating,36.762980999999996,7.309253999999999,GCD,Exact,5001215477.0,Societe Des Ciments De Hadjar Soud,,,https://www.buzziunicem.com/algeria,2020-02-07,4295875751.0,Buzzi Unicem SpA,2 Dry - 0.8Mt/yr,2.0,DRY,,,0.8,Mt/yr,,Tel: +213 3887 8842,Fax: +213 3887 8843
DZA,DZA0020,Algeria,Integrated,Relizane Plant,Sonatrach,"El-Kalaa, Relizane",Operating,35.597018,0.372402,GCD,Exact,,,,,,,,,1.0Mt/yr (Project),,,,,1.0,Mt/yr,,Tel: +213 2154 8011,Fax: +213 2154 7700
DZA,DZA0021,Algeria,Integrated,Zahana Plant,Societé de Ciment Zahana (GICA),"Djeniene-Meskine, Mascara",Operating,35.460084,-0.3962,GCD,Exact,5042247741.0,Societe des Ciments de Zahana,,,https://www.gica.dz/filiales/,2020-02-16,5039190010.0,Groupe Industriel des Ciments d'Algerie,1 Dry - 0.75Mt/yr (1.6Mt/yr dry line due for commissioning 1H2020).,1.0,DRY,,,0.75,Mt/yr,,Tel: +213 45 6304 48,Fax: +213 45 6301 45
DZA,DZA0022,Algeria,Integrated,Sigus Plant,Societé de Ciments de Sigus (GICA),"Ouled Khaled, Taxas-Sigus, Oumel Bouaghi",Operating,36.087138,6.805605,GCD,Exact,,Societé de Ciments de Sigus,,,http://www.scsigus.dz/,2020-02-15,5039190010.0,Groupe Industriel des Ciments d'Algerie,1 Dry - 2.2Mt/yr (Commissioned 1Q2019 by thyssenkrupp Industrial Solutions).,1.0,DRY,,,2.2,Mt/yr,,Tel: +213 31 60 65 48,Fax: +213 31 60 65 48
DZA,DZA0023,Algeria,,,,,Operating,31.85282,-1.933327,https://www.gica.dz/filiales/,Exact,,Société Saoura Ciment de Béchar,,,https://www.gica.dz/filiales/,2020-02-16,5039190010.0,Groupe Industriel des Ciments d'Algerie,,,,,,,,,,
AGO,AGO0001,Angola,Grinding,Lobito Plant,Cimentos Forte,,Operating,-12.537825,13.496729,GCD,Exact,,,,,,,,,0.4Mt/yr,,,,,0.4,Mt/yr,,,
AGO,AGO0002,Angola,Grinding,Lobito Plant,Companhia de Cimentos do Lobito (SECIL 51%),"Morro do Quileva, Lobito",Operating,-12.342644,13.581766,GCD,Exact,5035943898.0,Secil Angola SARL,0.35,,http://www.secil-group.com/a-secil/a-secil-no-mundo/?lang=en#secil_no_mundo_tunisia_en,2020-03-20,4295886745.0,Secil Companhia Geral de Cal e Cimento SA,0.3Mt/yr,,,,,0.3,Mt/yr,Augusto Manuel Pereira Miragaia,Tel:+244 27 222 2428,Fax:+244 27 222 3106
AGO,AGO0003,Angola,Integrated,,Fabrica de Cimento do Kwanza Sul,"Sumbe, Kwanza Sul",Operating,-11.185243,14.030804000000002,GCD,Exact,,,,,,,,,1 Dry - 1.3Mt/yr,1.0,DRY,,,1.3,Mt/yr,Manuela Vieira Lopes,Tel: +244 921 782 779,
AGO,AGO0004,Angola,Integrated,,Luanda Cemento (China International Fund),"Mazozo, Luanda",Operating,-9.101295,13.567407999999999,GCD,Exact,,,,,,,,,2 Dry - 4.0Mt/yr,2.0,DRY,,,4.0,Mt/yr,,Tel: +244 93 939 3699,
AGO,AGO0005,Angola,Integrated,,Nova Cimangola 2,"Cacuaco, Luanda",Operating,-8.766173,13.316051000000002,GCD,Exact,4296811479.0,Nova Cimangola,,,http://www.cimangola.com/?page_id=1168&lang=en,2020-08-07,4296811479.0,Nova Cimangola,1 Dry - 2.4Mt/yr,1.0,DRY,,,2.4,Mt/yr,,Tel: +244 233 4941,Fax: +244 233 4940
AGO,AGO0007,Angola,,,,,Operating,-8.796391999999999,13.426779999999999,http://www.cimangola.com/?page_id=1168&lang=en,Exact,4296811479.0,Nova Cimangola,,,http://www.cimangola.com/?page_id=1168&lang=en,2020-08-07,4296811479.0,Nova Cimangola,,,,,,,,,,
ARG,ARG0001,Argentina,Integrated,Minas Plant,Cementos Artigas,"Minas, Del Corro Werdum",Operating,-34.378987,-55.280467,GCD,Exact,,,,,,,,,1Mt/yr (Est),,,,,1.0,Mt/yr,,+54 59 8442 7680,+54 59 8442 7680
ARG,ARG0003,Argentina,Integrated,Olavarria Plant,Cementos Avellaneda,"Olavarria, Buenos Aires",Operating,-36.982432,-60.243942000000004,GCD,Exact,4295856033.0,Cementos Avellaneda SA,2.4,1937.0,http://www.cavellaneda.com.ar/divisiones.php?sec=divisiones,2020-02-07,4295856033.0,Cementos Avellaneda SA,2 Dry - 3Mt/yr,2.0,Dry,,,3.0,Mt/yr,,+54 284 493 055/155/160,+54 284 493 058
ARG,ARG0005,Argentina,Integrated,Capdeville Plant,Cementos Avellaneda,"Capdeville, Las Heras, Pcia. de Mendoza",Operating,-32.739253000000005,-68.845197,GCD,Exact,4295856026.0,Holcim Argentina SA,,,https://www.holcim.com.ar/nuestra-empresa/presencia-nacional,2020-02-09,4295890620.0,LafargeHolcim Ltd,1 Dry – 0.7Mt/yr,1.0,DRY,,,0.7,Mt/yr,Julio Rafael Oropeza Reeyes,Tel: +54 261 521 6400,Fax: +54 261 521 6495
ARG,ARG0006,Argentina,Integrated,Malagueño Plant,Cementos Avellaneda,"Malagueño, Pcia. de Córdoba",Operating,-31.482087,-64.352965,GCD,Exact,4295856026.0,Holcim Argentina SA,,,https://www.holcim.com.ar/nuestra-empresa/presencia-nacional,2020-02-09,4295890620.0,LafargeHolcim Ltd,2 Dry – 2.4Mt/yr (3.1Mt/yr from Feb 2020).,2.0,DRY,,,2.4,Mt/yr,Gerardo Enrique Kemnitz,Tel.: +54 351 498 1800,Fax: +54 351 498 1810
ARG,ARG0007,Argentina,Grinding,Yocsina Plant,Cementos Avellaneda,"Malagueño, Córdoba",Operating,-31.444889,-64.37047,GCD,Exact,4295856026.0,Holcim Argentina SA,,,https://www.holcim.com.ar/nuestra-empresa/presencia-nacional,2020-02-09,4295890620.0,LafargeHolcim Ltd,2 Dry - 0.5Mt/yr,2.0,DRY,,,0.5,Mt/yr,Raul Ricciutti,Tel: +54 351 498 1800,Fax: +54 351 498 1810
ARG,ARG0008,Argentina,Integrated,Puesto Viejo Plant,Cementos Avellaneda,"Puesto Viejo, Pcia. de Jujuy",Operating,-24.490598000000002,-64.957567,GCD,Exact,4295856026.0,Holcim Argentina SA,,,https://www.holcim.com.ar/nuestra-empresa/presencia-nacional,2020-02-09,4295890620.0,LafargeHolcim Ltd,1 Dry – 1.0Mt/yr,1.0,DRY,,,1.0,Mt/yr,Federico Maglione,Tel.: +54 388 491 1348/ 49,Fax: +54 388 491 1350
ARG,ARG0009,Argentina,Grinding,Campana Plant,Cementos Avellaneda,"Campana, Buenos Aires",Operating,-34.151782,-59.016309,GCD,Exact,4295856026.0,Holcim Argentina SA,,,https://www.holcim.com.ar/nuestra-empresa/presencia-nacional,2020-02-09,4295890620.0,LafargeHolcim Ltd,1.2Mt/yr - FLSmidth Vertical Roller Mill,,,,,1.2,Mt/yr,,Tel: +54 3489 434400,Fax: +54 4334 894455
ARG,ARG0010,Argentina,Integrated,Barker Plant,Cementos Avellaneda,"Barker, Buenos Aires",Operating,-37.683682,-59.38881800000001,GCD,Exact,4296543187.0,Loma Negra Compania Industrial Argentina SA,,,http://www.lomanegra.com/unidades/cemento/,2020-02-10,5035421084.0,InterCement Participacoes SA,2 Dry - 1.6Mt/yr,2.0,Dry,,,1.6,Mt/yr,,+54 22 9249 8095,+54 22 9249 8143
ARG,ARG0011,Argentina,Integrated,Catamarca Plant,Cementos Avellaneda,"El Alto, Pcia. de Catamarca",Operating,-28.467957000000002,-65.227789,GCD,Exact,4296543187.0,Loma Negra Compania Industrial Argentina SA,,,http://www.lomanegra.com/unidades/cemento/,2020-02-10,5035421084.0,InterCement Participacoes SA,1 Dry – 1.8Mt/yr,1.0,DRY,,,1.8,Mt/yr,Gerardo Guzzetti,Tel: +54 3834 455100/103,Fax: +54 3834 455102
ARG,ARG0012,Argentina,Integrated,L’ Amalí Plant,Cementos Avellaneda,"Olavarría, Pcia. de Buenos Aires",Operating,-37.038897,-60.294838,GCD,Exact,4296543187.0,Loma Negra Compania Industrial Argentina SA,,,http://www.lomanegra.com/unidades/cemento/,2020-02-10,5035421084.0,InterCement Participacoes SA,1Dry – 1.7Mt/yr 1Dry – 1.5Mt/yr: New Sinoma-built kiln - first clinker due July 2020,1.0,DRY,,,1.7,Mt/yr,Alejandro Omar Gschwind,Tel: +54 2284 495181 to 84,Fax: +54 2284 495 181 to 84
ARG,ARG0013,Argentina,Integrated,Olavarría Plant,Cementos Avellaneda,"Olavarría, Pcia. de Buenos Aires",Operating,-36.99286,-60.276543999999994,GCD,Exact,4296543187.0,Loma Negra Compania Industrial Argentina SA,,,http://www.lomanegra.com/unidades/cemento/,2020-02-10,5035421084.0,InterCement Participacoes SA,3 dry – 1.5Mt/yr,3.0,DRY,,,1.5,Mt/yr,Marcelo Alfredo Oreggioni,Tel: +54 228 4495 600,Fax: +54 228 4495 629
ARG,ARG0014,Argentina,Grinding,Ramallo Plant,Cementos Avellaneda,"Ramallo, Buenos Aires",Operating,-33.387910999999995,-60.133089,GCD,Exact,4296543187.0,Loma Negra Compania Industrial Argentina SA,,,http://www.lomanegra.com/unidades/cemento/,2020-02-10,5035421084.0,InterCement Participacoes SA,0.6Mt/yr,,,,,0.6,Mt/yr,,Tel: +54 33 646 1537,Fax: +54 33 646 1220
ARG,ARG0015,Argentina,Integrated,San Juan Plant,Cementos Avellaneda,"Rivadavia, Pcia San Juan",Operating,-31.549228000000003,-68.675812,GCD,Exact,4296543187.0,Loma Negra Compania Industrial Argentina SA,,,http://www.lomanegra.com/unidades/cemento/,2020-02-10,5035421084.0,InterCement Participacoes SA,1 Dry - 0.2Mt/yr,1.0,Dry,,,0.2,Mt/yr,,+54 26 4421 1017,+54 26 4421 1737
ARG,ARG0016,Argentina,Grinding,Sierras Bayas Plant,Cementos Avellaneda,"Sierras Bayas, Buenos Aires",Operating,-36.938645,-60.165115,GCD,Exact,4296543187.0,Loma Negra Compania Industrial Argentina SA,,,http://www.lomanegra.com/unidades/cemento/,2020-02-10,5035421084.0,InterCement Participacoes SA,2 Dry - 1.0Mt/yr,2.0,DRY,,,1.0,Mt/yr,,Tel: +54 22 8449 2102,Fax: +54 22 8449 2196
ARG,ARG0017,Argentina,Integrated,Zapala Plant,Cementos Avellaneda,"Zapala, Pcia. de Neuquén",Operating,-38.896776,-70.035152,GCD,Exact,4296543187.0,Loma Negra Compania Industrial Argentina SA,,,http://www.lomanegra.com/unidades/cemento/,2020-02-10,5035421084.0,InterCement Participacoes SA,1 Dry – 0.4Mt/yr,1.0,DRY,,,0.4,Mt/yr,Ariel Bacci,Tel: +54 2942 430103/104/106/107,Fax: +54 2942 430108
ARG,ARG0018,Argentina,Grinding,Comodoro Plant,Cementos Avellaneda,"Comodoro, Pcia del Chubut",Operating,-45.803647,-67.422563,GCD,Exact,,,,,,,,,3 Wet - 0.4Mt/yr,3.0,WET,,,0.4,Mt/yr,Martin Brandi,Tel: +54 29 7453 5311,Fax: +54 29 7453 5180
ARG,ARG0019,Argentina,Integrated,Pico Truncado - Plant,Cementos Avellaneda,"Pico Truncado, Pcia. Santa Cruz",Operating,-46.789491999999996,-67.927543,GCD,Exact,4295856026.0,Holcim Argentina SA,,2008.0,https://www.afcp.org.ar/evoluciondelsector,2020-02-15,4295890620.0,LafargeHolcim Ltd,1 Dry – 0.6Mt/yr,1.0,DRY,,,0.6,Mt/yr,Marcelo Romero,Tel: +54 297 499 4900,Fax: +54 297 499 4951
ARG,ARG0020,Argentina,Integrated,San Luis Plant,Cementos Avellaneda,"La Calera, Pcia. de San Luis",Operating,-32.862443,-66.85089599999999,GCD,Exact,4295856033.0,Cementos Avellaneda SA,0.35,1975.0,http://www.cavellaneda.com.ar/divisiones.php?sec=divisiones,2020-02-07,4295856033.0,Cementos Avellaneda SA,1 Dry – 0.4Mt/yr New Sinoma-built 0.7Mt/yr kiln - first clinker due February 2020,1.0,DRY,,,0.4,Mt/yr,Roque Amoroso,,
ARM,ARM0001,Armenia,Integrated,Araratcement Plant,Cementos Avellaneda,Ararat,Operating,39.855755,44.730945,GCD,Exact,4296860538.0,Araratcement Ojsc(Armenia),,,https://www.araratcement.am/history,2020-02-16,,Multi Group Concern,1 Dry - 0.9Mt/yr,1.0,DRY,,,0.9,Mt/yr,Levon Ambartsumyan,Tel: +374 384 1737,
ARM,ARM0002,Armenia,Integrated,Mika Plant,Cementos Avellaneda,Hrazdan,Operating,40.569855,44.748048,GCD,Exact,,Khachaturov Group,,,https://www.khachaturovgroup.am/about/,2020-02-16,,Khachaturov Group,2 Wet - 1.2Mt/yr,2.0,WET,,,1.2,Mt/yr,Naina Martirosyan,Tel: +374 232 3742,Fax: +374 232 6511
AUS,AUS0001,Australia,Integrated,Angaston Plant,Cementos Avellaneda,"Angaston, South Australia",Operating,-34.502107,139.028952,GCD,Exact,5040950706.0,Adelaide Brighton Cement Ltd,,,http://www.adelaidebrighton.com.au/customer-info/plant-locations,2020-02-03,4295857193.0,Adelaide Brighton Ltd,1 Semidry & 1 Wet - 0.3Mt/yr,1.0,WET,1.0,SEMIDRY,0.3,Mt/yr,Michael Williams,Tel: +61 8 8561 3100,Fax: +61 8 8564 3019
AUS,AUS0003,Australia,Integrated,,Cementos Avellaneda,"Port Adelaide, South Australia",Operating,-34.831590999999996,138.502971,GCD,Exact,5040950706.0,Adelaide Brighton Cement Ltd,,,http://www.adelaidebrighton.com.au/customer-info/plant-locations,2020-02-03,4295857193.0,Adelaide Brighton Ltd,1 Dry - 1.3Mt/yr,1.0,DRY,,,1.3,Mt/yr,Birkenhead Plant Tony Ryan,Tel: +61 8 8300 0300,Fax: +61 8 8300 0430
AUS,AUS0004,Australia,Grinding,ASMS Slag Plant,Cementos Avellaneda,"Port Kembla, New South Wales",Operating,-34.4563803979146,150.8675078820854,GCD,Exact,,Australian Steel Mill Services Pty Ltd,1.2,,http://www.asms.com.au/,2020-08-11,,Australian Steel Mill Services Pty Ltd,Loesche 30S,,,,,,,,Tel: +61 2 42551 100,Fax: +61 2 4275 2798
AUS,AUS0005,Australia,Grinding,,Cementos Avellaneda,"Kwinana, Perth, WA",Operating,-32.204599,115.77805900000001,GCD,Exact,4296017436.0,Cement Australia Holdings Pty Ltd,,,https://www.cementaustralia.com.au/our-locations,2020-02-03,4296017436.0,Cement Australia Holdings Pty Ltd,,,,,,,,,Tel: +61 8 6220 4800,Fax: +61 8 6228 4802
AUS,AUS0006,Australia,Integrated,Berrima Plant,Cementos Avellaneda,"Berrima, New South Wales",Operating,-34.509613,150.33653999999999,GCD,Exact,5000459547.0,Boral Cement Ltd,,,https://www.boral.com.au/locations,2020-02-03,4295857155.0,Boral Ltd,1 Dry - 1.5Mt/yr,1.0,DRY,,,1.5,Mt/yr,Stuart Hutchings,Tel: +61 2 4860 2222,Fax: +61 2 4860 2388
AUS,AUS0007,Australia,Grinding,Maldon Plant,Cementos Avellaneda,"Maldon, New South Wales",Operating,-34.195648999999996,150.634007,GCD,Exact,5000459547.0,Boral Cement Ltd,,,https://www.boral.com.au/locations,2020-02-03,4295857155.0,Boral Ltd,0.7Mt/yr,,,,,0.7,Mt/yr,,Tel: +612 9033 4000,Fax: +61 2 4677 1487
AUS,AUS0008,Australia,Grinding,Waurn Ponds Plant,Cementos Avellaneda,Victoria,Operating,-38.224924856106746,144.2685685338932,GCD,Exact,5000459547.0,Boral Cement Ltd,,,https://www.boral.com.au/locations,2020-02-03,4295857155.0,Boral Ltd,1 Dry - 0.6Mt/y,1.0,DRY,,,0.6,Mt/yr,Graham Evans,Tel: +61 3 5240 6000,Fax: +61 3 5241 8144
AUS,AUS0009,Australia,Integrated,Gladstone Plant,Cementos Avellaneda,"Gladstone, Queensland",Operating,-23.792892000000002,151.15498,GCD,Exact,4296017436.0,Cement Australia Holdings Pty Ltd,,,https://www.cementaustralia.com.au/our-locations,2020-02-03,4296017436.0,Cement Australia Holdings Pty Ltd,1 Dry - 1.7Mt/yr,1.0,DRY,,,1.7,Mt/yr,Michael Williams,Tel: +61 7 4970 1100,Fax: +61 7 4970 1138
AUS,AUS0010,Australia,Grinding,Bulwer Island Plant,Cementos Avellaneda,"Pinkenba, Queensland",Operating,-27.413120000000003,153.141054,GCD,Exact,4296017436.0,Cement Australia Holdings Pty Ltd,,,https://www.cementaustralia.com.au/our-locations,2020-02-03,4296017436.0,Cement Australia Holdings Pty Ltd,1.2Mt/yr,,,,,1.2,Mt/yr,Radu Petroni,Tel: +61 7 3335 3000,Fax: +61 7 3632 7820
AUS,AUS0011,Australia,Integrated,Railton Plant,Cementos Avellaneda,"Railton, Tasmania",Operating,-41.331127,146.416556,GCD,Exact,4296017436.0,Cement Australia Holdings Pty Ltd,,,https://www.cementaustralia.com.au/our-locations,2020-02-03,4296017436.0,Cement Australia Holdings Pty Ltd,1 Dry - 1.1Mt/yr,1.0,DRY,,,1.1,Mt/yr,Mark Wright,Tel: +61 3 6491 0111,Fax: +61 3 6491 0185
AUS,AUS0012,Australia,Grinding,Kwinana Plant,Cementos Avellaneda,"Kwinana, Western Australia",Operating,-32.211016,115.77371200000002,GCD,Exact,4297011466.0,Cockburn Cement Ltd,,,http://cockburncement.com.au/about-us/,2020-02-03,4295857193.0,Adelaide Brighton Ltd,0.3Mt/yr,,,,,0.3,Mt/yr,,Tel: +61 8 9411 1000,Fax: +61 8 9411 1150
AUS,AUS0013,Australia,Integrated,Munster Plant,Cementos Avellaneda,"Munster, Western Australia",Operating,-32.147573,115.79911200000001,GCD,Exact,4297011466.0,Cockburn Cement Ltd,,,http://cockburncement.com.au/about-us/,2020-02-03,4295857193.0,Adelaide Brighton Ltd,3 Wet - 0.7Mt/yr,3.0,WET,,,0.7,Mt/yr,Declan Mackle,Tel: +61 8 9411 1000,Fax: +61 8 9411 1150
AUS,AUS0014,Australia,Grinding,Port Kembla Slag Plant,Cementos Avellaneda,"Warrawong, New South Wales",Operating,-34.470535,150.90186200000002,GCD,Exact,4296017436.0,Cement Australia Holdings Pty Ltd,,,https://www.cementaustralia.com.au/our-locations,2020-02-03,4296017436.0,Cement Australia Holdings Pty Ltd,1.1Mt/yr - Pfeiffer MVR 6000 C-6,,,,,1.1,Mt/yr,Richard Bartkowiak,Tel: +61 2 4255 1100,
AUS,AUS0015,Australia,Grinding,,Cementos Avellaneda,Port of Melbourne,Operating,-37.821199,144.926994,GCD,Exact,4296948088.0,Independent Cement and Lime Pty Ltd,,,https://bpsaust.com/contact/,2020-08-11,4296948088.0,Independent Cement and Lime Pty Ltd,"(1 x BM 35t/hr, 1 x VRM 70t/hr in 2014)",,,,,35.0,Mt/yr,,Tel: +61 3 9676 0000,Fax: +61 3 9646 4954
AUS,AUS0016,Australia,Grinding,Morgan Plant,Cementos Avellaneda,"Port Kembla, New South Wales",Operating,-34.476949,150.91107,GCD,Exact,5000444682.0,Morgan Cement International Pty Ltd,,,https://adbri.com.au/contact#locations-contacts,2020-02-03,4295857193.0,Adelaide Brighton Ltd,0.3Mt/yr,,,,,0.3,Mt/yr,,Tel: +61 2 4276 4888,Fax: +61 2 4276 4399
AUS,AUS0017,Australia,Grinding,Darwin Plant,Cementos Avellaneda,"East Arm Darwin, Northern Territory",Operating,-12.481157000000001,130.897256,GCD,Exact,5036865970.0,Northern Cement Ltd,,,https://adbri.com.au/contact#locations-contacts,2020-02-03,4295857193.0,Adelaide Brighton Ltd,0.2Mt/yr,,,,,0.2,Mt/yr,,Tel: +61 8 8984 0600,Fax: +61 8 8984 4674
AUS,AUS0018,Australia,Grinding,Sunstate Plant,Cementos Avellaneda,"Port of Brisbane, Queensland",Operating,-27.388321,153.161449,GCD,Exact,4298146574.0,Sunstate Cement Ltd,1.5,,https://sunstatecement.com.au/about-us/,2020-08-11,4298146574.0,Sunstate Cement Ltd,1.5Mt/yr - (3 x 90t/hr),,,,,1.5,Mt/yr,,Tel: +61 7 3895 9800,Fax: +61 7 3895 9801
AUS,AUS0019,Australia,Grinding,Pinkenba Plant,Cementos Avellaneda,"Brisbane, Queensland Anthony Freer",Operating,-27.416316,153.139204,GCD,Exact,5039705674.0,Wagners Cement Pty Ltd,,,https://www.wagner.com.au/main/what-we-do/cement-flyash-lime/products/bulk/,2020-08-11,5039705674.0,Wagners Cement Pty Ltd,"1.3Mt/yr - 1 x BM 60t/hr, 1 x UBE VRM 110t/hr",,,,,1.3,Mt/yr,,Tel: +61 7 3621 1111,Fax: +61 7 3621 1100
AUS,AUS0020,Australia,,,,,Operating,-32.055833,115.9159,https://www.cementaustralia.com.au/our-locations,Exact,4296017436.0,Cement Australia Holdings Pty Ltd,,,https://www.cementaustralia.com.au/our-locations,2020-02-03,4296017436.0,Cement Australia Holdings Pty Ltd,,,,,,,,,,
AUS,AUS0021,Australia,,,,,Operating,-30.724275,121.497603,http://cockburncement.com.au/about-us/,Exact,4297011466.0,Cockburn Cement Ltd,,,http://cockburncement.com.au/about-us/,2020-02-03,4295857193.0,Adelaide Brighton Ltd,,,,,,,,,,
AUS,AUS0022,Australia,,,,,Operating,-29.311239,114.94434199999999,http://cockburncement.com.au/about-us/,Exact,4297011466.0,Cockburn Cement Ltd,,,http://cockburncement.com.au/about-us/,2020-02-03,4295857193.0,Adelaide Brighton Ltd,,,,,,,,,,
AUS,AUS0023,Australia,,,,,Operating,-14.979541000000001,133.082037,https://adbri.com.au/contact#locations-contacts,Exact,5036865970.0,Northern Cement Ltd,,,https://adbri.com.au/contact#locations-contacts,2020-02-03,4295857193.0,Adelaide Brighton Ltd,,,,,,,,,,
AUT,AUT0001,Austria,Integrated,Gmunden Plant,Gmundner Zement Produktions-und Handels GmbH,"Gmunden, Upper Austria",Operating,47.921903,13.777083,GCD,Exact,5000955406.0,Gmundner Zementwerke Hatschek,,,https://www.rohrdorfer.eu/zement/firmen/,2020-03-17,4296645700.0,Rohrdorfer Zementwerke,1 Dry - 0.8Mt/yr,1.0,DRY,,,0.8,Mt/yr,Peter Fuerhapter,Tel: +43 76 1278 80,Fax: +43 76 1278 8429
AUT,AUT0002,Austria,Integrated,Kirchdorfer Zementwerk,Kirchdorfer Zementwerk Hofmann Gesellschaft mbH,"Kirchdorf, Upper Austria",Operating,47.908646999999995,14.116847,GCD,Exact,5036395056.0,Kirchdorfer Zementwerk Hofmann GmbH,,,https://www.kirchdorfer-zement.at/kontakt/adressen-lageplan-zufahrt/,2020-03-17,5036395056.0,Kirchdorfer Zementwerk Hofmann GmbH,1 Dry - 0.5Mt/yr,1.0,DRY,,,0.5,Mt/yr,Matthias Pfützner,Tel: +43 57 715 200 414,Fax: +43 57 715 200 466
AUT,AUT0003,Austria,Integrated,Mannersdorf Plant,Lafarge Zement GmbH (LafargeHolcim),"Mannersdorf, Lower Austria",Operating,47.983793,16.606415,GCD,Exact,5037628508.0,Lafarge Zementwerke GmbH,,1984.0,https://www.lafarge.at/ueber-uns/werk-mannersdorf,2020-02-09,4295890620.0,LafargeHolcim Ltd,1 Dry - 1.2Mt/yr,1.0,DRY,,,1.2,Mt/yr,Dr Joseph Kitzweger,Tel: +43 21 686 2311 2100,Fax: +43 21 686 2311 2107
AUT,AUT0004,Austria,Integrated,Retznei Plant,Lafarge Zement GmbH (LafargeHolcim),"Retznei, Styria",Operating,46.737096,15.573051000000001,GCD,Exact,5037628508.0,Lafarge Zementwerke GmbH,,,https://www.lafarge.at/ueber-uns/werk-retznei,2020-02-09,4295890620.0,LafargeHolcim Ltd,1 Dry - 0.5Mt/yr,1.0,DRY,,,0.5,Mt/yr,Günter Kohlmayr,Tel: +43 34 53 2101 3101,Fax: +43 34 53 2101 3089
AUT,AUT0005,Austria,Grinding,Rohrdorfer Gruppe,Rohrdorfer Gruppe,"Kufstein, Tyrol",Operating,47.55097942797239,12.1680754279724,GCD,Exact,,Betonwerke Unterland GmbH & Co KG,,,https://www.rohrdorfer.eu/transportbeton/betonwerke-unterland-gmbh-co-kg/,2020-03-17,4296645700.0,Rohrdorfer Zementwerke,,,,,,,,Robert Stadler,Tel: +43 49 8032 1820,Fax: +43 49 8032 182197
AUT,AUT0006,Austria,Integrated,Schretter Vils,Schretter & Cie GmbH & Co KG,"Vils, Tirol",Operating,47.552199,10.638447,GCD,Exact,5039593685.0,Schretter & Cie GmbH & Co KG,,,http://www.schretter-vils.co.at/en/about-us/location-directions/,2020-03-17,5039593685.0,Schretter & Cie GmbH & Co KG,1 Dry - 0.4Mt/yr,1.0,DRY,,,0.4,Mt/yr,Reinhard Schretter,Tel: +43 56 778 401 0,Fax: +43 56 778 401 222
AUT,AUT0008,Austria,Integrated,Peggau Plant,w&p Zement GmbH (former Wietersdorfer & Peggauer Zement GmbH),"Peggau, Styria",Operating,47.213805,15.344482000000001,GCD,Exact,5039595869.0,w&p Zement GmbH,,,https://zement.wup.at/kontakt/,2020-02-16,5001083840.0,Wietersdorfer & Peggauer Zementwerke GmbH,2 Semidry - 0.4Mt/yr - Mothballed,2.0,SEMIDRY,,,0.4,Mt/yr,Hubert Thaller,Tel: +43 31 2720 10,Fax: +43 31 2720 123 61
AUT,AUT0009,Austria,Integrated,Wietersdorf Plant,w&p Zement GmbH (former Wietersdorfer & Peggauer Zement GmbH),"Wietersdorf, Carinthia",Operating,46.851121,14.533584,GCD,Exact,5039595869.0,w&p Zement GmbH,,,https://zement.wup.at/kontakt/,2020-02-16,5001083840.0,Wietersdorfer & Peggauer Zementwerke GmbH,1 Dry - 0.8Mt/yr,1.0,DRY,,,0.8,Mt/yr,Florian Salzer,Tel: +43 42 6431 31 0,Fax: +43 42 6431 31 1279
AUT,AUT0010,Austria,Integrated,Wopfinger Stein und Kalkwerke Plant,Wopfinger Baustoffindustrie GmbH,Wopfing,Operating,47.87317567484935,16.08576467484933,GCD,Exact,4296924079.0,Wopfinger Baustoffindustrie GmbH,,,https://int.baumit.com/contact/locations,2020-03-17,4298425490.0,Baumit Beteiligungen GmbH,1 Dry - 0.3Mt/yr,1.0,DRY,,,0.3,Mt/yr,Stefan Taschner,Tel: +43 26 3340 00,Fax: +43 26 3340 0266
AUT,AUT0011,Austria,Integrated,Gartenau Plant,Zement Leube GmbH,"Gartenau, St Leonhard, Salzburg",Operating,47.723208,13.051516000000001,GCD,Exact,5001081393.0,Zementwerk Leube GmbH,,,https://www.leube.at/unternehmen/leube-gruppe/zementwerk/standort/,2020-03-17,4297996634.0,Leube Baustoffe GmbH,1 Dry - 0.8Mt/yr,1.0,DRY,,,0.8,Mt/yr,Rudolf Zrost,Tel: +43 50 8108 0,Fax: +43 50 8108 219
AZE,AZE0001,Azerbaijan,Integrated,Gazakh Plant,Akkord Cement,"Dash Salahli, Gazakh",Operating,41.16592,45.254606,GCD,Exact,,,,,,,,,1 Dry - 1.0Mt/yr,1.0,DRY,,,1.0,Mt/yr,,Tel:+994 124 044 404,Fax: +994 514 114 404
AZE,AZE0002,Azerbaijan,Integrated,Garadagh Plant,Holcim Azerbaijan (LafargeHolcim),Baku,Operating,40.224409,49.556633000000005,GCD,Exact,5036791377.0,Holcim Azarbaijan ASJ,,,https://www.holcim.az/az/haqqimizda/qaradag-sement-zavodunun-holcim-azrbaycan-asc-tarixi,2020-02-09,4295890620.0,LafargeHolcim Ltd,4 Dry - 1.7Mt/yr,4.0,DRY,,,1.7,Mt/yr,Rossen Papazov,Tel: +994 12 44 18 888,Fax: +994 12 44 61 881
AZE,AZE0003,Azerbaijan,Integrated,Gizildash Plant,Norm Cement,"Gizildash, Baku",Operating,40.251212,49.447206,GCD,Exact,,,,,,,,,1 Dry - 2.0Mt/yr,1.0,DRY,,,2.0,Mt/yr,Murad Sadikov,Tel: +994 12 310 1010,Fax: +994 12 310 1020
BHR,BHR0001,Bahrain,Grinding,Muharraq Plant,"Star Cement (UltraTech Cement Bahrain Company WLL, part of Aditya Birla)","Hidd, Manama",Operating,26.220002,50.656492,GCD,Exact,5074497900.0,Ultratech Cement Bahrain Co WLL,,,http://www.starcement.ae/index.php/contact-us,2020-08-07,4295872971.0,Grasim Industries Ltd,0.4Mt/yr,,,,,0.4,Mt/yr,,Tel: +973 1767 1011,Fax: +973 1767 1698
BHR,BHR0002,Bahrain,Integrated,,Falcon Cement,Hafirah 955,Operating,26.03186,50.594119,GCD,Exact,,,,,,,,,0.4Mt/yr,,,,,0.4,Mt/yr,,Tel: +973 7714 4443,
BGD,BGD0001,Bangladesh,Grinding,Akij Plant,Akij Cement,"Narayangonj, Dhaka",Operating,23.625073,90.514676,GCD,Exact,,,,,,,,,Loesche LM 46.2+2 C/S,,,,,,,,Tel: +88 171 119 110,
BGD,BGD0002,Bangladesh,Grinding,Madangonj Plant,Bashundhara Industrial Complex,"Madangonj, Narayangonj",Operating,23.587847,90.51646600000001,GCD,Exact,,,,,,,,,2.1Mt/yr - Loesche 56.3+3 S,,,,,2.1,Mt/yr,,Tel: +88 27 648 0809,Fax: +88 28 401 296
BGD,BGD0003,Bangladesh,Grinding,Mongola Plant,Bashundhara Industrial Complex,"Mongola, Bagerhat",Operating,22.515404,89.587142,GCD,Exact,,,,,,,,,1.62Mt/yr - Loesche 56.3+3 S,,,,,1.62,Mt/yr,,Tel: +88 46 627 5377,Fax: +88 46 627 5371
BGD,BGD0004,Bangladesh,Grinding,Bangladesh Plant,Cemex,"Madangonj, Narayangonj",Operating,23.599460999999998,90.510752,GCD,Exact,,,,,,,,,0.5Mt/yr,,,,,0.5,Mt/yr,,,Fax: +88 02 8814521
BGD,BGD0005,Bangladesh,Integrated,Chhatak Plant,Chhatak Cement,Dhaka,Operating,25.046629,91.65805,GCD,Exact,,,,,,,,,2 Dry - 1.2Mt/yr (2.8Mt/yr in 2019),2.0,DRY,,,1.2,Mt/yr,Mohammad Shahidur Rahman A I M Nazmul Alm,,
BGD,BGD0006,Bangladesh,Grinding,Kanchpur Plant,HeidelbergCement Bangladesh,"Kanchpur, Narayangonj, Dhaka",Operating,23.71286,90.51543000000001,GCD,Exact,4296392248.0,Heidelberg Cement Bangladesh Ltd,,,https://www.heidelbergcementbd.com/our_offices_and_plants.aspx,2020-02-08,4295868961.0,HeidelbergCement AG,0.5Mt/yr,,,,,0.5,Mt/yr,,Tel: +88 25 881 5602 ( / 3),Fax: +88 25 881 5598
BGD,BGD0007,Bangladesh,Grinding,Chittagong Plant,HeidelbergCement Bangladesh,"South Halishahar, Chattogram",Operating,22.279538,91.795684,GCD,Exact,4296392248.0,Heidelberg Cement Bangladesh Ltd,,,https://www.heidelbergcementbd.com/our_offices_and_plants.aspx,2020-02-08,4295868961.0,HeidelbergCement AG,0.8Mt/yr,,,,,0.8,Mt/yr,S.M. Jabed,Tel: +88 031 250 0818,Fax: +88 031 250 1159
BGD,BGD0009,Bangladesh,Grinding,United Cement Industries Plant 2,Holcim Bangladesh (LafargeHolcim),"Meghna Ghat, Sonargaon, Narayangonj",Operating,23.611005,90.613007,GCD,Exact,4296127762.0,LafargeHolcim Bangladesh Ltd,,,https://www.lafargeholcim.com.bd/company-profile,2020-02-09,4295890620.0,LafargeHolcim Ltd,0.7Mt/yr,,,,,0.7,Mt/yr,Khandker Ataur Rahman Rifat,Tel: +880 29 881 002,Fax: +880 28 815 249
BGD,BGD0010,Bangladesh,Grinding,Saiham Cement Industries Plant 3,Holcim Bangladesh (LafargeHolcim),"Mongola Port, Bagerhat Kwang Se Chung",Operating,22.504972,89.58950300000001,GCD,Exact,4296127762.0,LafargeHolcim Bangladesh Ltd,,,https://www.lafargeholcim.com.bd/company-profile,2020-02-09,4295890620.0,LafargeHolcim Ltd,,,,,,,,,Tel: +880 17 566 959,Fax: +880 2 881 5249
BGD,BGD0011,Bangladesh,Integrated,Sylhet Plant,Islam Cement,Sylhet,Operating,24.89922,91.8685271,GCD,Approximate,,,,,,,,,1 Dry - 0.6Mt/yr,1.0,DRY,,,0.6,Mt/yr,,,
BGD,BGD0012,Bangladesh,Integrated,Sunamgaji Plant,Jalalabad Cement,Sunamgaji,Operating,24.4768783,90.2932426,GCD,Approximate,,,,,,,,,1 Dry - 0.3Mt/yr,1.0,DRY,,,0.3,Mt/yr,,,
BGD,BGD0013,Bangladesh,Integrated,Chhatak Plant,Lafarge Surma Cement (29.44% LafargeHolcim / 29.45% Cementos Molins),"Chhatak, Sunamgonj",Operating,25.034445,91.648303,GCD,Exact,4296127762.0,LafargeHolcim Bangladesh Ltd,,,https://www.lafargeholcim.com.bd/company-profile,2020-02-09,4295890620.0,LafargeHolcim Ltd,1 Dry - 5.5Mt/yr,1.0,DRY,,,5.5,Mt/yr,Manirul Haque,Tel: +880 29 854 847,Fax: +880 28 815 167
BGD,BGD0014,Bangladesh,Grinding,,MI Cement Factory,Munshigonj,Operating,23.576689000000002,90.508382,GCD,Exact,,,,,,,,,0.2Mt/yr (Expansion announced,,,,,0.2,Mt/yr,in 2015),Tel: +880 27 648 077,Fax: +880 2764 8070
BGD,BGD0015,Bangladesh,Integrated,Daudkandi Plant,Modern Cement Plant,Daudkandi,Operating,22.6192448,91.65793458,GCD,Approximate,,,,,,,,,1 Wet - 0.2Mt/yr,1.0,WET,,,0.2,Mt/yr,,,
BGD,BGD0016,Bangladesh,Integrated,Mongla Plant,Sena Kalyan Sangstha,"Dhaka, Bagerhat",Operating,22.517834,89.585596,GCD,Exact,,,,,,,,,0.6Mt/yr,,,,,0.6,Mt/yr,Masud Almahmud,Tel: +880 29 890 819,Fax: +880 29 890 900
BGD,BGD0017,Bangladesh,Grinding,Kaliganj Plant,Seven Circle Bangladesh (Shun Shing Group),"Kaliganj, Dhaka",Operating,23.934081,90.613085,GCD,Exact,,Seven Circle Bangladesh Limited,,,http://www.ssgil.com/manufacturing/cement-plants/,2020-02-22,5046047295.0,Shun Shing Group International Ltd,1.6Mt/yr,,,,,1.6,Mt/yr,,Tel: +880 28 817 690,Fax: +880 28 811 926
BGD,BGD0018,Bangladesh,Grinding,Khulna Plant,Seven Circle Bangladesh (Shun Shing Group),Khulna,Operating,22.784672,89.581336,GCD,Exact,,Shun Shing Cement Mills Ltd,,,http://www.ssgil.com/manufacturing/cement-plants/,2020-02-22,5046047295.0,Shun Shing Group International Ltd,1.3Mt/yr,,,,,1.3,Mt/yr,,Tel: +880 41 283 2325,Fax: +880 41 283 1525
BGD,BGD0019,Bangladesh,Grinding,Emirates Plant,Star Cement (Aditya Birla Group / Emirates Cement Bangladesh),"Kawran Bazar, Dhaka",Operating,23.568501,90.52032700000001,GCD,Exact,,,,,,,,,0.5Mt/yr,,,,,0.5,Mt/yr,,Tel: +88 28113097,Fax: +88 28127773
BGD,BGD0020,Bangladesh,Grinding,North Potenga Plant,NGS Cement,"North Potenga, Chattogram",Operating,22.26509,91.796193,GCD,Exact,,,,,,,,,0.21Mt/yr 1x40t/hr,,,,,0.21,Mt/yr,,,
BGD,BGD0021,Bangladesh,Grinding,Isha Nagar Plant,Diamond Cement Ltd,"Isha Nagar, Karnafully, Chattogram",Operating,22.307487,91.812937,GCD,Exact,,,,,,,,,"0.707Mt/yr 1x20, 1x34, 1x80t/hr",,,,,0.7070000000000001,Mt/yr,,,
BGD,BGD0022,Bangladesh,Grinding,Isha Nagar Plant,National Cement Mills Ltd,"Isha Nagar, Karnafully, Chattogram",Operating,22.308584,91.8143,GCD,Exact,,,,,,,,,1.53Mt/yr,,,,,1.53,Mt/yr,,,
BGD,BGD0023,Bangladesh,Grinding,Chattogram Plant,S. Alam Cement Ltd,"Char Patharghata Karnaphuli, Chattogram",Operating,22.312268,91.85799999999999,GCD,Exact,,,,,,,,,0.317Mt/yr 1x60t/hr,,,,,0.317,Mt/yr,,,
BGD,BGD0024,Bangladesh,Grinding,Kalurghat Plant,Aramit Cement Ltd,"Mohara, Chattogram",Operating,22.381623,91.869938,GCD,Exact,,,,,,,,,"0.49Mt/yr (16hr/d x 330d/y) 1x35t/hr, 1 x50t/hr",,,,,0.49,Mt/yr,,,
BGD,BGD0025,Bangladesh,Grinding,Madambibir Hat Plant,Confidence Cement Ltd,"Bhatiary, Sitakunda, Chattogram",Operating,22.441231,91.738037,GCD,Exact,,,,,,,,,"1.03Mt/yr 2x12.5, 1x80, 1x90t/hr (CNBM Int. Eng.)",,,,,1.03,Mt/yr,,,
BGD,BGD0026,Bangladesh,Grinding,Joromatal Plant,Royal Cement Ltd,"Joromatal, Bara Kumira, Chattogram",Operating,22.502645,91.71544,GCD,Exact,,,,,,,,,"0.74Mt/yr 2x40, 1x60t/hr",,,,,0.74,Mt/yr,,,
BGD,BGD0027,Bangladesh,Grinding,Mongla Port Plant,Dubai Bangladesh Cement Mills Ltd,"Mongla Port, Bagherhat",Operating,22.503884,89.59030200000001,GCD,Exact,,,,,,,,,"0.818Mt/yr 2x35, 1x85t/hr",,,,,0.818,Mt/yr,,,
BGD,BGD0028,Bangladesh,Grinding,Birirdanga Plant,Mongla Cement Factory,"Birirdanga, Mongla, Bagherhat",Operating,22.51778,89.58541600000001,GCD,Exact,,,,,,,,,"1.11Mt/yr 1x35, 1x65, 1x110t/hr",,,,,1.11,Mt/yr,,,
BGD,BGD0029,Bangladesh,Grinding,Chattogram Plant,Alhaj Mostafa Hakim Cement Ind. Ltd,"Chota Kumira, Sitakunda, Chattogram",Operating,22.53217,91.700866,GCD,Exact,,,,,,,,,0.13Mt/yr 1x25t/hr,,,,,0.13,Mt/yr,,,
BGD,BGD0030,Bangladesh,Grinding,Rupatoli Plant,Olympic Cement Ltd,"Rupatoli, Barisal",Operating,22.652466,90.345293,GCD,Exact,,,,,,,,,"1.0Mt/yr 2x35, 1x120t/hr",,,,,1.0,Mt/yr,,,
BGD,BGD0031,Bangladesh,Grinding,West Mukterpur Plant,Shah Cement Industries Ltd,"West Mukterpur, Munchiganj",Operating,23.568618,90.524404,GCD,Exact,,,,,,,,,"6.5Mt/yr (India), 1x540t/hr (OK 81-6, FLS)",,,,,6.5,Mt/yr,,,
BGD,BGD0032,Bangladesh,Grinding,West Mukterpur Plant,Metrocem Cement Ltd,"West Mukterpur, Munshiganj",Operating,23.571925,90.521455,GCD,Exact,,,,,,,,,"0.607Mt/yr 1x40, 1x60t/hr",,,,,0.607,Mt/yr,,,
BGD,BGD0033,Bangladesh,Grinding,West Mukterpur Plant,Premier Cement Ltd,"West Mukterpur, Munshiganj",Operating,23.578554999999998,90.513202,GCD,Exact,,,,,,,,,"3.8Mt/yr 4x85t/hr (FLS/China), 1x380t/",,,,,3.8,Mt/yr,,,
BGD,BGD0034,Bangladesh,Grinding,Tatui Tala Plant,Anward Cement Mills Ltd,"Gazaria, Munshigoni",Operating,23.602161,90.624685,GCD,Exact,,,,,,,,,"0.607Mt/yr 2x15t/hr, 1x85t/hr",,,,,0.607,Mt/yr,,,
BGD,BGD0035,Bangladesh,Grinding,Meghna Ghat Plant,Unique Cement Industries Ltd (Meghna Group),"Meghna Ghat, Narayangonj",Operating,23.609232000000002,90.61001,GCD,Exact,,,,,,,,,4.64Mt/yr,,,,,4.64,Mt/yr,,,
BGD,BGD0036,Bangladesh,Grinding,Meghnaghat Plant,MTC Cement Industries Ltd,"Meghnaghat, Sonargaon, Narayangonj",Operating,23.612783,90.60623199999999,GCD,Exact,,,,,,,,,"1.636Mt/yr 1x60, 1x250t/hr",,,,,1.636,Mt/yr,,,
BGD,BGD0037,Bangladesh,,,,,Operating,23.666470999999998,90.634656,OSM,Exact,,,,,,,,,,,,,,,,,,
BGD,BGD0038,Bangladesh,Grinding,Sonargaon Plant,Bengal Cement Ltd,"Baiddyer Bazar, Sonargaon, Narayangonj",Operating,23.695611,90.64130300000001,GCD,Exact,,,,,,,,,0.686Mt/yr 2x65t/hr,,,,,0.6859999999999999,Mt/yr,,,
BGD,BGD0039,Bangladesh,Grinding,Brammangonj Plant,Mir Cement Ltd,"Brammangonj, Gonganagar Murapara, Rupgonj",Operating,23.770601,90.512821,GCD,Exact,,,,,,,,,"0.42Mt/yr 1x30, 1x50t/hr",,,,,0.42,Mt/yr,,,
BGD,BGD0040,Bangladesh,Grinding,Kaligonj Plant,Confidence Cement Ltd,"Kaligong, Gazipur, Dhaka",Operating,23.894575,90.588746,GCD,Exact,,,,,,,,,"1.32Mt/yr 1x250t/hr VRM, Loesche",,,,,1.32,Mt/yr,,,
BGD,BGD0041,Bangladesh,Grinding,Baghabari Ghat Plant,DeshBandhu Cement Mills Ltd,"Baghabari Ghat, Siragonj",Operating,24.127959,89.586911,GCD,Exact,,,,,,,,,0.19Mt/yr 2x18t/hr,,,,,0.19,Mt/yr,,,
BGD,BGD0042,Bangladesh,Grinding,Siragonj Plant,Aman Cement Mills Ltd,"Ullahpara, near railway sta- tion, Siragonj",Operating,24.290893,89.566546,GCD,Exact,,,,,,,,,0.179Mt/yr 2x17t/hr,,,,,0.179,Mt/yr,,,
BGD,BGD0044,Bangladesh,Grinding,Siddhirgonj Plant,Eastern Cement Industries Ltd,"Siddhirgonj, Narayangonj",Operating,23.743766,90.395023,GCD,Approximate,,,,,,,,,0.396Mt/yr 1x75t/hr,,,,,0.396,Mt/yr,,,
BGD,BGD0045,Bangladesh,Grinding,Dhaka Plant,Aman Cement Mills Ltd,"Baiddyer Bazar, Sonargaon, Narayanganj",Operating,23.870851000000002,90.403009,GCD,Approximate,,,,,,,,,2.64Mt/yr 2x250t/hr Loesche VRMs,,,,,2.64,Mt/yr,,,
BGD,BGD0046,Bangladesh,Grinding,Danga Plant,Bengal Tiger Cement Industries Ltd,"Danga, Palash Narshindi",Operating,23.906251,90.594138,GCD,Approximate,,,,,,,,,0.158Mt/yr 1x30t/hr,,,,,0.158,Mt/yr,,,
BRB,BRB0001,Barbados,Integrated,Barbados Plant,Arawak Cement (Trinidad Cement),St Lucy,Operating,13.287232999999999,-59.647826,GCD,Exact,,,,,,,,,1 Dry - 0.3Mt/yr,1.0,DRY,,,0.3,Mt/yr,Phillip Yeung,Tel: +246 439 9880,Fx: +246 439 7976
BLR,BLR0001,Belarus,Integrated,Belarussky Plant,Belarusian Cement,"Kostyukovichi, Mogilev",Operating,53.39241,32.012274,GCD,Exact,,,,,,,,,2 Dry - 0.7Mt/yr,2.0,DRY,,,0.7,Mt/yr,Lozhechnikov Igor Alexandrovich,Tel: +375 224 558 002,Fax: +375 224 558 003
BLR,BLR0002,Belarus,Integrated,Krasnoselskstroymaterialy Plant,Krasnoselskstroymaterialy,"Volkhovysskiy, Grodn",Operating,53.26169446862116,24.44736546862115,GCD,Exact,,,,,,,,,2 Wet - 1.0Mt/yr (Upgrading to 3 Dry - 1.8Mt/yr),2.0,WET,3.0,DRY,1.0,Mt/yr,Valentin Veretilo,Tel: +375 157 237 125,Fax: +375 151 227 751
BLR,BLR0003,Belarus,Integrated,Krichevcementnoshifer Plant,Krichevcementnoshifer,"Krichev, Mogilev",Operating,53.731542000000005,31.724040000000002,GCD,Exact,,,,,,,,,2 Wet - 0.6Mt/yr (Upgrading to 3 Dry - 1.8Mt/yr) (Only trades with Russia),2.0,WET,3.0,DRY,0.6,Mt/yr,Nikolay Dudyko,Tel: +375 224 158 496,Fax: +375 224 158 041
BEL,BEL0001,Belgium,Integrated,Antoing Plant,CBR Cement (HeidelbergCement),Antoing,Operating,50.576126,3.442482,GCD,Exact,4295859365.0,Cimenteries CBR SA,0.9,,https://www.cbr.be/nld/cbr-antoing,2020-02-08,4295868961.0,HeidelbergCement AG,1 Dry - 0.8Mt/yr,1.0,DRY,,,0.8,Mt/yr,Philippe Haegeman,Tel: +32 6944 6510,Fax: +32 6944 3722
BEL,BEL0003,Belgium,Integrated,Lixhe Plant,CBR Cement (HeidelbergCement),Lixhe,Operating,50.765227,5.673726,GCD,Exact,4295859365.0,Cimenteries CBR SA,1.5,1950.0,https://www.cbr.be/nld/cbr-lixhe,2020-02-08,4295868961.0,HeidelbergCement AG,1 Dry - 1.5Mt/yr,1.0,DRY,,,1.5,Mt/yr,Julien Wart,Tel: +32 4379 9315,Fax: +32 4379 9497
BEL,BEL0004,Belgium,Integrated,Gaurain Plant,Compagnie des Ciments Belges (Cementir Holding),Gaurain-Ramecroix,Operating,50.60065234,3.486634342,GCD,Exact,4296952311.0,Compagnie Des Ciments Belges SA,,,http://ccb-cementir.be/implantations/,2020-02-16,5071500150.0,Cementir Holding NV,2 Dry - 2.5Mt/yr,2.0,DRY,,,2.5,Mt/yr,Jacques Barret,Tel: +32 6925 2511,Fax: +32 6925 2590
BEL,BEL0005,Belgium,Integrated,Obourg Plant,Holcim Belgique (LafargeHolcim),Obourg,Operating,50.472411,3.9925660000000005,GCD,Exact,4298252898.0,Holcim Belgique Holcim Belgie SA,,,https://www.holcim.be/fr/nos-sites/cimenterie-d%27obourg/obourg/128,2020-02-09,4295890620.0,LafargeHolcim Ltd,2 Wet - 1.7Mt/yr,2.0,WET,,,1.7,Mt/yr,Ignacio Mirasol,Tel: +32 6535 8111,Fax: +32 6535 8405
BEL,BEL0007,Belgium,Grinding,CBR Ghent Plant I,SA Cimenterie CBR Cementbedrijven (Cementir),9042 Sint-Kruis-Winkel,Operating,51.152206,3.786993,GCD,Exact,4295859365.0,Cimenteries CBR SA,1.5,,https://www.cbr.be/nld/cbr-gent-I,2020-02-08,4295868961.0,HeidelbergCement AG,1.5Mt/yr,,,,,1.5,Mt/yr,Geert Smolenaers,Tel: +32 9345 0961,Fax: +32 9345 9012
BEL,BEL0008,Belgium,Grinding,,VVM nv (CRH),Port Of Antwerp,Operating,51.245591999999995,4.359026999999999,GCD,Exact,4298254584.0,VVM NV,,,https://www.vvmcem.be/en,2020-02-10,4295874867.0,CRH PLC,0.6Mt/yr,,,,,0.6,Mt/yr,,Tel: +32 540 0241,Fax: +32 540 0247
BEL,BEL0009,Belgium,Grinding,,VVM nv (CRH),Rieme (Port of Ghent),Operating,51.168149,3.787209,GCD,Exact,4298254584.0,VVM NV,,,https://www.vvmcem.be/en,2020-02-10,4295874867.0,CRH PLC,0.9Mt/yr,,,,,0.9,Mt/yr,,Tel: +32 9251 0550,Fax: +32 9251 5406
BEL,BEL0010,Belgium,Grinding,Ghent Plant I,Cemminerals NV,,Operating,51.163852,3.766917,GCD,Exact,5064637768.0,Cemminerals NV,1.0,,https://cemminerals.be/en/,2020-03-17,5064637768.0,Cemminerals NV,1.0Mt/yr,,,,,1.0,Mt/yr,,Tel: +32 9 355 70 39,
BEN,BEN0001,Benin,Integrated,Masse Plant,Cimenterie du Benin,,Operating,7.143572,2.545286,GCD,Exact,,,,,,,,,1.3Mt/yr,,,,,1.3,Mt/yr,,Tel: +229 2150 0042,
BEN,BEN0002,Benin,Grinding,Cotonou Plant,Cimbenin (HeidelbergCement),"Cotonou, Littoral Department",Operating,6.3716099999999996,2.504159,GCD,Exact,4297399454.0,CIMBENIN SA,,,https://www.heidelbergcement.com/en/sub-saharan-africa,2020-02-08,4295868961.0,HeidelbergCement AG,0.3Mt/yr - Fives FCB,,,,,0.3,Mt/yr,(Φ3mx11m),Tel: +229 21 330 732,Fax: +229 21 330 245
BEN,BEN0003,Benin,Integrated,Onigbolo Plant,Société des Ciments d’Onigbolo (50% LafargeHolcim),Cotonou,Operating,7.149135,2.6504779999999997,GCD,Exact,,Société des Ciments du Bénin,,,https://www.cimentbouclier.com/?lang=en,2020-02-09,4295890620.0,LafargeHolcim Ltd,1 Dry - 0.7Mt/yr,1.0,DRY,,,0.7,Mt/yr,Jean Marie Octave Roko,Tel: +229 2130 6181,Fax: +229 2130 6183
BEN,BEN0004,Benin,Grinding,Cotonou Plant,Ciment Bouclier (SCB),"Cotonou, Littoral Department",Operating,6.353237,2.4396299999999997,GCD,Exact,,,,,,,,,,,,,,,,"Zachari Okiri, manager",Tel: +229 21 31 37 03,Fax: +229 21 31 50 74
BTN,BTN0001,Bhutan,Integrated,Premagalshel Plant,Dungsam Cement,Premagalshel,Operating,26.872676000000002,91.232077,GCD,Exact,,,,,,,,,1.0Mt/yr,,,,,1.0,Mt/yr,,Tel: +975 748 1114,Fax: +975 748 1191
BTN,BTN0002,Bhutan,Integrated,Penden Plant,Penden Cement Authority,"Gomtu, Samtse",Operating,26.816891,89.188862,GCD,Exact,,,,,,,,,1 Dry - 0.5Mt/yr,1.0,DRY,,,0.5,Mt/yr,Kaylzang Tshering,Tel: +975 537 1013,Fax: +975 537 1015
BTN,BTN0003,Bhutan,,,,,Operating,26.821865000000003,89.18328199999999,OSM,Exact,,,,,,,,,,,,,,,,,,
BOL,BOL0001,"Bolivia, Plurinational State of",Integrated,Coboce Irpa Irpa Plant,"Cooperativa Boliviana de Cemento, Industrias y Servicios (COBOCE)","Coboce Irpa Irpa, Cochabamba",Operating,-17.724835000000002,-66.291682,GCD,Exact,,,,,,,,,1 Dry - 0.3Mt/yr,1.0,DRY,,,0.3,Mt/yr,Gaston Pol Paccieri,Tel: +591 4389 073,Fax: +591 4389 075
BOL,BOL0002,"Bolivia, Plurinational State of",Integrated,Oruro Plant,Empresa Minera Industrial,"Oruro, La Paz",Operating,-17.399962,-67.272688,GCD,Exact,,,,,,,,,2 Dry - 0.1Mt/yr,2.0,DRY,,,0.1,Mt/yr,Roberto Lara,Tel: +591 5279 666,
BOL,BOL0003,"Bolivia, Plurinational State of",Integrated,Cemento Fancesa Plant,Fabrica Nacional De Cemento (FANCESA),"Cal Orcko, Sucre",Operating,-19.00701018641989,-65.2387657664199,GCD,Exact,,,,,,,,,1 Dry - 1.0Mt/yr,1.0,DRY,,,1.0,Mt/yr,Wilmer Astete,Tel: + 591 4645 3882,Fax: +591 4644 1221
BOL,BOL0004,"Bolivia, Plurinational State of",Grinding,Quijarro Plant,Itacamba Cemento (Votorantim),"Santa Cru de la Sierra,",Operating,-19.014554999999998,-57.70235,GCD,Exact,4296042510.0,Gravetal Bolivia SA,,,https://www.gravetal.com.bo/,2020-08-07,4296042510.0,Gravetal Bolivia SA,,,,,,,,,Tel: +591 3 348 1007,
BOL,BOL0007,"Bolivia, Plurinational State of",Integrated,Viacha Plant,Sociedad Boliviana de Cemento (SOBOCE),"Viacha, La Paz Department",Operating,-16.64719411230086,-68.31693395230086,GCD,Exact,4296767075.0,Sociedad Boliviana de Cemento SA,2.0,,https://www.soboce.com/planta_viacha.asp,2020-02-13,4296767075.0,Sociedad Boliviana de Cemento SA,3 Dry - 0.9Mt/yr,3.0,DRY,,,0.9,Mt/yr,Cuan Carlos Riquea,Tel: +591 2280 0101,Fax: +591 2800 284
BOL,BOL0008,"Bolivia, Plurinational State of",Grinding,Warnes Plant,Sociedad Boliviana de Cemento (SOBOCE),Santa Cruz de la Sierra,Operating,-17.568654000000002,-63.150661,GCD,Exact,4296767075.0,Sociedad Boliviana de Cemento SA,0.20199999999999999,,https://www.soboce.com/planta_warnes.asp,2020-02-13,4296767075.0,Sociedad Boliviana de Cemento SA,0.2Mt/yr,,,,,0.2,Mt/yr,,Tel: +591 3923 2873,Fax: +591 3923 2872
BOL,BOL0009,"Bolivia, Plurinational State of",Integrated,El Puente Plant,Sociedad Boliviana de Cemento (SOBOCE),Tarija,Operating,-21.247315,-65.20765,GCD,Exact,4296767075.0,Sociedad Boliviana de Cemento SA,0.33799999999999997,,https://www.soboce.com/planta_elpuente.asp,2020-02-13,4296767075.0,Sociedad Boliviana de Cemento SA,1 Dry - 0.34Mt/yr,1.0,DRY,,,0.34,Mt/yr,Alberto Miranda,Tel: +591 4613 3695,Fax: +591 4613 3694
BOL,BOL0010,"Bolivia, Plurinational State of",Integrated,,Itacamba Cemento (Votorantim),"Yacuses, Germán Busch Province",Operating,-18.951114,-58.278028000000006,GCD,Exact,5036160403.0,Itacamba Cemento SA,0.95,,http://www.itacamba.com/empresa/planta-integral-yacuses/,2020-02-11,5000075361.0,Votorantim SA,0.9Mt/yr,,,,,0.9,Mt/yr,,Tel: +591 33 481 007,
BOL,BOL0011,"Bolivia, Plurinational State of",Grinding,Emisa Plant,Sociedad Boliviana de Cemento (SOBOCE),Oruro,Operating,-17.93615,-67.077067,GCD,Exact,4296767075.0,Sociedad Boliviana de Cemento SA,0.166,,https://www.soboce.com/planta_emisa.asp,2020-02-13,4296767075.0,Sociedad Boliviana de Cemento SA,0.2Mt/yr,,,,,0.2,Mt/yr,Gonzalo Argendonia,Tel: +591 4645 3882,Fax: +591 4644 1221
BOL,BOL0012,"Bolivia, Plurinational State of",Integrated,,Empresa Publica Productiva Cementos de Bolivia (ECEBOL),"Jeruyo, Caracollo, Ouro",Operating,-17.399995999999998,-67.273386,GCD,Exact,,,,,,,,,1.3Mt/yr JV inc. Polysius Commissioned August 2019,,,,,1.3,Mt/yr,,,
BIH,BIH0001,Bosnia and Herzegovina,Integrated,Lukavac Plant,Fabrika Cementa Lukavac (Asamer und Hufnagel-AT),Lukavac,Operating,44.526342,18.526956,GCD,Exact,,,,,,,,,1 Dry - 0.8Mt/yr,1.0,DRY,,,0.8,Mt/yr,Izet Imamovic,Tel: +387 3555 2101,Fax: +387 3555 2143
BIH,BIH0002,Bosnia and Herzegovina,Integrated,Kakanj Plant,Tvornica Cementa Kakanj (HeidelbergCement),Kakanj,Operating,44.116890999999995,18.113319,GCD,Exact,4297175240.0,Tvornica Cementa Kakanj dd Kakanj,,1978.0,https://www.kakanjcement.ba/bs/O_TCK,2020-02-08,4295868961.0,HeidelbergCement AG,1 Dry - 0.8Mt/yr,1.0,DRY,,,0.8,Mt/yr,Branimir Muidža,Tel: +387 3255 7552,Fax: +387 3255 7600
BWA,BWA0001,Botswana,Integrated,Matsiloje Plant,Matsiloje Portland Cement,"Matsiloje, North East",Operating,-21.306579,27.860374,GCD,Exact,,,,,,,,,1 - 0.04Mt/yr,,,,,0.04,Mt/yr,,Tel: + 267 2483 029,Fax: + 267 2419 997
BWA,BWA0002,Botswana,Grinding,Gaborone Plant,PPC Botswana,Gaborone,Operating,-24.690323,25.889149,GCD,Exact,5037061355.0,PPC Botswana Pty Ltd,,,https://www.ppc.africa/bw/contact-us/general,2020-08-07,4295888664.0,PPC Ltd,0.4Mt/yr,,,,,0.4,Mt/yr,,Tel: +267 390 1553,Fax: +267 390 5700
BRA,BRA0002,Brazil,Integrated,Sete Lagoas Plant,Cimento Nacional,"Zona Rural, Sete Lagoas, Minas Gerais",Operating,-19.513164,-44.276621999999996,GCD,Exact,5055455832.0,Companhia Nacional de Cimento CNC,,,http://www.cimentonacional.com.br/page/institucional?grupo,2020-08-07,5039800663.0,Brennand Cimentos,1.0Mt/yr,,,,,1.0,Mt/yr,,,
BRA,BRA0003,Brazil,Integrated,Balsa Nova Plant,CIA de Cimento Itambe,"Balsa Nova, Parana",Operating,-25.458028631675372,-49.61013063167536,GCD,Exact,4296343407.0,Cia De Cimento Itambé,2.8,,https://www.cimentoitambe.com.br/conheca-a-itambe/localizacao/,2020-08-07,4296343407.0,Cia De Cimento Itambé,2 Dry - 0.6Mt/yr,2.0,DRY,,,0.6,Mt/yr,Roberto de Oliveira,Tel: +55 41 3291 2000,Fax: +55 41 3291 2121
BRA,BRA0004,Brazil,Grinding,Sao Luis Slag Plant,CIMAR,"São Luis, Maranhão",Operating,-2.65682,-44.306799,GCD,Exact,5037936049.0,Cimar Cimentos do Maranhão SA,0.5,,http://www.cimentobravo.com.br/,2020-08-07,5037936049.0,Cimar Cimentos do Maranhão SA,Fives FCB (Φ4.2mx12.5m),,,,,,,,Tel: +55 98 2110 7063,
BRA,BRA0005,Brazil,Integrated,Cantagalo Plant,CRH,"Cantagalo, Rio de Janeiro",Operating,-21.978106,-42.287296000000005,GCD,Exact,5066610363.0,CRH Brasil Participacoes SA,,,https://crhbrasil.com.br/?lang=en,2020-02-10,4295874867.0,CRH PLC,1 Dry - 0.6Mt/yr,1.0,DRY,,,0.6,Mt/yr,Marcelo Miranda,Tel: +55 22 2555 0222,Fax: +55 22 2555 0248
BRA,BRA0006,Brazil,Integrated,Arcos Plant,CRH,"Arcos, Minas Gerais",Operating,-20.294322,-45.552264,GCD,Exact,5066610363.0,CRH Brasil Participacoes SA,,,https://crhbrasil.com.br/?lang=en,2020-02-10,4295874867.0,CRH PLC,1 Dry - 0.7Mt/yr,1.0,DRY,,,0.7,Mt/yr,,Tel: +55 37 3359 7566,Fax: +55 21 2220 0693
BRA,BRA0007,Brazil,Grinding,Santa Luzia Plant,CRH,"Bairro Bicas, Santa Luzia, Minas Gerais",Operating,-19.809336,-43.881205,GCD,Exact,5066610363.0,CRH Brasil Participacoes SA,,,https://crhbrasil.com.br/?lang=en,2020-02-10,4295874867.0,CRH PLC,1.0Mt/yr,,,,,1.0,Mt/yr,,Tel: +55 31 3649 1500,
BRA,BRA0008,Brazil,Integrated,Matozinhos Plant,CRH,"Matozinhos, Minas Gerais",Operating,-19.53878,-44.077607,GCD,Exact,5066610363.0,CRH Brasil Participacoes SA,,,https://crhbrasil.com.br/?lang=en,2020-02-10,4295874867.0,CRH PLC,1 Dry - 1.0Mt/yr,1.0,DRY,,,1.0,Mt/yr,Uedson Oliveira,Tel:+55 31 3712 2667,Fax:+55 21 2220 0693
BRA,BRA0009,Brazil,Integrated,,CSN Cimentos,"Arcos, Minas Gerais",Operating,-20.31263,-45.583988,GCD,Exact,5000353411.0,CSN Cimentos SA,,,http://www.csn.com.br/conteudo_eni.asp?idioma=1&conta=46&tipo=59654,2020-02-07,4297320527.0,Companhia Siderurgica Nacional,(Announced in 2016) 0.6Mt/yr,,,,,0.6,Mt/yr,,,
BRA,BRA0011,Brazil,Integrated,Volta Redonda Plant,CSN Cimentos,"Volta Redonda, Rio de Janeiro",Operating,-22.508931,-44.102261999999996,GCD,Exact,5000353411.0,CSN Cimentos SA,,,http://www.csn.com.br/conteudo_eni.asp?idioma=1&conta=46&tipo=59654,2020-02-07,4297320527.0,Companhia Siderurgica Nacional,2.4Mt/yr (Expansion to 5.4Mt/yr),,,,,2.4,Mt/yr,Vargas Premises,,
BRA,BRA0013,Brazil,Integrated,Dionisio Torres Plant,Cimento Apodi,"Dionisio Torres, Fortaleza, Ceará",Operating,-3.7480271000000003,-38.5064872,GCD,Approximate,,,,,,,,,0.6Mt/yr,,,,,0.6,Mt/yr,,Tel: +55 85 3311 7575,
BRA,BRA0015,Brazil,Integrated,,Cimento Rio Branco,Rio de Janeiro,Operating,-22.9110136999999,-43.2093727,GCD,Approximate,,,,,,,,,1 Semidry - 0.2Mt/yr,1.0,SEMIDRY,,,0.2,Mt/yr,Cid de Carvalho Cruz,Tel: +55 21 2481 2666,
BRA,BRA0016,Brazil,Grinding,Mogi das Cruzes Plant,Cimento Tupi,"Mogi das Cruzes, São Paulo",Operating,-23.431022,-46.258214,GCD,Exact,4296338783.0,Cimento Tupi SA,,,http://www.cimentotupi.com.br/cimentotupi/Portugues/detUnidades.php,2020-06-22,4296338783.0,Cimento Tupi SA,1.0Mt/yr (Est.),,,,,1.0,Mt/yr,,Tel: +55 11 2174 0200,
BRA,BRA0017,Brazil,Integrated,Pedra do Sino Plant,Cimento Tupi,"Pedra do Sino, Minas Gerais",Operating,-20.900703641906357,-43.818948641906346,GCD,Exact,4296338783.0,Cimento Tupi SA,,,http://www.cimentotupi.com.br/cimentotupi/Portugues/detUnidades.php,2020-06-22,4296338783.0,Cimento Tupi SA,1 Dry - 1.5Mt/yr,1.0,DRY,,,1.5,Mt/yr,Antonio Mauro Mendoza Barbosa,Tel: +55 32 3339 4600,Fax: +55 32 3339 4610
BRA,BRA0018,Brazil,Integrated,Volta Redonda Plant,Cimento Tupi,"Volta Redonda, Rio de Janeiro",Operating,-22.521632999999998,-44.130826,GCD,Exact,4296338783.0,Cimento Tupi SA,,,http://www.cimentotupi.com.br/cimentotupi/Portugues/detUnidades.php,2020-06-22,4296338783.0,Cimento Tupi SA,1Mt/yr (Est),,,,,1.0,Mt/yr,,+55 24 3348 1090,
BRA,BRA0019,Brazil,Integrated,Suape Plant,Cimentos La Union,"Suape, Ipojuca, Pernambuco",Operating,-8.36323385,-35.00893833,GCD,Approximate,,,,,,,,,0.5Mt/yr,,,,,0.5,Mt/yr,,,
BRA,BRA0020,Brazil,Integrated,Ciplan Plant,Ciplan,"Ciplan, Sobradinho, Bahia",Operating,-15.570003,-47.854243,GCD,Exact,4297793174.0,Ciplan Cimento Planalto SA,,,http://www.ciplan.com.br/pt-br/quem-somos,2020-08-07,4295868605.0,Vicat SA,2 Dry - 2.5Mt/yr,2.0,DRY,,,2.5,Mt/yr,Alexandre Chuerineto,Tel: +55 61 3487 9000,Fax: +55 61 3487 9090
BRA,BRA0021,Brazil,Integrated,Vespasiano Plant,Empresa de Cimentos,"Vespasiano, Minas Gerais",Operating,-19.682542,-43.925692,GCD,Exact,4296767226.0,Empresa de Cimentos Liz SA,,,http://www.cimentosliz.com.br/empresa/perfil,2020-08-07,4296767226.0,Empresa de Cimentos Liz SA,1 Dry - 1.3Mt/yr,1.0,DRY,,,1.3,Mt/yr,Thomas Mebelhart,Tel: +55 31 2138 2200,
BRA,BRA0022,Brazil,Integrated,Barroso Plant,Holcim Brasil (LafargeHolcim),"Barroso, Minas Gerais",Operating,-21.18078,-43.981103999999995,GCD,Exact,4295890620.0,LafargeHolcim Ltd,,,https://www.lafargeholcim.com.br/onde-operamos,2020-02-09,4295890620.0,LafargeHolcim Ltd,1 Dry - 1.2Mt/yr,1.0,DRY,,,1.2,Mt/yr,João Butkus,Tel: +55 32 3359 3200,Fax: +55 32 3359 3335
BRA,BRA0023,Brazil,Integrated,Pedro Leopoldo Plant,Holcim Brasil (LafargeHolcim),"Pedro Leopoldo, Minas Gerais",Operating,-19.607266,-44.058174,GCD,Exact,4295890620.0,LafargeHolcim Ltd,,,https://www.lafargeholcim.com.br/onde-operamos,2020-02-09,4295890620.0,LafargeHolcim Ltd,2 Dry - 1.9Mt/yr,2.0,DRY,,,1.9,Mt/yr,Claudio Butkus,Tel: +55 32 3660 9100,
BRA,BRA0024,Brazil,Grinding,Cimento Vitoria,Holcim Brazil (LafargeHolcim),"Carapina, Serra, Espirito Santo",Operating,-20.189254000000002,-40.249573,GCD,Exact,4295890620.0,LafargeHolcim Ltd,,,https://www.lafargeholcim.com.br/onde-operamos,2020-02-09,4295890620.0,LafargeHolcim Ltd,0.3Mt/yr - Polysius Closed Tube Mill,,,,,0.3,Mt/yr,Carlos Cesar Silva,Tel: +55 27 3398 3950,Fax: +55 27 3328 3712
BRA,BRA0025,Brazil,Grinding,Cimento Sorocaba,Holcim Brazil,"Sorocaba, São Paulo",Operating,-23.496389,-46.917941,GCD,Exact,4295890620.0,LafargeHolcim Ltd,,,https://www.lafargeholcim.com.br/onde-operamos,2020-02-09,4295890620.0,LafargeHolcim Ltd,0.2Mt/yr,,,,,0.2,Mt/yr,Jamie Saydel,Tel: +55 15 3313 9339,Fax: +55 15 3223 3359
BRA,BRA0026,Brazil,Integrated,Apiaí Plant,InterCement Brasil,"Apiaí, São Paulo",Operating,-24.518867,-48.856014,GCD,Exact,4296733575.0,InterCement Brasil SA,,,http://brasil.intercement.com/unidades,2020-02-10,5035421084.0,InterCement Participacoes SA,2 Dry - 2.0Mt/yr,2.0,DRY,,,2.0,Mt/yr,Marco Fereira,Tel: +55 15 3552 8111,
BRA,BRA0027,Brazil,Integrated,Bodoquena Plant,InterCement Brasil,"Bodoquena, Mato Grosso del Sul",Operating,-20.47366542710347,-56.72942042710346,GCD,Exact,4296733575.0,InterCement Brasil SA,,,http://brasil.intercement.com/unidades,2020-02-10,5035421084.0,InterCement Participacoes SA,1 Dry - 0.8Mt/yr,1.0,DRY,,,0.8,Mt/yr,Jose Barreto,Tel: +55 67 3268 1133,
BRA,BRA0028,Brazil,Grinding,Brumado Plant,InterCement Brasil,"Brumado, Bahia",Operating,-14.19780329556097,-41.59798029556097,GCD,Exact,4296733575.0,InterCement Brasil SA,,,http://brasil.intercement.com/unidades,2020-02-10,5035421084.0,InterCement Participacoes SA,,,,,,,,Giovani Carmello Pulici,Tel: +55 77 3441 8803,
BRA,BRA0029,Brazil,Integrated,Cajati Plant,InterCement Brasil,"Cajati, São Paulo",Operating,-24.708727,-48.117464,GCD,Exact,4296733575.0,InterCement Brasil SA,,,http://brasil.intercement.com/unidades,2020-02-10,5035421084.0,InterCement Participacoes SA,1 Dry - 1.3Mt/yr,1.0,DRY,,,1.3,Mt/yr,Helio Farenzena,Tel: +55 13 3855 8101,
BRA,BRA0030,Brazil,Integrated,Campo Formoso Plant,InterCement Brasil,"Campo Formoso, Bahia",Operating,-10.518039,-40.330504,GCD,Exact,4296733575.0,InterCement Brasil SA,,,http://brasil.intercement.com/unidades,2020-02-10,5035421084.0,InterCement Participacoes SA,2 Dry - 1.2Mt/yr,2.0,DRY,,,1.2,Mt/yr,Angelo Gomes,Tel: +55 74 3541 8000,Fax: +55 74 3645 1208
BRA,BRA0031,Brazil,Integrated,Cerrado Grande Plant,InterCement Brasil,"Ponta Grossa, Campos Gerais",Operating,-25.1371368,-49.879234000000004,GCD,Approximate,,,,,,,,,1.2Mt/yr - Project,,,,,1.2,Mt/yr,,,
BRA,BRA0032,Brazil,Integrated,,InterCement Brasil,"Cezarina, Goias",Operating,-17.01025534154963,-49.781312341549615,GCD,Exact,4296733575.0,InterCement Brasil SA,,,http://brasil.intercement.com/unidades,2020-02-10,5035421084.0,InterCement Participacoes SA,2 Dry - 1.2Mt/yr,2.0,DRY,,,1.2,Mt/yr,Dalmo Gritz,Tel: +55 64 3543 8066,Fax: +55 64 3543 1163
BRA,BRA0033,Brazil,Grinding,Cubatão Plant,InterCement Brasil,"Cubatão, São Paulo",Operating,-23.826511,-46.364944,GCD,Exact,4296733575.0,InterCement Brasil SA,,,http://brasil.intercement.com/unidades,2020-02-10,5035421084.0,InterCement Participacoes SA,0.9Mt/yr,,,,,0.9,Mt/yr,,Tel: +55 11 3795 6309,
BRA,BRA0034,Brazil,Integrated,Ijaci Plant,InterCement Brasil,"Ijaci, Minas Gerais",Operating,-21.194785,-44.938742,GCD,Exact,4296733575.0,InterCement Brasil SA,,,http://brasil.intercement.com/unidades,2020-02-10,5035421084.0,InterCement Participacoes SA,2.5Mt/yr,,,,,2.5,Mt/yr,Ricardo Congro,Tel: +55 35 3843 2000,
BRA,BRA0035,Brazil,Grinding,Jacarei Plant,InterCement Brasil,"Jacarei, São Paulo",Operating,-23.272361,-46.059585,GCD,Exact,4296733575.0,InterCement Brasil SA,,,http://brasil.intercement.com/unidades,2020-02-10,5035421084.0,InterCement Participacoes SA,0.3Mt/yr,,,,,0.3,Mt/yr,,,
BRA,BRA0036,Brazil,Integrated,Joao Pessoa Plant,InterCement Brasil,"Joao Pessoa, Paraiba",Operating,-7.128394,-34.894188,GCD,Exact,4296733575.0,InterCement Brasil SA,,,http://brasil.intercement.com/unidades,2020-02-10,5035421084.0,InterCement Participacoes SA,1 Dry - 1.0Mt/yr,1.0,DRY,,,1.0,Mt/yr,Eduardo Baumhardt,Tel: +55 83 2106 8058,Fax: +55 83 2106 8059
BRA,BRA0037,Brazil,Grinding,Nova Santa Rita Plant,InterCement Brasil,"Nova Santa Rita, Rio Grande do Sul",Operating,-29.925521000000003,-51.280111,GCD,Exact,4296733575.0,InterCement Brasil SA,,,http://brasil.intercement.com/unidades,2020-02-10,5035421084.0,InterCement Participacoes SA,,,,,,,,Mirian Fuzinatto,Tel: +55 53 3245 7410,
BRA,BRA0038,Brazil,Integrated,Pedro Leopoldo Plant,InterCement Brasil,"Pedro Leopoldo, Minas Gerais",Operating,-19.627181,-44.025928,GCD,Exact,4296733575.0,InterCement Brasil SA,,,http://brasil.intercement.com/unidades,2020-02-10,5035421084.0,InterCement Participacoes SA,Converted to terminal -2019,,,,,,,Mauricio Anacleto,Tel: +55 11 3718 4330,Fax: +55 11 3718 4291
BRA,BRA0040,Brazil,Integrated,Santana do Paraiso Plant,InterCement Brasil,"Santana do Paraiso, Minas Gerais",Operating,-19.475578417832942,-42.48121941783294,GCD,Exact,4296733575.0,InterCement Brasil SA,,,http://brasil.intercement.com/unidades,2020-02-10,5035421084.0,InterCement Participacoes SA,0.5Mt/yr,,,,,0.5,Mt/yr,Mauricio Anacleto,,
BRA,BRA0041,Brazil,Integrated,Sao Miguel do Campos Plant,InterCement Brasil,"Sao Miguel do Campos, Alagoas",Operating,-9.762307,-36.151178,GCD,Exact,4296733575.0,InterCement Brasil SA,,,http://brasil.intercement.com/unidades,2020-02-10,5035421084.0,InterCement Participacoes SA,2 Dry - 0.9Mt/yr,2.0,DRY,,,0.9,Mt/yr,Haroldo Pereira,Tel: +55 82 3271 9636,Fax: +55 82 3271 9606
BRA,BRA0042,Brazil,Integrated,Suape/Cabo de Sto Agostinho Plant,InterCement Brasil,"Suape, Ipojuca, Pernambuco",Operating,-12.960167,-38.475390999999995,GCD,Exact,4296733575.0,InterCement Brasil SA,,,http://brasil.intercement.com/unidades,2020-02-10,5035421084.0,InterCement Participacoes SA,0.3Mt/yr,,,,,0.3,Mt/yr,Nelson Terron,,
BRA,BRA0043,Brazil,Integrated,Cachoeiro Plant,Itabira Agro-Industrial (Cimento Nassau),"Cachoeiro de Itapemirim, Espirito Santo",Operating,-20.780254,-41.118409,GCD,Exact,5001211140.0,Itabira Agro Industrial SA,,,https://pt.wikipedia.org/wiki/Cimento_Nassau,2020-08-07,,Cimento Nassau,3 Dry - 0.9Mt/yr,3.0,DRY,,,0.9,Mt/yr,Mr Santos,Tel: +55 28 3511 2286,
BRA,BRA0044,Brazil,Integrated,Ituacu Plant,Itaguarana Agro- Industrial (Cimento Nassau),"Ituacu, Bahia",Operating,-13.895437,-41.281471999999994,GCD,Exact,4296309907.0,Itaguarana Agro Industrial SA,,,https://pt.wikipedia.org/wiki/Cimento_Nassau,2020-08-07,,Cimento Nassau,1 Kiln - 1.0Mt/yr,,,,,1.0,Mt/yr,Douglas Carneiro Botelho,Tel: +55 7734 152 063,Fax: +55 7734 152 060
BRA,BRA0045,Brazil,Integrated,Nossa Senhora do Socorro Plant,Itaguassu Agro-Industrial (Cimento Nassau),"Nossa Senhora do Socorro, Sergipe",Operating,-10.845763,-37.156458,GCD,Exact,4296367505.0,Itaguassu Agro Industrial SA,,,https://pt.wikipedia.org/wiki/Cimento_Nassau,2020-08-07,,Cimento Nassau,1 Dry - 0.7Mt/yr,1.0,DRY,,,0.7,Mt/yr,Douglas Carneiro Botelho,Tel: +55 79 3279 1347,
BRA,BRA0046,Brazil,Integrated,,Itaituba Industria de Cimentos do Para (Cimento Nassau),"IItaituba, Para",Operating,-4.3217620000000005,-56.21996800000001,GCD,Exact,5044522860.0,Itaituba Industria de Cimentos do Para SA,,,https://pt.wikipedia.org/wiki/Cimento_Nassau,2020-08-07,,Cimento Nassau,0.4Mt/yr,,,,,0.4,Mt/yr,Carlos Fernando Pereira dos Santos,Tel: +55 93 3518 2789,Fax: +55 93 3518 2407
BRA,BRA0047,Brazil,Integrated,Goiana Plant,Itapessoca Agro- Industrial (Cimento Nassau),"Goiana, Goias, Pernambuco",Operating,-7.631111,-34.863279,GCD,Exact,4296398916.0,Itapessoca Agro Industrial SA,,,https://pt.wikipedia.org/wiki/Cimento_Nassau,2020-08-07,,Cimento Nassau,3 Dry - 0.8Mt/yr,3.0,DRY,,,0.8,Mt/yr,Douglas Carneiro Botelho,Tel: +55 81 3543 1066,
BRA,BRA0048,Brazil,Integrated,Mossoro Plant,Itapetinga Agro- Industrial (Cimento Nassau),"Itapetinga, Rio Grande do Norte",Operating,-5.203661,-37.393063,GCD,Exact,4296398917.0,Itapetinga Agro Industrial SA,,,https://pt.wikipedia.org/wiki/Cimento_Nassau,2020-08-07,,Cimento Nassau,2 Dry - 0.3Mt/yr,2.0,DRY,,,0.3,Mt/yr,Mr Santos,Tel: +55 84 3321 1124,Fax: +55 84 317 4302
BRA,BRA0049,Brazil,Integrated,Codo Plant,Itapicuru Agro-Industrial (Cimento Nassau),"Codo, Maranhao",Operating,-4.5255615739208634,-44.04092157392087,GCD,Exact,,Itapicuru Agro Industrial SA,,,https://pt.wikipedia.org/wiki/Cimento_Nassau,2020-08-07,,Cimento Nassau,1 Dry - 0.2Mt/yr,1.0,DRY,,,0.2,Mt/yr,Mr Santos,Tel: +55 99 3661 1271,Fax: +55 98 661 1271
BRA,BRA0050,Brazil,Integrated,Fronteiras Plant,Itapissuma (Cimento Nassau),"Fronteiras, Piaui",Operating,-6.953261,-40.52013,GCD,Exact,5044527450.0,Itapissuma SA,,,https://pt.wikipedia.org/wiki/Cimento_Nassau,2020-08-07,,Cimento Nassau,0.9Mt/yr,,,,,0.9,Mt/yr,Carlos Fernando Pereira dos Santos,Tel: +55 88 2101 3800,Fax: +55 88 2101 3809
BRA,BRA0051,Brazil,Integrated,Barbalha Plant,Itapui Barbalhense Industria de Cimentos (Cimento Nassau),"Barbalha, Ceara",Operating,-7.333684,-39.305561,GCD,Exact,,Itapui Barbalhense Industria de Cimentos SA,,,https://pt.wikipedia.org/wiki/Cimento_Nassau,2020-08-07,,Cimento Nassau,1.0Mt/yr,,,,,1.0,Mt/yr,,Tel: +55 88 3532 1631,
BRA,BRA0052,Brazil,Integrated,Alexio Plant,Itautinga Agro-Industrial (Cimento Nassau),"Alexio, Manaus, Amazonas",Operating,-3.090327,-59.915041,GCD,Exact,4296398919.0,Itautinga Agro Industrial SA,,,https://pt.wikipedia.org/wiki/Cimento_Nassau,2020-08-07,,Cimento Nassau,0.8Mt/yr,,,,,0.8,Mt/yr,Carlos Fernando Pereira dos Santos,Tel: +55 92 3644 4155,Fax: +55 92 3617 5590
BRA,BRA0053,Brazil,Integrated,,Lafarge Brasil (LafargeHolcim),"7152 Via de Torres, Candeias, Bahia",Operating,-12.720233,-38.481778000000006,GCD,Exact,4295890620.0,LafargeHolcim Ltd,,,https://www.lafargeholcim.com.br/onde-operamos,2020-02-09,4295890620.0,LafargeHolcim Ltd,1.0Mt/yr,,,,,1.0,Mt/yr,,Tel: +55 71 3602 8600,
BRA,BRA0054,Brazil,Integrated,Cantagalo Plant,Lafarge Brasil (LafargeHolcim),"Cantagalo, Rio de Janeiro",Operating,-21.941689,-42.271287,GCD,Exact,4295890620.0,LafargeHolcim Ltd,,,https://www.lafargeholcim.com.br/onde-operamos,2020-02-09,4295890620.0,LafargeHolcim Ltd,1 Dry - 1.0Mt/yr,1.0,DRY,,,1.0,Mt/yr,Marcelo Miranda,Tel: +55 22 2555 0438,Fax: +55 21 2220 0693
BRA,BRA0055,Brazil,Integrated,,Lafarge Brasil (LafargeHolcim),"Cocalzinho, Goiás",Operating,-15.789679000000001,-48.770272,GCD,Exact,4295890620.0,LafargeHolcim Ltd,,,https://www.lafargeholcim.com.br/onde-operamos,2020-02-09,4295890620.0,LafargeHolcim Ltd,1 Dry - 0.4Mt/yr,1.0,DRY,,,0.4,Mt/yr,George Fernandes,Tel: +55 62 3339 1155,Fax: +55 62 3339 0931
BRA,BRA0057,Brazil,Integrated,Itapeva Plant,Lafarge Brasil (LafargeHolcim),"Itapeva, São Paulo",Operating,-23.988498999999997,-48.917417,GCD,Exact,4295890620.0,LafargeHolcim Ltd,,,https://www.lafargeholcim.com.br/onde-operamos,2020-02-09,4295890620.0,LafargeHolcim Ltd,3 Wet - 0.3Mt/yr,3.0,WET,,,0.3,Mt/yr,Guilherme Moura,Tel:+55 15 3526 8900,Fax:+55 15 3526 8906
BRA,BRA0058,Brazil,Integrated,Montes Claros Plant,Lafarge Brasil (LafargeHolcim),"Montes Claros, Minas Gerais",Operating,-16.680168,-43.883034,GCD,Exact,4295890620.0,LafargeHolcim Ltd,,,https://www.lafargeholcim.com.br/onde-operamos,2020-02-09,4295890620.0,LafargeHolcim Ltd,1 Dry - 1.0Mt/yr,1.0,DRY,,,1.0,Mt/yr,Eduardo Barroso Ferreira,Tel: +55 38 3229 2665,
BRA,BRA0059,Brazil,Integrated,Rio Plant,Lafarge Brasil (LafargeHolcim),"Santa Cruz, Rio de Janeiro",Operating,-22.889141,-43.655675,GCD,Exact,4295890620.0,LafargeHolcim Ltd,,,https://www.lafargeholcim.com.br/onde-operamos,2020-02-09,4295890620.0,LafargeHolcim Ltd,0.8Mt/yr,,,,,0.8,Mt/yr,Eduardo Barroso Ferreira,Tel: +55 38 3229 2665,Fax: +55 38 3229 2666
BRA,BRA0060,Brazil,Integrated,Caaporã Plant,Lafarge Brasil (LafargeHolcim),"Zona Rural, Paraíba",Operating,-7.528872,-34.864317,GCD,Exact,4295890620.0,LafargeHolcim Ltd,,,https://www.lafargeholcim.com.br/onde-operamos,2020-02-09,4295890620.0,LafargeHolcim Ltd,1 Dry - 1.7Mt/yr,1.0,DRY,,,1.7,Mt/yr,Oswaldo Andres Pereda Toro,Tel: +55 83 3215 3322,Fax: +55 83 3215 3301
BRA,BRA0061,Brazil,Integrated,,Mizu Cimentos Especiais (51% Votorantim),"Barauna, Rio Grande do Norte",Operating,-5.07299403096443,-37.71613403096443,GCD,Exact,4298068783.0,Mizu SA,,2012.0,http://mizu.com.br/Factory,2020-02-11,5000075361.0,Votorantim SA,1.1Mt/yr (Planned),,,,,1.1,Mt/yr,,Tel: +55 84 4003 9826,
BRA,BRA0062,Brazil,Integrated,,Mizu Cimentos Especiais (51% Votorantim),"Mogi das Cruzes, São Paulo",Operating,-23.442724,-46.242309000000006,GCD,Exact,4298068783.0,Mizu SA,,2005.0,http://mizu.com.br/Factory?post=395,2020-02-11,5000075361.0,Votorantim SA,0.5Mt/yr,,,,,0.5,Mt/yr,,Tel: +55 4791 5900,
BRA,BRA0063,Brazil,Integrated,,Mizu Cimentos Especiais (51% Votorantim),"Pacatuba, Sergipe",Operating,-10.415826,-36.698658,GCD,Exact,4298068783.0,Mizu SA,,2004.0,http://mizu.com.br/Factory?post=407,2020-02-11,5000075361.0,Votorantim SA,0.4Mt/yr,,,,,0.4,Mt/yr,,Tel: +55 79 3343 1200,
BRA,BRA0064,Brazil,Integrated,,Mizu Cimentos Especiais (51% Votorantim),Rio de Janeiro,Operating,-22.859648,-43.573563,GCD,Exact,4298068783.0,Mizu SA,,2010.0,http://mizu.com.br/Factory?post=394,2020-02-11,5000075361.0,Votorantim SA,0.9Mt/yr,,,,,0.9,Mt/yr,,Tel: +55 21 3031 8316,
BRA,BRA0065,Brazil,Integrated,,Mizu Cimentos Especiais (51% Votorantim),"Vitoria, Espirito Santo",Operating,-20.261801000000002,-40.234002000000004,GCD,Exact,4298068783.0,Mizu SA,,,http://mizu.com.br/Factory?post=393,2020-02-11,5000075361.0,Votorantim SA,0.9Mt/yr,,,,,0.9,Mt/yr,,Tel: +55 27 3348 6600,
BRA,BRA0066,Brazil,Integrated,,Ricardo Brennand,"Pitimbu, Paraiba",Operating,-7.477499000000001,-34.844648,GCD,Exact,5039800663.0,Brennand Cimentos,,,http://www.cimentonacional.com.br/page/institucional?grupo,2020-08-07,5039800663.0,Brennand Cimentos,1.5Mt/yr,,,,,1.5,Mt/yr,,Tel: +55 83 3565 4000,
BRA,BRA0068,Brazil,Integrated,,Supremo Cementos (50% SECIL),"Adrianopolis, Paraná",Operating,-24.669459,-48.979959,GCD,Exact,5036893294.0,Supremo Cimentos SA,1.8,2015.0,http://www.secil-group.com/a-secil/a-secil-no-mundo/?lang=en#secil_no_mundo_tunisia_en,2020-03-20,4295886745.0,Secil Companhia Geral de Cal e Cimento SA,1.7Mt/yr,,,,,1.7,Mt/yr,,Tel: +55 41 3678 1192,
BRA,BRA0069,Brazil,Integrated,,Supremo Cementos (50% SECIL),"Testo Central, Pomerode, Santa Caterina",Operating,-26.81866978342405,-49.156975533424045,GCD,Exact,5036893294.0,Supremo Cimentos SA,0.4,,http://www.secil-group.com/a-secil/a-secil-no-mundo/?lang=en#secil_no_mundo_tunisia_en,2020-03-20,4295886745.0,Secil Companhia Geral de Cal e Cimento SA,1 Dry - 0.3Mt/yr,1.0,DRY,,,0.3,Mt/yr,Flávio Ladeira Amâncio,Tel: +55 47 3242 2128,Fax: + 55 47 3242 2133
BRA,BRA0071,Brazil,Integrated,Cuiaba Plant,Votorantim Cimentos,"Aguaçu, Mato Grosso",Operating,-15.33337911953662,-56.13776811953662,GCD,Exact,4296874764.0,Votorantim Cimentos SA,,,https://www.votorantimcimentos.com.br/institucional/unidades/,2020-02-11,5000075361.0,Votorantim SA,1.2Mt/yr,,,,,1.2,Mt/yr,,Tel: +55 65 3637 6766,
BRA,BRA0072,Brazil,Grinding,Barcarena Plant,Votorantim Cimentos,"Barcarena, Pará",Operating,-1.586075,-48.785924,GCD,Exact,,,,,,,,,0.5Mt/yr,,,,,0.5,Mt/yr,,Tel: +55 91 3733 9102,
BRA,BRA0073,Brazil,Integrated,Cantagalo Plant,Votorantim Cimentos,"Cantagalo, Rio de Janeiro",Operating,-21.912475,-42.262257,GCD,Exact,4296874764.0,Votorantim Cimentos SA,,,https://www.votorantimcimentos.com.br/institucional/unidades/,2020-02-11,5000075361.0,Votorantim SA,1 Dry - 1.1Mt/yr,1.0,DRY,,,1.1,Mt/yr,,Tel: +55 22 2101 3825,
BRA,BRA0074,Brazil,Integrated,Corumbá Plant,Votorantim Cimentos,"Corumbá, Mato Grosso do Sul",Operating,-19.00333,-57.62406,GCD,Exact,4296874764.0,Votorantim Cimentos SA,,,https://www.votorantimcimentos.com.br/institucional/unidades/,2020-02-11,5000075361.0,Votorantim SA,1 Dry - 0.2Mt/yr,1.0,DRY,,,0.2,Mt/yr,Orlando Silva,Tel: +55 67 234 2210,
BRA,BRA0075,Brazil,Grinding,Cubatão Plant,Votorantim Cimentos,"Cubatão, São Paulo",Operating,-23.848375,-46.391784,GCD,Exact,4296874764.0,Votorantim Cimentos SA,,,https://www.votorantimcimentos.com.br/unidade/unidade-cubatao/,2020-02-11,5000075361.0,Votorantim SA,0.7Mt/yr,,,,,0.7,Mt/yr,,Tel: +55 13 4009 6305,
BRA,BRA0076,Brazil,Integrated,Edealina Plant,Votorantim Cimentos,"Edealina, Goiás",Operating,-17.258058,-49.786396,GCD,Exact,4296874764.0,Votorantim Cimentos SA,,,https://www.votorantimcimentos.com.br/institucional/unidades/,2020-02-11,5000075361.0,Votorantim SA,2.0Mt/yr,,,,,2.0,Mt/yr,,Tel: +55 64 3430 8020,Fax: +55 64 3430 8001
BRA,BRA0077,Brazil,Grinding,Imbituba Plant,Votorantim Cimentos,"Imbituba, Santa Catarina",Operating,-28.211547999999997,-48.683797999999996,GCD,Exact,4296874764.0,Votorantim Cimentos SA,,,https://www.votorantimcimentos.com.br/institucional/unidades/,2020-02-11,5000075361.0,Votorantim SA,1.1Mt/yr,,,,,1.1,Mt/yr,,Tel: +55 48 3356 5011,
BRA,BRA0078,Brazil,Grinding,,Votorantim Cimentos,"Itajaí, Santa Catarina",Operating,-26.879224,-48.714877,GCD,Exact,4296874764.0,Votorantim Cimentos SA,,,https://www.votorantimcimentos.com.br/institucional/unidades/,2020-02-11,5000075361.0,Votorantim SA,0.5Mt/yr,,,,,0.5,Mt/yr,,Tel: +55 47 3341 4300,
BRA,BRA0079,Brazil,Integrated,Itaú de Minas Plant,Votorantim Cimentos,"Itaú de Minas, Minas Gerais",Operating,-20.764215,-46.769658,GCD,Exact,4296874764.0,Votorantim Cimentos SA,,,https://www.votorantimcimentos.com.br/institucional/unidades/,2020-02-11,5000075361.0,Votorantim SA,3 Dry - 2.3Mt/yr,3.0,DRY,,,2.3,Mt/yr,Danilo Valadares Pinto,Tel: +55 35 3536 9200,
BRA,BRA0080,Brazil,Integrated,Laranjeiras Plant,Votorantim Cimentos,"Laranjeiras, Sergipe",Operating,-10.824680375394108,-37.16500037539411,GCD,Exact,4296874764.0,Votorantim Cimentos SA,,,https://www.votorantimcimentos.com.br/institucional/unidades/,2020-02-11,5000075361.0,Votorantim SA,3 Dry - 2.9Mt/yr,3.0,DRY,,,2.9,Mt/yr,Luciano Tertius Castro Morais,Tel: +55 79 2101 4231,Fax: +55 79 2811 060
BRA,BRA0081,Brazil,Integrated,Nobres Plant,Votorantim Cimentos,"Nobres, Mato Grosso",Operating,-14.64415598610918,-56.26528498610918,GCD,Exact,4296874764.0,Votorantim Cimentos SA,,,https://www.votorantimcimentos.com.br/institucional/unidades/,2020-02-11,5000075361.0,Votorantim SA,1 Dry - 0.9Mt/yr,1.0,DRY,,,0.9,Mt/yr,Murrib Moussa,Tel: +55 65 3376 4417,Fax +55 65 7761 017
BRA,BRA0083,Brazil,Grinding,Caucaia Plant,Votorantim Cimentos,"Pecém, Ceará",Operating,-3.6531830000000003,-38.854175,GCD,Exact,4296874764.0,Votorantim Cimentos SA,,,https://www.votorantimcimentos.com.br/noticia/vamos-investir-r-200-milhoes-na-ampliacao-da-nossa-fabrica-em-pecem-no-ceara/,2020-02-11,5000075361.0,Votorantim SA,0.2Mt/yr (New 0.5Mt/yr mill due in 2017),,,,,0.2,Mt/yr,,Tel: +55 85 3372 2608,
BRA,BRA0084,Brazil,Integrated,Pedro Leopoldo Plant,Votorantim Cimentos,"Pedro Leopoldo, Minas Gerais",Operating,-19.618484,-44.041348,GCD,Approximate,,,,,,,,,2 Kilns - 2.6Mt/yr,,,,,2.6,Mt/yr,Mauricio Anacleto,Tel: +55 11 3718 4330,Fax: +55 11 3718 4291
BRA,BRA0085,Brazil,Integrated,Pinheiro Machado Plant,Votorantim Cimentos,"Pinheiro Machado, Rio Grande do Sul",Operating,-31.513208000000002,-53.559279000000004,GCD,Exact,4296874764.0,Votorantim Cimentos SA,,,https://www.votorantimcimentos.com.br/unidade/pinheiro-machado-rs/,2020-02-11,5000075361.0,Votorantim SA,2 Dry - 0.6Mt/yr,2.0,DRY,,,0.6,Mt/yr,Eventon Luiz Pimenta Meira,Tel: +55 53 3248 2903,Fax: +55 53 242 8093
BRA,BRA0086,Brazil,Grinding,,Votorantim Cimentos,"Porto Velho, Rondônia",Operating,-8.796953,-63.768628,GCD,Exact,4296874764.0,Votorantim Cimentos SA,,,https://www.votorantimcimentos.com.br/institucional/unidades/,2020-02-11,5000075361.0,Votorantim SA,0.8Mt/yr,,,,,0.8,Mt/yr,,Tel: +55 69 3733 5800,Fax: +55 61 5912 735
BRA,BRA0087,Brazil,Grinding,Poty Plant,Votorantim Cimentos,"Poty, Paulista, Pernambuco",Operating,-7.87415,-34.851997999999995,GCD,Exact,4296874764.0,Votorantim Cimentos SA,,,https://www.votorantimcimentos.com.br/institucional/unidades/,2020-02-11,5000075361.0,Votorantim SA,0.75Mt/yr,,,,,0.75,Mt/yr,,Tel: +55 85 33117575,
BRA,BRA0088,Brazil,Integrated,Primavera Plant,Votorantim Cimentos,"Primavera, Pará",Operating,-0.9811479999999999,-47.116844,GCD,Exact,4296874764.0,Votorantim Cimentos SA,,,https://www.votorantimcimentos.com.br/institucional/unidades/,2020-02-11,5000075361.0,Votorantim SA,1.2Mt/yr (Had been due in 2016),,,,,1.2,Mt/yr,,,
BRA,BRA0090,Brazil,Integrated,,Votorantim Cimentos,"Rio Branco do Sul, Paraná",Operating,-25.192401,-49.325757,GCD,Exact,4296874764.0,Votorantim Cimentos SA,,,https://www.votorantimcimentos.com.br/institucional/unidades/,2020-02-11,5000075361.0,Votorantim SA,4.3Mt/yr,,,,,4.3,Mt/yr,,Tel: +55 41 3355 1981,
BRA,BRA0091,Brazil,Integrated,Salto de Pirapora Plant,Votorantim Cimentos,"Salto de Pirapora, São Paulo",Operating,-23.629579,-47.499136,GCD,Exact,4296874764.0,Votorantim Cimentos SA,,,https://www.votorantimcimentos.com.br/institucional/unidades/,2020-02-11,5000075361.0,Votorantim SA,4.8Mt/yr,,,,,4.8,Mt/yr,,Tel: +55 15 2102 2190,
BRA,BRA0092,Brazil,Grinding,,Votorantim Cimentos,"Sao Luis, Maranhão",Operating,-2.6367279999999997,-44.310087,GCD,Exact,4296874764.0,Votorantim Cimentos SA,,,https://www.votorantimcimentos.com.br/institucional/unidades/,2020-02-11,5000075361.0,Votorantim SA,0.8Mt/yr,,,,,0.8,Mt/yr,,Tel: +55 98 3211 9600,
BRA,BRA0093,Brazil,Grinding,,Votorantim Cimentos,"Sepetiba, Rio de Janeiro",Operating,-22.915294,-43.735999,GCD,Exact,4296874764.0,Votorantim Cimentos SA,,,https://www.votorantimcimentos.com.br/unidade/unidade-santa-cruz-sepetiba/,2020-02-11,5000075361.0,Votorantim SA,1.5Mt/yr,,,,,1.5,Mt/yr,,Tel: +55 21 3216 7338,Fax: +55 21 3216 7341
BRA,BRA0094,Brazil,Integrated,,Votorantim Cimentos,"Sobradinho, Bahia",Operating,-15.58638695925235,-47.874041959252345,GCD,Exact,4296874764.0,Votorantim Cimentos SA,,,https://www.votorantimcimentos.com.br/institucional/unidades/,2020-02-11,5000075361.0,Votorantim SA,3 Dry - 2.2Mt/yr,3.0,DRY,,,2.2,Mt/yr,Romulu Fabri Miranda,Tel: +55 61 2195 9500,Fax: +55 61 491 2735
BRA,BRA0095,Brazil,Integrated,Sobral Plant I,Votorantim Cimentos,"Sobral, Ceara",Operating,-3.686432,-40.373895000000005,GCD,Exact,4296874764.0,Votorantim Cimentos SA,,,https://www.votorantimcimentos.com.br/institucional/unidades/,2020-02-11,5000075361.0,Votorantim SA,3 Dry - 2.2Mt/yr,3.0,DRY,,,2.2,Mt/yr,Dario Filho de Poveira Pinheiro,Tel: +55 88 9922 1733,Fax: +55 88 613 1313
BRA,BRA0097,Brazil,Integrated,Santa Helena Plant,Votorantim Cimentos,São Paulo,Operating,-23.593912,-47.436719000000004,GCD,Exact,4296874764.0,Votorantim Cimentos SA,,,https://www.votorantimcimentos.com.br/institucional/unidades/,2020-02-11,5000075361.0,Votorantim SA,3.2Mt/yr,,,,,3.2,Mt/yr,Carlos Magalhães,Tel: +55 15 2102 2210,
BRA,BRA0098,Brazil,Integrated,Vidal Ramos Plant,Votorantim Cimentos,"Treze de Maio, Santa Catarina",Operating,-27.359219,-49.342572,GCD,Exact,4296874764.0,Votorantim Cimentos SA,,,https://www.votorantimcimentos.com.br/institucional/unidades/,2020-02-11,5000075361.0,Votorantim SA,1 Dry - 1.5Mt/yr,1.0,DRY,,,1.5,Mt/yr,,Tel: +55 47 3356 2106,
BRA,BRA0099,Brazil,Integrated,Volta Redonda Plant,Votorantim Cimentos,"Volta Redonda, Rio de Janeiro",Operating,-22.488653,-44.048268,GCD,Exact,4296874764.0,Votorantim Cimentos SA,,,https://www.votorantimcimentos.com.br/unidade/unidade-volta-redonda/,2020-02-11,5000075361.0,Votorantim SA,0.4Mt/yr,,,,,0.4,Mt/yr,,Tel: +55 24 4009 8471,
BRA,BRA0100,Brazil,Integrated,Xambioá Plant,Votorantim Cimentos,"Xambioá, Tocantins",Operating,-6.4330620000000005,-48.428327,GCD,Exact,4296874764.0,Votorantim Cimentos SA,,,https://www.votorantimcimentos.com.br/institucional/unidades/,2020-02-11,5000075361.0,Votorantim SA,0.9Mt/yr,,,,,0.9,Mt/yr,,Tel: +55 63 3473 6480,
BRA,BRA0101,Brazil,,,,,Operating,-1.2154530000000001,-47.188471,,Exact,4296396052.0,Cibrasa Cimentos Do Brasil,,,https://pt.wikipedia.org/wiki/Cimento_Nassau,2020-08-07,,Cimento Nassau,,,,,,,,,,
BRA,BRA0102,Brazil,,,,,Operating,-6.276566000000001,-36.532955,https://www.cimentoelo.com.br/,Exact,,Cimento ELO,,,https://www.cimentoelo.com.br/,2020-08-07,,Cimento ELO,,,,,,,,,,
BRA,BRA0103,Brazil,Integrated,Quixeré Plant,Cimento Apodi (JV owned and controlled on a 50/50 basis by Dias Branco Group and a Titan/Sarkis vehicle 94% owned by Titan).,"Quixeré, Ceará",Operating,-5.0420110000000005,-37.773819,GCD,Exact,5051762894.0,Companhia Industrial de Cimento Apodi,,,http://www.cimentoapodi.com.br/,2020-05-20,5051762894.0,Companhia Industrial de Cimento Apodi,1 Dry - 1.5Mt/yr,1.0,DRY,,,1.5,Mt/yr,,Tel: +55 98 96586-5865,
BRA,BRA0104,Brazil,Grinding,Pecém Plant,Cemento Apodi,"São José do Mixira, Caucaia, Ceará",Operating,-3.6672239999999996,-38.854112,GCD,Exact,5051762894.0,Companhia Industrial de Cimento Apodi,,,http://www.cimentoapodi.com.br/,2020-05-20,5051762894.0,Companhia Industrial de Cimento Apodi,0.54Mt/yr,,,,,0.54,Mt/yr,Carlos Cunha,Tel: +55 81 3435 1078,
BRA,BRA0105,Brazil,Integrated,InterCement Brasil Candiota Plant,InterCement Brasil,"Candiota, State of Rio Grande do Sul",Operating,-31.585375,-53.67145,GCD,Exact,4296733575.0,InterCement Brasil SA,,,http://brasil.intercement.com/unidades,2020-02-10,5035421084.0,InterCement Participacoes SA,1 Dry - 1Mt/yr (est) Polysius,1.0,DRY,,,1.0,Mt/yr,,Tel: +55 800 703 9003,
BRA,BRA0106,Brazil,,,,,Operating,-19.582194,-44.054817,http://mizu.com.br/Factory?post=412,Exact,4298068783.0,Mizu SA,,1997.0,http://mizu.com.br/Factory?post=412,2020-02-11,5000075361.0,Votorantim SA,,,,,,,,,,
BRA,BRA0107,Brazil,,,,,Operating,-3.148527,-59.97014,http://mizu.com.br/Factory?post=390,Exact,4298068783.0,Mizu SA,,2014.0,http://mizu.com.br/Factory?post=390,2020-02-11,5000075361.0,Votorantim SA,,,,,,,,,,
BRA,BRA0108,Brazil,Grinding,,Provale,"Cachoeiro de Itapemirim, Esprito Santo",Operating,-20.729127,-41.1287,GCD,Exact,,PROcim,0.19,,http://www.grupoprovale.com/en/about-us,2020-03-20,5038033096.0,Provale Holding SA,"190,000t/yr white & oil well cement (Announced in 2014)",,,,,,,,,
BRN,BRN0001,Brunei Darussalam,Grinding,Butra HeidelbergCement Plant,Butra HeidelbergCement,"Serasa Industrial Area, Muara",Operating,5.012333,115.06483600000001,GCD,Exact,4296791822.0,BUTRA HEIDELBERGCEMENT SDN BHD,0.5,1996.0,http://www.bruneicement.com/about-us/history.htm,2020-02-08,4295868961.0,HeidelbergCement AG,0.55Mt/yr,,,,,0.55,Mt/yr,Dennis Javier,Tel: +673 277 1395 ( / 8),Fax: +673 277 1404
BGR,BGR0001,Bulgaria,Integrated,Beli Izvor Plant,Holcim Bulgaria (LafargeHolcim),Beli Izvor,Operating,43.281929,23.466673999999998,GCD,Exact,5001083560.0,Holcim Bulgaria AD Vratsa,,,https://www.holcim.bg/bg/za-nas/profil-na-kompanijata/kholsim-blgarija-ad,2020-02-09,4295890620.0,LafargeHolcim Ltd,1 Dry - 0.8Mt/yr,1.0,DRY,,,0.8,Mt/yr,Ivaylo Bohkov,Tel: +359 9266 1341,Fax: +359 9266 1371
BGR,BGR0002,Bulgaria,Integrated,Devnya Cement Plant,Devnya Cement (HeidelbergCement),"Devnya, Varna",Operating,43.235208,27.594851000000002,GCD,Exact,4296850588.0,DEVNYA-CEMENT EAD(MARVEX),,1998.0,https://www.devnyacement.bg/en/about,2020-02-08,4295868961.0,HeidelbergCement AG,4 Wet - 3.0Mt/yr (Some white cement),4.0,WET,,,3.0,Mt/yr,,Tel: +359 5199 2420,Fax: +359 5199 3214
BGR,BGR0003,Bulgaria,Integrated,Dimitrovgrad Plant,Vulkan EAD (HeidelbergCement),Dimitrovgrad,Operating,42.07292006316948,25.543641063169478,GCD,Exact,5000043262.0,Vulkan Cement AD Dimitrovgrad,,1947.0,https://www.devnyacement.bg/en/about,2020-02-08,4295868961.0,HeidelbergCement AG,4 Wet - 0.8Mt/yr (Clinker lines mothballed),4.0,WET,,,0.8,Mt/yr,Maria Panayotova,Tel: +359 39 164 654,Fax: +359 39 166 512
BGR,BGR0004,Bulgaria,Integrated,Zlatnopanegki Plant,Zlatna Panega (Titan Cement),Zlatna Panega-Loveschko,Operating,43.087727,24.174899,GCD,Exact,5034824678.0,Zlatna Panega Cement AD,,,https://www.titan.bg/contact.html,2020-03-17,5066579091.0,Titan Cement International SA,2 Dry - 1.5Mt/yr,2.0,DRY,,,1.5,Mt/yr,Konstantinos Nikolaou,Tel: +359 2882 0101,Fax: +359 2882 0201
BFA,BFA0001,Burkina Faso,Grinding,Ouagadougou Plant,Diamond Cement Burkina,Ouagadougou,Operating,12.355061,-1.640093,GCD,Exact,,Diamond Cement Burkina SA,,,https://diamondcementgroup.com/,2020-08-07,5060542042.0,West African Cement SA,0.7Mt/yr,,,,,0.7,Mt/yr,,Tel: +226 50 336 332,Fax: +226 50 335 944
BFA,BFA0002,Burkina Faso,Grinding,CimBurkina Plant,HeidelbergCement,Kossodo,Operating,12.445571000000001,-1.50022,GCD,Exact,4295868961.0,HeidelbergCement AG,,,https://www.heidelbergcement.com/en/sub-saharan-africa,2020-02-08,4295868961.0,HeidelbergCement AG,0.8Mt/yr,,,,,0.8,Mt/yr,,Tel: +226 6486 2939,
BFA,BFA0003,Burkina Faso,Grinding,,CIMAF (Addoha Group),Bobo-Dioulasso,Operating,12.437855,-1.47837,GCD,Exact,5042932488.0,Ciments de l'Afrique,0.5,,https://www.cimentsafrique.com/presence,2020-06-22,5042932488.0,Ciments de l'Afrique,0.7Mt/yr (Completion by,,,,,0.7,Mt/yr,2019),Tel: +226 2535  5151,
BFA,BFA0004,Burkina Faso,Grinding,,CIMFASO,Ouagadougou,Operating,12.435023,-1.4810159999999999,GCD,Exact,,,,,,,,,2.1Mt/yr,,,,,2.1,Mt/yr,,,
BFA,BFA0006,Burkina Faso,Grinding,,CIMFASO (Cim Metal Group),Bobo-Dioulasso,Operating,11.174992,-4.301004,GCD,Approximate,,,,,,,,,2Mt/yr,,,,,2.0,Mt/yr,,,
BDI,BDI0001,Burundi,Grinding,Burundi Cement Plant,Burundi Cement Company (BUCECO),"Chibitoke, Bujumbura",Operating,-2.883556,29.114364000000002,GCD,Exact,,,,,,,,,0.1Mt/yr,,,,,0.1,Mt/yr,,Tel: +257 2222 275 550,
KHM,KHM0001,Cambodia,Integrated,,Chip Mong Cement (40% Siam City Cement),Kampot Province,Operating,10.641964999999999,104.527495,GCD,Exact,,,,,,,,,1 Dry - 1.5Mt/yr,1.0,DRY,,,1.5,Mt/yr,,,
KHM,KHM0002,Cambodia,Integrated,,Kampot Cement (Siam Cement Group),Phnom Tatung Kampot,Operating,10.688055,104.513181,GCD,Exact,,,,,,,,,2 Lines - 1.0Mt/yr (Third line planned),,,,,1.0,Mt/yr,Charoenchai Charengkengkai,Tel: +885 23 996 839,Fax: +885 23 996 849
KHM,KHM0003,Cambodia,Integrated,Chakrey Ting plant,Cambodia Cement (40% Huaxin),Kampot Province,Operating,10.683438,104.26791700000001,GCD,Exact,,"Cambodia Zhuo Leoding Cement Co., Ltd.",,,https://www.huaxincem.com/,2020-02-12,4295864110.0,Huaxin Cement Co Ltd,1.05Mt/yr,,,,,1.05,Mt/yr,,,
KHM,KHM0004,Cambodia,,,,,Operating,10.68802,104.513143,https://scc.listedcompany.com/supplementary.html,Exact,5035961121.0,Kampot Cement Co Ltd,,,https://scc.listedcompany.com/supplementary.html,2020-06-22,4295892800.0,Siam Cement PCL,,,,,,,,,,
KHM,KHM0005,Cambodia,,,,,Operating,10.718817999999999,104.354834,OSM,Exact,,,,,,,,,,,,,,,,,,
KHM,KHM0006,Cambodia,Integrated,,Battambang Conch Cement,Battambang,Operating,12.87017,103.014868,GCD,Exact,,,,,,,,,1.8Mt/yr,,,,,1.8,Mt/yr,,,
CMR,CMR0001,Cameroon,Integrated,,Cimenteries Du Cameroon (54.73% LafargeHolcim),"Douala, Littoral",Operating,4.049002,9.767464,GCD,Exact,,,,,,,,,1.6Mt/yr,,,,,1.6,Mt/yr,,+ 237 339 11 19,+237 339 09 84
CMR,CMR0002,Cameroon,Integrated,,Ciments de l’Afrique Cameroun (CIMAF),"Douala, Littoral",Operating,4.064646,9.676607,GCD,Exact,5074437800.0,Ciments de l'Afrique Cameroun,1.6,,https://www.cimentsafrique.com/presence,2020-06-22,5042932488.0,Ciments de l'Afrique,1.5Mt/yr),,,,,1.5,Mt/yr,,,
CMR,CMR0004,Cameroon,Grinding,Douala Plant,Dangote Industries Cameroon,"Douala, Littoral",Operating,4.068956865764334,9.699082573764333,GCD,Exact,5001198258.0,Dangote Cement PLC,1.5,2015.0,http://www.dangotecement.com/operations/cameroon/,2020-02-07,5001198258.0,Dangote Cement PLC,1.5Mt/yr,,,,,1.5,Mt/yr,,Tel: +237 699 7171 82,
CMR,CMR0005,Cameroon,Grinding,Douala Plant,Medcem Cameroon,"Douala, Littoral Kumarkoy, Utam",Operating,4.022882,9.676917,GCD,Exact,,,,,,,,,0.6Mt/yr,,,,,0.6,Mt/yr,,Tel: +237 233 428 484,Fax: +237 233 428 400
CMR,CMR0007,Cameroon,Grinding,Douala Plant,Cimencam (54.73% LafargeHolcim),"Bonabéri, Douala, Littoral",Operating,4.067512000000001,9.68975,GCD,Exact,,CIMENCAM S.A.,,,https://www.cimencam.com/fr/nos-ciments,2020-02-09,4295890620.0,LafargeHolcim Ltd,1.0Mt/yr,,,,,1.0,Mt/yr,,Tel: +237 33 391 119,Fax: +237 33 390 984
CMR,CMR0008,Cameroon,Integrated,,Mira Cement Ltd,"Douala, Littoral",Operating,4.0117080000000005,9.674043,GCD,Exact,,,,,,,,,1.0Mt/yr,,,,,1.0,Mt/yr,,Tel: +237 776 111 11,
CMR,CMR0009,Cameroon,Grinding,Nomayos Plant,Cimencam (54.73% LafargeHolcim),"Nomayos, Yaoundé 2019,",Operating,3.772446,11.44548,GCD,Exact,,CIMENCAM S.A.,,2019.0,https://www.cimencam.com/fr/le-premier-ciment-de-type-cem-ii-425-robust-de-lusine-de-nomayos,2020-02-09,4295890620.0,LafargeHolcim Ltd,0.5Mt/yr - Expected January,,,,,0.5,Mt/yr,,,
CMR,CMR0010,Cameroon,Integrated,,Cimencam (54.73% LafargeHolcim),"Figuil, Garoua",Operating,9.764973,13.965796,GCD,Exact,,CIMENCAM S.A.,,,https://www.cimencam.com/fr/nos-ciments,2020-02-09,4295890620.0,LafargeHolcim Ltd,1.6Mt/yr (New US$70m kiln due 2020),,,,,1.6,Mt/yr,Benoît Galichet,Tel: + 237 22 27 65 00,Fax: +237 22 27 56 59
CAN,CAN0001,Canada,Integrated,Joliette Plant,CRH,"Joliette, Quebec",Operating,46.030177,-73.401677,GCD,Exact,5037319516.0,CRH Canada Group Inc,,,http://www.crhcanada.com/about-us/locations,2020-02-10,4295874867.0,CRH PLC,4 Dry - 1.2Mt/yr,4.0,DRY,,,1.2,Mt/yr,Eric Arbour,Tel: +1 405 756 1076,Fax: +1 405 756 8701
CAN,CAN0002,Canada,Integrated,Mississauga Plant,CRH,"Mississauga, Ontario",Operating,43.493687715229356,-79.62423915477066,GCD,Exact,5037319516.0,CRH Canada Group Inc,,,http://www.crhcanada.com/about-us/locations,2020-02-10,4295874867.0,CRH PLC,1 Dry - 1.3Mt/yr,1.0,DRY,,,1.3,Mt/yr,,Tel: +1 905 822 1653,Fax: +1 905 822 5019
CAN,CAN0003,Canada,Integrated,St Basile Plant,Ciment Québec,"St Basile de Portneuf, Quebec",Operating,46.744581,-71.813859,GCD,Exact,5000019748.0,Ciment Quebec Inc,,,https://cimentquebec.com/en/cement/contact-us/,2020-02-20,5000019748.0,Ciment Quebec Inc,1 Dry - 1.0Mt/yr,1.0,DRY,,,1.0,Mt/yr,Luc Papillon,Tel: +1 418 329 2100,Fax: +1 418 329 3436
CAN,CAN0004,Canada,Integrated,Kilmar Plant,Colacem Canada,"Grenville sur la Rouge, Quebec",Operating,45.768479,-74.613848,GCD,Exact,5051398760.0,Lehigh Hanson Materials Ltd,,,https://www.lehighhanson.com/home/locations,2020-02-08,4295868961.0,HeidelbergCement AG,1 Dry - 0.3Mt/yr,1.0,DRY,,,0.3,Mt/yr,,Tel: +1 819 242 4312,Fax: +1 819 242 4313
CAN,CAN0005,Canada,Integrated,Picton Plant,Lehigh Canada (HeidelbergCement),"Picton, Ontario",Operating,44.054274,-77.12134499999999,GCD,Exact,5051398760.0,Lehigh Hanson Materials Ltd,,,https://www.lehighhanson.com/home/locations,2020-02-08,4295868961.0,HeidelbergCement AG,2 Dry - 0.8Mt/yr,2.0,DRY,,,0.8,Mt/yr,,Tel: +1 613 476 3233,Fax: +1 613 476 8130
CAN,CAN0006,Canada,Integrated,Woodstock Plant,Federal White Cement,"Woodstock, Ontario",Operating,43.103861,-80.895863,GCD,Exact,5025435939.0,Federal White Cement Ltd.,,,http://www.federalwhitecement.com/,2020-02-20,5025435939.0,Federal White Cement Ltd.,0.5Mt/yr,,,,,0.5,Mt/yr,Jean Paul Zannier,Tel: +1 519 485 5410,Fax: +1 519 485 5892
CAN,CAN0007,Canada,Integrated,Bath Plant,Lafarge North America (LafargeHolcim),"Bath, Ontario",Operating,44.168779,-76.80534399999999,GCD,Exact,4295860729.0,Lafarge Canada Inc,,,https://www.lafarge.ca/en/contact-us,2020-02-09,4295890620.0,LafargeHolcim Ltd,1 Dry - 1.1Mt/yr,1.0,DRY,,,1.1,Mt/yr,Ignacio Arroyo,Tel: +1 613 352 7711,Fax: +1 613 352 1087
CAN,CAN0008,Canada,Integrated,Brookfield Plant,Lafarge North America (LafargeHolcim),"Brookfield, Nova Scotia",Operating,45.239364,-63.334263,GCD,Exact,4295860729.0,Lafarge Canada Inc,,,http://lafargebrookfield.ca/,2020-02-09,4295890620.0,LafargeHolcim Ltd,2 Dry - 0.6Mt/yr,2.0,DRY,,,0.6,Mt/yr,Federic Bolduc,Tel: +1 902 673 3715,Fax: +1 902 673 3741
CAN,CAN0009,Canada,Integrated,Exshaw Plant,Lafarge North America (LafargeHolcim),"Exshaw, Alberta",Operating,51.060709,-115.171522,GCD,Exact,4295860729.0,Lafarge Canada Inc,2.2,,https://lafargeexshaw.ca/,2020-02-09,4295890620.0,LafargeHolcim Ltd,3 Dry - 2.2Mt/yr,3.0,DRY,,,2.2,Mt/yr,Jim Bachmann,Tel: +1 403 673 5127,Fax: +1 403 673 2069
CAN,CAN0011,Canada,Integrated,Richmond Plant,Lafarge North America (LafargeHolcim),"Richmond, British Columbia",Operating,49.158286,-123.00562099999999,GCD,Exact,4295860729.0,Lafarge Canada Inc,,,https://www.lafarge.ca/en/contact-us,2020-02-09,4295890620.0,LafargeHolcim Ltd,1 Dry - 1.1Mt/yr,1.0,DRY,,,1.1,Mt/yr,Pascal Bouchard,Tel: +1 604 244 4300,Fax: +1 604 244 4301
CAN,CAN0012,Canada,Integrated,St Constant Plant,Lafarge North America (LafargeHolcim),"St Constant, Quebec",Operating,45.339711,-73.523533,GCD,Exact,4295860729.0,Lafarge Canada Inc,,,https://www.lafarge.ca/en/contact-us,2020-02-09,4295890620.0,LafargeHolcim Ltd,2 Dry - 1.0Mt/yr,2.0,DRY,,,1.0,Mt/yr,Daniel Vadacchino,Tel: +1 450 632 7750,Fax: +1 450 632 6252
CAN,CAN0013,Canada,Grinding,Stoney Creek Slag Plant,Lafarge North America (LafargeHolcim),"Stoney Creek, Ontario",Operating,43.223614000000005,-79.687062,GCD,Exact,4295860729.0,Lafarge Canada Inc,,,https://www.lafarge.ca/en/contact-us,2020-02-09,4295890620.0,LafargeHolcim Ltd,,,,,,,,,Tel: +1 905 643 4101,Fax: +1 905 643 2099
CAN,CAN0014,Canada,Integrated,Edmonton Plant,Lehigh Inland Cement (50% HeidelbergCement),"Edmonton, Alberta",Operating,53.580487,-113.60066100000002,GCD,Exact,5051398760.0,Lehigh Hanson Materials Ltd,,,https://www.lehighhanson.com/home/locations,2020-02-08,4295868961.0,HeidelbergCement AG,1 Dry - 1.4Mt/yr,1.0,DRY,,,1.4,Mt/yr,Tim Bestland,Tel: +1 780 420 2500,Fax: +1 780 420 2000
CAN,CAN0015,Canada,Integrated,Delta Plant,Lehigh Northwest Cement (50% HeidelbergCement),"Delta, British Columbia",Operating,49.143997999999996,-123.023077,GCD,Exact,5051398760.0,Lehigh Hanson Materials Ltd,,,https://www.lehighhanson.com/home/locations,2020-02-08,4295868961.0,HeidelbergCement AG,1 Dry - 1.3Mt/yr,1.0,DRY,,,1.3,Mt/yr,Kent Stuehmer (VP Ops),Tel: +1 604 946 0411,Fax: +1 604 946 9125
CAN,CAN0016,Canada,Integrated,Port-Daniel-Gascons Plant,McInnis Cement,"Port-Daniel, Quebec",Operating,48.188511,-64.92014300000001,GCD,Exact,5043318026.0,McInnis Cement Inc,,,https://mcinniscement.com/contact-us/,2020-02-20,5043318026.0,McInnis Cement Inc,2.2Mt/yr,,,,,2.2,Mt/yr,Alexandre Rail (VP Ops),Tel: +1 581 351 0020,Fax: +1 581 351 0022
CAN,CAN0017,Canada,Integrated,Bowmanville Plant,St Marys Cement (Votorantim),"Bowmanville, Ontario",Operating,43.881615999999994,-78.699895,GCD,Exact,4298366597.0,St Marys Cement Inc Canada,,,http://www.stmaryscement.com/Pages/Company/Locations/Ontario.aspx,2020-02-11,5000075361.0,Votorantim SA,1 Dry - 1.2Mt/yr,1.0,DRY,,,1.2,Mt/yr,Jim Storey (Ops Manager),Tel: +1 905 623 3341,Fax: +1 905 623 4695
CAN,CAN0018,Canada,Integrated,St Marys Plant,St Marys Cement (Votorantim),"St Marys, Ontario",Operating,43.243214,-81.147797,GCD,Exact,4298366597.0,St Marys Cement Inc Canada,,,http://www.stmaryscement.com/Pages/Company/Locations/Ontario.aspx,2020-02-11,5000075361.0,Votorantim SA,1 Dry - 0.8Mt/yr,1.0,DRY,,,0.8,Mt/yr,Jose Soraggi,Tel: +1 519 284 1020,Fax: +1 519 284 4104
TCD,TCD0001,Chad,Grinding,,CIMAF (Addoha Group),Lamadji,Operating,12.208307000000001,15.047131,GCD,Exact,5042932488.0,Ciments de l'Afrique,0.5,,https://www.cimentsafrique.com/presence,2020-06-22,5042932488.0,Ciments de l'Afrique,0.5Mt/yr,,,,,0.5,Mt/yr,,,
TCD,TCD0002,Chad,Grinding,,Chad Baoare Cement Plant,Baoare,Operating,9.26689,14.602926,GCD,Exact,,,,,,,,,0.2Mt/yr,,,,,0.2,Mt/yr,,Tel: +235 2253 0082,
CHL,CHL0001,Chile,Integrated,La Calera Plant,Cemento Melón,"La Calera, Santiago Region",Operating,-32.790183,-71.19766800000001,GCD,Exact,5035440301.0,Melon SA,,,https://www.melon.cl/productos/cementos/servicios/programacion-y-entrega/,2020-02-16,5035440301.0,Melon SA,2 Dry - 1.5Mt/yr,2.0,DRY,,,1.5,Mt/yr,Hector Zambrano,Tel: +56 3329 4000,Fax: +56 3329 4001
CHL,CHL0002,Chile,Grinding,Ventanas Plant,Cemento Melón,"Las Ventanas, Valparaíso (V)",Operating,-32.755472,-71.477127,GCD,Exact,5035440301.0,Melon SA,,,https://www.melon.cl/productos/cementos/servicios/programacion-y-entrega/,2020-02-16,5035440301.0,Melon SA,0.3Mt/yr - Loesche 46.2+2 C,,,,,0.3,Mt/yr,,,
CHL,CHL0003,Chile,Grinding,Puerto Montt Plant,Cemento Melón,"Puerto Montt, Los Lagos (X)",Operating,-41.53398,-73.12955699999999,GCD,Exact,5035440301.0,Melon SA,,,https://www.melon.cl/productos/cementos/servicios/programacion-y-entrega/,2020-02-16,5035440301.0,Melon SA,0.3Mt/yr,,,,,0.3,Mt/yr,,,
CHL,CHL0004,Chile,Grinding,Coronel Plant,Cemento Polpaico,"Coronel, Concepción, Bío Bío (VIII)",Operating,-36.978684,-73.174564,GCD,Exact,4295863421.0,Cemento Polpaico SA,,,http://www.polpaico.cl/somos-polpaico/plantas-y-oficinas/,2020-02-16,4295863421.0,Cemento Polpaico SA,0.8Mt/yr,,,,,0.8,Mt/yr,Oswaldo Pereda,Tel: +56 4127 51450,Fax: +56 4127 51451
CHL,CHL0005,Chile,Integrated,Cerro Blanco Plant,Cemento Polpaico,Santiago,Operating,-33.15077,-70.83181400000001,GCD,Exact,4295863421.0,Cemento Polpaico SA,,,http://www.polpaico.cl/somos-polpaico/plantas-y-oficinas/,2020-02-16,4295863421.0,Cemento Polpaico SA,2.3Mt/yr,,,,,2.3,Mt/yr,David Possamai,Tel: +56 2 2337 6458,Fax: +56 2337 6333
CHL,CHL0006,Chile,Grinding,Mejillones Plant,Cemento Polpaico,"Mejillones, Antofagasta (II)",Operating,-23.096319,-70.413517,GCD,Exact,4295863421.0,Cemento Polpaico SA,,,http://www.polpaico.cl/somos-polpaico/plantas-y-oficinas/,2020-02-16,4295863421.0,Cemento Polpaico SA,0.3Mt/yr,,,,,0.3,Mt/yr,,Tel: +56 5562 2420,Fax: +56 5562 2421
CHL,CHL0008,Chile,Grinding,El Bosque Plant,Cementos BSA,"El Bosque, Santiago Metropolitan (RM)",Operating,-33.380072,-70.695526,GCD,Exact,,Cementos BSA,,,https://www.cementosbsa.com/unidadesNegocio.aspx,2020-02-16,,Cementos BSA,0.3Mt/yr,,,,,0.3,Mt/yr,Miguel Cabrera Silva,Tel: +56 22 595 5700,
CHL,CHL0010,Chile,Integrated,Antofagasta Plant,Cementos Bío Bío,Antofagasta,Operating,-23.780668,-70.318803,GCD,Exact,4295863410.0,Cementos Bio Bio SA,,,https://cbb.cl/nosotros/presencia-geografica/antofagasta/#!,2020-02-17,4295863410.0,Cementos Bio Bio SA,4 Dry - 0.7Mt/yr,4.0,DRY,,,0.7,Mt/yr,Luis Cruces,Tel: +56 5564 5600,Fax: +56 5564 5610
CHL,CHL0011,Chile,Grinding,San Antonio Plant,Cementos Bío Bío,"San Antonio, Valparaíso (V)",Operating,-33.596748,-71.588465,GCD,Exact,4295863410.0,Cementos Bio Bio SA,,,https://cbb.cl/nosotros/presencia-geografica/valparaiso/#!,2020-02-17,4295863410.0,Cementos Bio Bio SA,0.3Mt/yr,,,,,0.3,Mt/yr,,Tel: +56 7520 7606,Fax: +56 7520 7900
CHL,CHL0012,Chile,Grinding,Talcahuano Plant,Cementos Bío Bío,"Talcahuano, Concepción",Operating,-36.744254,-73.118689,GCD,Exact,4295863410.0,Cementos Bio Bio SA,,,https://cbb.cl/nosotros/presencia-geografica/biobio/#!,2020-02-17,4295863410.0,Cementos Bio Bio SA,"0.8Mt/yr (formerly integrated, now grinding)",,,,,0.8,Mt/yr,Ramiro Cartes,Tel: +56 4 1226 7000,Fax: +56 4 1256 4741
CHL,CHL0013,Chile,Integrated,Curico Plant,Cementos Bío Bío,"Teno, Curicó",Operating,-34.866335,-71.139321,GCD,Exact,4295863410.0,Cementos Bio Bio SA,,,https://cbb.cl/nosotros/presencia-geografica/maule/#!,2020-02-17,4295863410.0,Cementos Bio Bio SA,1 Dry - 1.7Mt/yr,1.0,DRY,,,1.7,Mt/yr,Eduardo Pimentel,Tel: +56 7520 7000,Fax: +56 7520 7900
