iso3,uid,country,plant_type,gcd_plant_name,gcd_company_name,gcd_location,status,latitude,longitude,source,accuracy,permid,company_name,reported_capacity,reported_online_modernisation,owner_source,date_accessed,parent_permid,parent_name,desc,num_kilns_1,kiln_type_1,num_kilns_2,kiln_type_2,capacity,capacity_unit,contact,tel,fax,rank,pop2020,GrowthRate
AFG,AFG0001,Afghanistan,Integrated,Ghori II Plant,Ghori Cement,"Baghlan, Pul-e-Khumri",Operating,35.96580023,68.68633787,GCD,Exact,,,,,,,,,2 Wet - 0.4Mt/yr (Unfinished - To be closed when Ghori III is completed),2.0,WET,,,0.4,Mt/yr,,,,,38928.346,0.0233
ARM,ARM0001,Armenia,Integrated,Araratcement Plant,Cementos Avellaneda,Ararat,Operating,39.855755,44.730945,GCD,Exact,4296860538.0,Araratcement Ojsc(Armenia),,,https://www.araratcement.am/history,2020-02-16,,Multi Group Concern,1 Dry - 0.9Mt/yr,1.0,DRY,,,0.9,Mt/yr,Levon Ambartsumyan,Tel: +374 384 1737,,,2963.243,0.0019
ARM,ARM0002,Armenia,Integrated,Mika Plant,Cementos Avellaneda,Hrazdan,Operating,40.569855,44.748048,GCD,Exact,,Khachaturov Group,,,https://www.khachaturovgroup.am/about/,2020-02-16,,Khachaturov Group,2 Wet - 1.2Mt/yr,2.0,WET,,,1.2,Mt/yr,Naina Martirosyan,Tel: +374 232 3742,Fax: +374 232 6511,,2963.243,0.0019
AZE,AZE0001,Azerbaijan,Integrated,Gazakh Plant,Akkord Cement,"Dash Salahli, Gazakh",Operating,41.16592,45.254606,GCD,Exact,,,,,,,,,1 Dry - 1.0Mt/yr,1.0,DRY,,,1.0,Mt/yr,,Tel:+994 124 044 404,Fax: +994 514 114 404,,10139.177,0.0091
AZE,AZE0002,Azerbaijan,Integrated,Garadagh Plant,Holcim Azerbaijan (LafargeHolcim),Baku,Operating,40.224409,49.556633000000005,GCD,Exact,5036791377.0,Holcim Azarbaijan ASJ,,,https://www.holcim.az/az/haqqimizda/qaradag-sement-zavodunun-holcim-azrbaycan-asc-tarixi,2020-02-09,4295890620.0,LafargeHolcim Ltd,4 Dry - 1.7Mt/yr,4.0,DRY,,,1.7,Mt/yr,Rossen Papazov,Tel: +994 12 44 18 888,Fax: +994 12 44 61 881,,10139.177,0.0091
AZE,AZE0003,Azerbaijan,Integrated,Gizildash Plant,Norm Cement,"Gizildash, Baku",Operating,40.251212,49.447206,GCD,Exact,,,,,,,,,1 Dry - 2.0Mt/yr,1.0,DRY,,,2.0,Mt/yr,Murad Sadikov,Tel: +994 12 310 1010,Fax: +994 12 310 1020,,10139.177,0.0091
BHR,BHR0001,Bahrain,Grinding,Muharraq Plant,"Star Cement (UltraTech Cement Bahrain Company WLL, part of Aditya Birla)","Hidd, Manama",Operating,26.220002,50.656492,GCD,Exact,5074497900.0,Ultratech Cement Bahrain Co WLL,,,http://www.starcement.ae/index.php/contact-us,2020-08-07,4295872971.0,Grasim Industries Ltd,0.4Mt/yr,,,,,0.4,Mt/yr,,Tel: +973 1767 1011,Fax: +973 1767 1698,,1701.575,0.0368
BHR,BHR0002,Bahrain,Integrated,,Falcon Cement,Hafirah 955,Operating,26.03186,50.594119,GCD,Exact,,,,,,,,,0.4Mt/yr,,,,,0.4,Mt/yr,,Tel: +973 7714 4443,,,1701.575,0.0368
BGD,BGD0001,Bangladesh,Grinding,Akij Plant,Akij Cement,"Narayangonj, Dhaka",Operating,23.625073,90.514676,GCD,Exact,,,,,,,,,Loesche LM 46.2+2 C/S,,,,,,,,Tel: +88 171 119 110,,,164689.383,0.0101
BGD,BGD0002,Bangladesh,Grinding,Madangonj Plant,Bashundhara Industrial Complex,"Madangonj, Narayangonj",Operating,23.587847,90.51646600000001,GCD,Exact,,,,,,,,,2.1Mt/yr - Loesche 56.3+3 S,,,,,2.1,Mt/yr,,Tel: +88 27 648 0809,Fax: +88 28 401 296,,164689.383,0.0101
BGD,BGD0003,Bangladesh,Grinding,Mongola Plant,Bashundhara Industrial Complex,"Mongola, Bagerhat",Operating,22.515404,89.587142,GCD,Exact,,,,,,,,,1.62Mt/yr - Loesche 56.3+3 S,,,,,1.62,Mt/yr,,Tel: +88 46 627 5377,Fax: +88 46 627 5371,,164689.383,0.0101
BGD,BGD0004,Bangladesh,Grinding,Bangladesh Plant,Cemex,"Madangonj, Narayangonj",Operating,23.599460999999998,90.510752,GCD,Exact,,,,,,,,,0.5Mt/yr,,,,,0.5,Mt/yr,,,Fax: +88 02 8814521,,164689.383,0.0101
BGD,BGD0005,Bangladesh,Integrated,Chhatak Plant,Chhatak Cement,Dhaka,Operating,25.046629,91.65805,GCD,Exact,,,,,,,,,2 Dry - 1.2Mt/yr (2.8Mt/yr in 2019),2.0,DRY,,,1.2,Mt/yr,Mohammad Shahidur Rahman A I M Nazmul Alm,,,,164689.383,0.0101
BGD,BGD0006,Bangladesh,Grinding,Kanchpur Plant,HeidelbergCement Bangladesh,"Kanchpur, Narayangonj, Dhaka",Operating,23.71286,90.51543000000001,GCD,Exact,4296392248.0,Heidelberg Cement Bangladesh Ltd,,,https://www.heidelbergcementbd.com/our_offices_and_plants.aspx,2020-02-08,4295868961.0,HeidelbergCement AG,0.5Mt/yr,,,,,0.5,Mt/yr,,Tel: +88 25 881 5602 ( / 3),Fax: +88 25 881 5598,,164689.383,0.0101
BGD,BGD0007,Bangladesh,Grinding,Chittagong Plant,HeidelbergCement Bangladesh,"South Halishahar, Chattogram",Operating,22.279538,91.795684,GCD,Exact,4296392248.0,Heidelberg Cement Bangladesh Ltd,,,https://www.heidelbergcementbd.com/our_offices_and_plants.aspx,2020-02-08,4295868961.0,HeidelbergCement AG,0.8Mt/yr,,,,,0.8,Mt/yr,S.M. Jabed,Tel: +88 031 250 0818,Fax: +88 031 250 1159,,164689.383,0.0101
BGD,BGD0009,Bangladesh,Grinding,United Cement Industries Plant 2,Holcim Bangladesh (LafargeHolcim),"Meghna Ghat, Sonargaon, Narayangonj",Operating,23.611005,90.613007,GCD,Exact,4296127762.0,LafargeHolcim Bangladesh Ltd,,,https://www.lafargeholcim.com.bd/company-profile,2020-02-09,4295890620.0,LafargeHolcim Ltd,0.7Mt/yr,,,,,0.7,Mt/yr,Khandker Ataur Rahman Rifat,Tel: +880 29 881 002,Fax: +880 28 815 249,,164689.383,0.0101
BGD,BGD0010,Bangladesh,Grinding,Saiham Cement Industries Plant 3,Holcim Bangladesh (LafargeHolcim),"Mongola Port, Bagerhat Kwang Se Chung",Operating,22.504972,89.58950300000001,GCD,Exact,4296127762.0,LafargeHolcim Bangladesh Ltd,,,https://www.lafargeholcim.com.bd/company-profile,2020-02-09,4295890620.0,LafargeHolcim Ltd,,,,,,,,,Tel: +880 17 566 959,Fax: +880 2 881 5249,,164689.383,0.0101
BGD,BGD0013,Bangladesh,Integrated,Chhatak Plant,Lafarge Surma Cement (29.44% LafargeHolcim / 29.45% Cementos Molins),"Chhatak, Sunamgonj",Operating,25.034445,91.648303,GCD,Exact,4296127762.0,LafargeHolcim Bangladesh Ltd,,,https://www.lafargeholcim.com.bd/company-profile,2020-02-09,4295890620.0,LafargeHolcim Ltd,1 Dry - 5.5Mt/yr,1.0,DRY,,,5.5,Mt/yr,Manirul Haque,Tel: +880 29 854 847,Fax: +880 28 815 167,,164689.383,0.0101
BGD,BGD0014,Bangladesh,Grinding,,MI Cement Factory,Munshigonj,Operating,23.576689000000002,90.508382,GCD,Exact,,,,,,,,,0.2Mt/yr (Expansion announced,,,,,0.2,Mt/yr,in 2015),Tel: +880 27 648 077,Fax: +880 2764 8070,,164689.383,0.0101
BGD,BGD0016,Bangladesh,Integrated,Mongla Plant,Sena Kalyan Sangstha,"Dhaka, Bagerhat",Operating,22.517834,89.585596,GCD,Exact,,,,,,,,,0.6Mt/yr,,,,,0.6,Mt/yr,Masud Almahmud,Tel: +880 29 890 819,Fax: +880 29 890 900,,164689.383,0.0101
BGD,BGD0017,Bangladesh,Grinding,Kaliganj Plant,Seven Circle Bangladesh (Shun Shing Group),"Kaliganj, Dhaka",Operating,23.934081,90.613085,GCD,Exact,,Seven Circle Bangladesh Limited,,,http://www.ssgil.com/manufacturing/cement-plants/,2020-02-22,5046047295.0,Shun Shing Group International Ltd,1.6Mt/yr,,,,,1.6,Mt/yr,,Tel: +880 28 817 690,Fax: +880 28 811 926,,164689.383,0.0101
BGD,BGD0018,Bangladesh,Grinding,Khulna Plant,Seven Circle Bangladesh (Shun Shing Group),Khulna,Operating,22.784672,89.581336,GCD,Exact,,Shun Shing Cement Mills Ltd,,,http://www.ssgil.com/manufacturing/cement-plants/,2020-02-22,5046047295.0,Shun Shing Group International Ltd,1.3Mt/yr,,,,,1.3,Mt/yr,,Tel: +880 41 283 2325,Fax: +880 41 283 1525,,164689.383,0.0101
BGD,BGD0019,Bangladesh,Grinding,Emirates Plant,Star Cement (Aditya Birla Group / Emirates Cement Bangladesh),"Kawran Bazar, Dhaka",Operating,23.568501,90.52032700000001,GCD,Exact,,,,,,,,,0.5Mt/yr,,,,,0.5,Mt/yr,,Tel: +88 28113097,Fax: +88 28127773,,164689.383,0.0101
BGD,BGD0020,Bangladesh,Grinding,North Potenga Plant,NGS Cement,"North Potenga, Chattogram",Operating,22.26509,91.796193,GCD,Exact,,,,,,,,,0.21Mt/yr 1x40t/hr,,,,,0.21,Mt/yr,,,,,164689.383,0.0101
BGD,BGD0021,Bangladesh,Grinding,Isha Nagar Plant,Diamond Cement Ltd,"Isha Nagar, Karnafully, Chattogram",Operating,22.307487,91.812937,GCD,Exact,,,,,,,,,"0.707Mt/yr 1x20, 1x34, 1x80t/hr",,,,,0.7070000000000001,Mt/yr,,,,,164689.383,0.0101
BGD,BGD0022,Bangladesh,Grinding,Isha Nagar Plant,National Cement Mills Ltd,"Isha Nagar, Karnafully, Chattogram",Operating,22.308584,91.8143,GCD,Exact,,,,,,,,,1.53Mt/yr,,,,,1.53,Mt/yr,,,,,164689.383,0.0101
BGD,BGD0023,Bangladesh,Grinding,Chattogram Plant,S. Alam Cement Ltd,"Char Patharghata Karnaphuli, Chattogram",Operating,22.312268,91.85799999999999,GCD,Exact,,,,,,,,,0.317Mt/yr 1x60t/hr,,,,,0.317,Mt/yr,,,,,164689.383,0.0101
BGD,BGD0024,Bangladesh,Grinding,Kalurghat Plant,Aramit Cement Ltd,"Mohara, Chattogram",Operating,22.381623,91.869938,GCD,Exact,,,,,,,,,"0.49Mt/yr (16hr/d x 330d/y) 1x35t/hr, 1 x50t/hr",,,,,0.49,Mt/yr,,,,,164689.383,0.0101
BGD,BGD0025,Bangladesh,Grinding,Madambibir Hat Plant,Confidence Cement Ltd,"Bhatiary, Sitakunda, Chattogram",Operating,22.441231,91.738037,GCD,Exact,,,,,,,,,"1.03Mt/yr 2x12.5, 1x80, 1x90t/hr (CNBM Int. Eng.)",,,,,1.03,Mt/yr,,,,,164689.383,0.0101
BGD,BGD0026,Bangladesh,Grinding,Joromatal Plant,Royal Cement Ltd,"Joromatal, Bara Kumira, Chattogram",Operating,22.502645,91.71544,GCD,Exact,,,,,,,,,"0.74Mt/yr 2x40, 1x60t/hr",,,,,0.74,Mt/yr,,,,,164689.383,0.0101
BGD,BGD0027,Bangladesh,Grinding,Mongla Port Plant,Dubai Bangladesh Cement Mills Ltd,"Mongla Port, Bagherhat",Operating,22.503884,89.59030200000001,GCD,Exact,,,,,,,,,"0.818Mt/yr 2x35, 1x85t/hr",,,,,0.818,Mt/yr,,,,,164689.383,0.0101
BGD,BGD0028,Bangladesh,Grinding,Birirdanga Plant,Mongla Cement Factory,"Birirdanga, Mongla, Bagherhat",Operating,22.51778,89.58541600000001,GCD,Exact,,,,,,,,,"1.11Mt/yr 1x35, 1x65, 1x110t/hr",,,,,1.11,Mt/yr,,,,,164689.383,0.0101
BGD,BGD0029,Bangladesh,Grinding,Chattogram Plant,Alhaj Mostafa Hakim Cement Ind. Ltd,"Chota Kumira, Sitakunda, Chattogram",Operating,22.53217,91.700866,GCD,Exact,,,,,,,,,0.13Mt/yr 1x25t/hr,,,,,0.13,Mt/yr,,,,,164689.383,0.0101
BGD,BGD0030,Bangladesh,Grinding,Rupatoli Plant,Olympic Cement Ltd,"Rupatoli, Barisal",Operating,22.652466,90.345293,GCD,Exact,,,,,,,,,"1.0Mt/yr 2x35, 1x120t/hr",,,,,1.0,Mt/yr,,,,,164689.383,0.0101
BGD,BGD0031,Bangladesh,Grinding,West Mukterpur Plant,Shah Cement Industries Ltd,"West Mukterpur, Munchiganj",Operating,23.568618,90.524404,GCD,Exact,,,,,,,,,"6.5Mt/yr (India), 1x540t/hr (OK 81-6, FLS)",,,,,6.5,Mt/yr,,,,,164689.383,0.0101
BGD,BGD0032,Bangladesh,Grinding,West Mukterpur Plant,Metrocem Cement Ltd,"West Mukterpur, Munshiganj",Operating,23.571925,90.521455,GCD,Exact,,,,,,,,,"0.607Mt/yr 1x40, 1x60t/hr",,,,,0.607,Mt/yr,,,,,164689.383,0.0101
BGD,BGD0033,Bangladesh,Grinding,West Mukterpur Plant,Premier Cement Ltd,"West Mukterpur, Munshiganj",Operating,23.578554999999998,90.513202,GCD,Exact,,,,,,,,,"3.8Mt/yr 4x85t/hr (FLS/China), 1x380t/",,,,,3.8,Mt/yr,,,,,164689.383,0.0101
BGD,BGD0034,Bangladesh,Grinding,Tatui Tala Plant,Anward Cement Mills Ltd,"Gazaria, Munshigoni",Operating,23.602161,90.624685,GCD,Exact,,,,,,,,,"0.607Mt/yr 2x15t/hr, 1x85t/hr",,,,,0.607,Mt/yr,,,,,164689.383,0.0101
BGD,BGD0035,Bangladesh,Grinding,Meghna Ghat Plant,Unique Cement Industries Ltd (Meghna Group),"Meghna Ghat, Narayangonj",Operating,23.609232000000002,90.61001,GCD,Exact,,,,,,,,,4.64Mt/yr,,,,,4.64,Mt/yr,,,,,164689.383,0.0101
BGD,BGD0036,Bangladesh,Grinding,Meghnaghat Plant,MTC Cement Industries Ltd,"Meghnaghat, Sonargaon, Narayangonj",Operating,23.612783,90.60623199999999,GCD,Exact,,,,,,,,,"1.636Mt/yr 1x60, 1x250t/hr",,,,,1.636,Mt/yr,,,,,164689.383,0.0101
BGD,BGD0037,Bangladesh,,,,,Operating,23.666470999999998,90.634656,OSM,Exact,,,,,,,,,,,,,,,,,,,,164689.383,0.0101
BGD,BGD0038,Bangladesh,Grinding,Sonargaon Plant,Bengal Cement Ltd,"Baiddyer Bazar, Sonargaon, Narayangonj",Operating,23.695611,90.64130300000001,GCD,Exact,,,,,,,,,0.686Mt/yr 2x65t/hr,,,,,0.6859999999999999,Mt/yr,,,,,164689.383,0.0101
BGD,BGD0039,Bangladesh,Grinding,Brammangonj Plant,Mir Cement Ltd,"Brammangonj, Gonganagar Murapara, Rupgonj",Operating,23.770601,90.512821,GCD,Exact,,,,,,,,,"0.42Mt/yr 1x30, 1x50t/hr",,,,,0.42,Mt/yr,,,,,164689.383,0.0101
BGD,BGD0040,Bangladesh,Grinding,Kaligonj Plant,Confidence Cement Ltd,"Kaligong, Gazipur, Dhaka",Operating,23.894575,90.588746,GCD,Exact,,,,,,,,,"1.32Mt/yr 1x250t/hr VRM, Loesche",,,,,1.32,Mt/yr,,,,,164689.383,0.0101
BGD,BGD0041,Bangladesh,Grinding,Baghabari Ghat Plant,DeshBandhu Cement Mills Ltd,"Baghabari Ghat, Siragonj",Operating,24.127959,89.586911,GCD,Exact,,,,,,,,,0.19Mt/yr 2x18t/hr,,,,,0.19,Mt/yr,,,,,164689.383,0.0101
BGD,BGD0042,Bangladesh,Grinding,Siragonj Plant,Aman Cement Mills Ltd,"Ullahpara, near railway sta- tion, Siragonj",Operating,24.290893,89.566546,GCD,Exact,,,,,,,,,0.179Mt/yr 2x17t/hr,,,,,0.179,Mt/yr,,,,,164689.383,0.0101
BTN,BTN0001,Bhutan,Integrated,Premagalshel Plant,Dungsam Cement,Premagalshel,Operating,26.872676000000002,91.232077,GCD,Exact,,,,,,,,,1.0Mt/yr,,,,,1.0,Mt/yr,,Tel: +975 748 1114,Fax: +975 748 1191,,771.608,0.0112
BTN,BTN0002,Bhutan,Integrated,Penden Plant,Penden Cement Authority,"Gomtu, Samtse",Operating,26.816891,89.188862,GCD,Exact,,,,,,,,,1 Dry - 0.5Mt/yr,1.0,DRY,,,0.5,Mt/yr,Kaylzang Tshering,Tel: +975 537 1013,Fax: +975 537 1015,,771.608,0.0112
BTN,BTN0003,Bhutan,,,,,Operating,26.821865000000003,89.18328199999999,OSM,Exact,,,,,,,,,,,,,,,,,,,,771.608,0.0112
KHM,KHM0001,Cambodia,Integrated,,Chip Mong Cement (40% Siam City Cement),Kampot Province,Operating,10.641964999999999,104.527495,GCD,Exact,,,,,,,,,1 Dry - 1.5Mt/yr,1.0,DRY,,,1.5,Mt/yr,,,,,16718.965,0.0141
KHM,KHM0002,Cambodia,Integrated,,Kampot Cement (Siam Cement Group),Phnom Tatung Kampot,Operating,10.688055,104.513181,GCD,Exact,,,,,,,,,2 Lines - 1.0Mt/yr (Third line planned),,,,,1.0,Mt/yr,Charoenchai Charengkengkai,Tel: +885 23 996 839,Fax: +885 23 996 849,,16718.965,0.0141
KHM,KHM0003,Cambodia,Integrated,Chakrey Ting plant,Cambodia Cement (40% Huaxin),Kampot Province,Operating,10.683438,104.26791700000001,GCD,Exact,,"Cambodia Zhuo Leoding Cement Co., Ltd.",,,https://www.huaxincem.com/,2020-02-12,4295864110.0,Huaxin Cement Co Ltd,1.05Mt/yr,,,,,1.05,Mt/yr,,,,,16718.965,0.0141
KHM,KHM0004,Cambodia,,,,,Operating,10.68802,104.513143,https://scc.listedcompany.com/supplementary.html,Exact,5035961121.0,Kampot Cement Co Ltd,,,https://scc.listedcompany.com/supplementary.html,2020-06-22,4295892800.0,Siam Cement PCL,,,,,,,,,,,,16718.965,0.0141
KHM,KHM0005,Cambodia,,,,,Operating,10.718817999999999,104.354834,OSM,Exact,,,,,,,,,,,,,,,,,,,,16718.965,0.0141
KHM,KHM0006,Cambodia,Integrated,,Battambang Conch Cement,Battambang,Operating,12.87017,103.014868,GCD,Exact,,,,,,,,,1.8Mt/yr,,,,,1.8,Mt/yr,,,,,16718.965,0.0141
GEO,GEO0002,Georgia,Integrated,Kaspi Plant,CaucasusCement Holding B.V. (HeidelbergCement/ Cement Invest),Kaspi,Operating,41.917342,44.417629999999996,GCD,Exact,,HeidelbergCement Georgia Ltd,,,https://www.heidelbergcement.ge/en/plants-and-companies,2020-02-08,4295868961.0,HeidelbergCement AG,1 Dry - 1Mt/yr (Commissioned December 2018),1.0,DRY,,,1.0,Mt/yr,Zaza Sadunishvili,Tel: +995 32 332 505,Fax: +995 32 331 666,,3989.167,-0.0019
GEO,GEO0003,Georgia,Grinding,Poti Plant,HeidelbergCement Georgia,Poti,Operating,42.161275,41.677186,GCD,Exact,,HeidelbergCement Georgia Ltd,,,https://www.heidelbergcement.ge/en/plants-and-companies,2020-02-08,4295868961.0,HeidelbergCement AG,02Mt/yr,,,,,2.0,Mt/yr,,Tel: +995 322 474 747,Fax: +995 322 470 707,,3989.167,-0.0019
GEO,GEO0004,Georgia,Integrated,Rustavi Plant,HeidelbergCement Georgia,Rustavi,Operating,41.513089,45.047818,GCD,Exact,,HeidelbergCement Georgia Ltd,,,https://www.heidelbergcement.ge/en/plants-and-companies,2020-02-08,4295868961.0,HeidelbergCement AG,3 Wet - 0.6Mt/yr,3.0,WET,,,0.6,Mt/yr,Giorgi Jangveladze,Tel: +995 32 332 505,Fax: +995 32 331 666,,3989.167,-0.0019
GEO,GEO0006,Georgia,,,,,Operating,41.815251,44.850631,OSM,Exact,,,,,,,,,,,,,,,,,,,,3989.167,-0.0019
IND,IND0002,India,Grinding,Sindri Plant,ACC (LafargeHolcim),"ACC Colony, Dhanbad, Jharkhand",Operating,23.663137,86.50055400000001,GCD,Exact,4295872413.0,ACC Ltd,,,https://www.acclimited.com/contact-us,2020-02-09,4295890620.0,LafargeHolcim Ltd,1.0Mt/yr,,,,,1.0,Mt/yr,Sirsendu Adhikari,Tel: +91 32 6224 5120 ( / 054),Fax: +91 32 6224 5515,,1380004.385,0.0099
IND,IND0003,India,Grinding,Bargarh Plant,ACC (LafargeHolcim),"Bardol, Bargarh, Odisha",Operating,21.372104,83.61546,GCD,Exact,4295872413.0,ACC Ltd,,,https://www.acclimited.com/contact-us,2020-02-09,4295890620.0,LafargeHolcim Ltd,1.20Mt/yr,,,,,1.2,Mt/yr,Anil Gajananrao Singewar,Tel: +91 66 4624 6189  ( / 90),Fax: +91 66 4624 6430,,1380004.385,0.0099
IND,IND0004,India,Integrated,Gagal plant,ACC (LafargeHolcim),"Barmana , Bilaspur, Himachal Pradesh",Operating,31.413701,76.83489200000001,GCD,Exact,4295872413.0,ACC Ltd,,,https://www.acclimited.com/contact-us,2020-02-09,4295890620.0,LafargeHolcim Ltd,4.4Mt/yr,,,,,4.4,Mt/yr,Rakesh Sinha,Tel: +91 19 7824 4031,Fax: +91 19 7824 4067,,1380004.385,0.0099
IND,IND0005,India,Integrated,Chanda plant,ACC (LafargeHolcim),"Chanda, Chandrapur, Maharashtra",Operating,19.919045999999998,79.113259,GCD,Exact,4295872413.0,ACC Ltd,,,https://www.acclimited.com/contact-us,2020-02-09,4295890620.0,LafargeHolcim Ltd,3.7Mt/yr,,,,,3.7,Mt/yr,,,,,1380004.385,0.0099
IND,IND0006,India,Integrated,Jamul plant,ACC (LafargeHolcim),"Jamul, Durg, Chhattisgarh",Operating,21.239354000000002,81.383196,GCD,Exact,4295872413.0,ACC Ltd,,,https://www.acclimited.com/contact-us,2020-02-09,4295890620.0,LafargeHolcim Ltd,1.6Mt/yr,,,,,1.6,Mt/yr,Gopika P Tiwari,Tel: +91 78 8229 0569,Fax: +91 78 8229 0576,,1380004.385,0.0099
IND,IND0007,India,Integrated,Chaibasa plant,ACC (LafargeHolcim),"Jhinkpani West Singhbhun, Jharkhand",Operating,22.424460999999997,85.753248,GCD,Exact,4295872413.0,ACC Ltd,,,https://www.acclimited.com/contact-us,2020-02-09,4295890620.0,LafargeHolcim Ltd,0.9Mt/yr (Separate grinding capacity),,,,,0.9,Mt/yr,Sunil Gutpa,Tel: +91 65 8923 5224,Fax: +91 65 8923 5250,,1380004.385,0.0099
IND,IND0008,India,Grinding,Kudithini Plant,ACC (LafargeHolcim),"Kudithini, Bellary, Karnataka",Operating,15.216119,76.781632,GCD,Exact,4295872413.0,ACC Ltd,,,https://www.acclimited.com/contact-us,2020-02-09,4295890620.0,LafargeHolcim Ltd,1.2Mt/yr,,,,,1.2,Mt/yr,M Sai Ramesh,Tel: +91 90 0802 5078,Fax: +91 83 9221 0522,,1380004.385,0.0099
IND,IND0009,India,Integrated,Kymore plant,ACC (LafargeHolcim),"Kymore, Katni, Madhya Pradesh",Operating,24.054744,80.613003,GCD,Exact,4295872413.0,ACC Ltd,,,https://www.acclimited.com/contact-us,2020-02-09,4295890620.0,LafargeHolcim Ltd,2.7Mt/yr,,,,,2.7,Mt/yr,R S Rathore,Tel: +91 76 2627 2301,Fax: +91 76 2627 2303,,1380004.385,0.0099
IND,IND0010,India,Integrated,Lakheri plant,ACC (LafargeHolcim),"Lakheri, Bundi, Rajasthan",Operating,25.670752,76.188927,GCD,Exact,4295872413.0,ACC Ltd,,,https://www.acclimited.com/contact-us,2020-02-09,4295890620.0,LafargeHolcim Ltd,1.5Mt/yr,,,,,1.5,Mt/yr,Umesh Pratap,Tel: +91 74 3826 1642,Fax: +91 74 3826 1504,,1380004.385,0.0099
IND,IND0011,India,Integrated,Madukkarai plant,ACC (LafargeHolcim),"Madukkarai, Coimbatore, Tamil Nadu",Operating,10.906571000000001,76.955751,GCD,Exact,4295872413.0,ACC Ltd,,,https://www.acclimited.com/contact-us,2020-02-09,4295890620.0,LafargeHolcim Ltd,1.1Mt/yr,,,,,1.1,Mt/yr,Ashish Kumar Srivastava,Tel: +91 42 2226 5212,Fax: +91 42 2262 2282,,1380004.385,0.0099
IND,IND0012,India,Grinding,Damodhar Plant,ACC (LafargeHolcim),"Sunuri, Purulia, West Bengal",Operating,23.637114,86.887733,GCD,Exact,4295872413.0,ACC Ltd,,,https://www.acclimited.com/contact-us,2020-02-09,4295890620.0,LafargeHolcim Ltd,0.5Mt/yr,,,,,0.5,Mt/yr,A R Mukherjee,Tel: +91 32 5127 2224,Fax: +91 325 127 2223,,1380004.385,0.0099
IND,IND0013,India,Grinding,Tikaria Plant,ACC (LafargeHolcim),"Tehsil Gauriganj, Sultanpur, Uttar Pradesh",Operating,26.190592000000002,81.706283,GCD,Exact,4295872413.0,ACC Ltd,,,https://www.acclimited.com/contact-us,2020-02-09,4295890620.0,LafargeHolcim Ltd,3.0Mt/yr,,,,,3.0,Mt/yr,A K Saxena,Tel: +91 5368 244 096 ( / 349),Fax: +91 5368 244 479,,1380004.385,0.0099
IND,IND0014,India,Integrated,Thondebhavi plant,ACC (LafargeHolcim),"Thondebhavi, Chickballapur, Karnataka",Operating,13.499151999999999,77.509404,GCD,Exact,4295872413.0,ACC Ltd,,,https://www.acclimited.com/contact-us,2020-02-09,4295890620.0,LafargeHolcim Ltd,1.6Mt/yr,,,,,1.6,Mt/yr,K K Rajeev,Tel: +91 81 5528 8802,Fax: +91 81 5528 8682,,1380004.385,0.0099
IND,IND0015,India,Integrated,Wadi plant,ACC (LafargeHolcim),"Wadi, Gulbarga, Karnataka",Operating,17.062828,76.97830400000001,GCD,Exact,4295872413.0,ACC Ltd,,,https://www.acclimited.com/contact-us,2020-02-09,4295890620.0,LafargeHolcim Ltd,5.8Mt/yr,,,,,5.8,Mt/yr,S B Singh,Tel: +91 84 7620 2239,Fax: +91 84 7620 2190,,1380004.385,0.0099
IND,IND0016,India,Integrated,Adhunik plant,Adhunik Cement (Dalmia Bharat),"Lumshnong, Jaintia Hills, Meghalaya",Operating,25.191689999999998,92.359261,GCD,Exact,5000747519.0,Dalmia Cement (Bharat) Ltd,,,https://www.dalmiacement.com/contact-us.html,2020-02-05,5050706317.0,Dalmia Bharat Ltd,1.5Mt/yr,,,,,1.5,Mt/yr,Nichanametla Padmanabhaiah,Tel: +91 96 1289 5628,,,1380004.385,0.0099
IND,IND0017,India,Grinding,Alcon Plant,Alcon Cement Company,"Surla, Bicholim Taluka, Goa",Operating,15.492270000000001,74.02641899999999,GCD,Exact,,,,,,,,,,,,,,,,,Tel:+91 83 2298 6521,Fax:+91 83 2235 3401,,1380004.385,0.0099
IND,IND0018,India,Integrated,,Ambuja Cements (LafargeHolcim),"Ambuja Nagar, Kodinar, Gujarat",Operating,20.83622,70.69306,GCD,Exact,4295873304.0,Ambuja Cements Ltd,,,https://www.ambujacement.com/contact-us,2020-02-09,4295890620.0,LafargeHolcim Ltd,5.5Mt/yr,,,,,5.5,Mt/yr,Vilas Deshmukh,Tel: +91 27 9524 5161,Fax: +91 27 9523 2629,,1380004.385,0.0099
IND,IND0019,India,Grinding,Bhatinda Plant,Ambuja Cements (LafargeHolcim),"Bhatinda, Punjab",Operating,30.233638,74.912213,GCD,Exact,4295873304.0,Ambuja Cements Ltd,,,https://www.ambujacement.com/contact-us,2020-02-09,4295890620.0,LafargeHolcim Ltd,0.5Mt/yr,,,,,0.5,Mt/yr,Sanjay Vashist,Tel: +91 16 4227 3487 ( / 3850),Fax: +91 16 4227 3484,,1380004.385,0.0099
IND,IND0020,India,Integrated,Darlaghat plant,Ambuja Cements (LafargeHolcim),"Darlaghat, Solan, Himachal Pradesh",Operating,31.258581,76.924968,GCD,Exact,4295873304.0,Ambuja Cements Ltd,,,https://www.ambujacement.com/contact-us,2020-02-09,4295890620.0,LafargeHolcim Ltd,1.6Mt/yr,,,,,1.6,Mt/yr,Chanchal Kuma,Tel: +91 17 9630 6283,,,1380004.385,0.0099
IND,IND0021,India,Grinding,Dadri Plant,Ambuja Cements (LafargeHolcim),"Dhoom Manikpur, GB Nagar, Uttar Pradesh",Operating,28.570512,77.54655600000001,GCD,Exact,4295873304.0,Ambuja Cements Ltd,,,https://www.ambujacement.com/contact-us,2020-02-09,4295890620.0,LafargeHolcim Ltd,1.5Mt/yr - Loesche 56.3+3 C,,,,,1.5,Mt/yr,Rajiv Kumar Sharma,Tel: +91 12 0280 9810,,,1380004.385,0.0099
IND,IND0022,India,Grinding,Sankrail Plant,Ambuja Cements (LafargeHolcim),"Dhulagori, Howrah, West Bengal",Operating,22.569254,88.19422800000001,GCD,Exact,4295873304.0,Ambuja Cements Ltd,,,https://www.ambujacement.com/contact-us,2020-02-09,4295890620.0,LafargeHolcim Ltd,1.5Mt/yr,,,,,1.5,Mt/yr,Arun Kumar Jha,Tel: +91 33 6499 1276 ( / 79),Fax: +91 33 6608 7233,,1380004.385,0.0099
IND,IND0023,India,Grinding,Nalagarh Plant,Ambuja Cements (LafargeHolcim),"Jhajra, Solan, Himachal Pradesh",Operating,31.114069,76.643271,GCD,Exact,4295873304.0,Ambuja Cements Ltd,,,https://www.ambujacement.com/contact-us,2020-02-09,4295890620.0,LafargeHolcim Ltd,1.5Mt/yr - Loesche 56.3+3 C,,,,,1.5,Mt/yr,R Jain,Tel: +91 17 9566 2698 ( / 702),Fax: +91 17 9566 2772 ( / 702),,1380004.385,0.0099
IND,IND0024,India,Grinding,Ropar Plant,Ambuja Cements (LafargeHolcim),"Lodhimajra, Ropar, Punjab",Operating,31.036340000000003,76.56755,GCD,Exact,4295873304.0,Ambuja Cements Ltd,,,https://www.ambujacement.com/contact-us,2020-02-09,4295890620.0,LafargeHolcim Ltd,2.5Mt/yr - Fuller KCP Closed Tube Mill,,,,,2.5,Mt/yr,R C Kothari,Tel: +91 18 8127 2234 ( / 2434),Fax: +91 18 8127 4018,,1380004.385,0.0099
IND,IND0025,India,Grinding,Magdalla Plant,Ambuja Cements (LafargeHolcim),"Magdalla, Surat, Gujarat",Operating,21.139583,72.739127,GCD,Exact,4295873304.0,Ambuja Cements Ltd,,,https://www.ambujacement.com/contact-us,2020-02-09,4295890620.0,LafargeHolcim Ltd,1.2Mt/yr,,,,,1.2,Mt/yr,S Prakash,Tel: +91 26 1272 0780 ( / 0530),Fax: +91 26 1272 0529,,1380004.385,0.0099
IND,IND0026,India,Integrated,Rabriyawas plant,Ambuja Cements (LafargeHolcim),"Rabriyawas, Pali, Rajasthan",Operating,26.29945,74.127123,GCD,Exact,4295873304.0,Ambuja Cements Ltd,,,https://www.ambujacement.com/contact-us,2020-02-09,4295890620.0,LafargeHolcim Ltd,1.8Mt/yr,,,,,1.8,Mt/yr,V V Tank,Tel: +91 29 3928 8011,Fax: +91 29 3928 8030,,1380004.385,0.0099
IND,IND0028,India,Integrated,Bhatapara plant,Ambuja Cements (LafargeHolcim),"Rawan, Baloda Bazar, Chhattisgarh",Operating,21.672501,82.083805,GCD,Exact,4295873304.0,Ambuja Cements Ltd,,,https://www.ambujacement.com/contact-us,2020-02-09,4295890620.0,LafargeHolcim Ltd,2.9Mt/yr,,,,,2.9,Mt/yr,Atul Desai,Tel: +91 77 2722 0010,Fax: +91 77 2722 0041,,1380004.385,0.0099
IND,IND0029,India,Grinding,Roorkee Plant,Ambuja Cements (LafargeHolcim),"Sikandarpu, Haridwar, Uttarkhand",Operating,29.967487,77.769868,GCD,Exact,4295873304.0,Ambuja Cements Ltd,,,https://www.ambujacement.com/contact-us,2020-02-09,4295890620.0,LafargeHolcim Ltd,1.0Mt/yr,,,,,1.0,Mt/yr,B K Jagetiya,Tel: +91 13 3228 2200,Fax: +91 13 3228 2214,,1380004.385,0.0099
IND,IND0030,India,Grinding,Farakka Plant,Ambuja Cements (LafargeHolcim),"Srimantapur, Murshidabad, West Bengal",Operating,24.775292,87.88645,GCD,Exact,4295873304.0,Ambuja Cements Ltd,,,https://www.ambujacement.com/contact-us,2020-02-09,4295890620.0,LafargeHolcim Ltd,1.0Mt/yr,,,,,1.0,Mt/yr,,Tel: +91 34 8525 2840,Fax: +91 34 8525 2281,,1380004.385,0.0099
IND,IND0031,India,Integrated,Awarpur plant,Ambuja Cements (LafargeHolcim),"Upparwahi, Chandrapur, Maharashtra",Operating,19.703919,79.22030600000001,GCD,Exact,4295873304.0,Ambuja Cements Ltd,,,https://www.ambujacement.com/contact-us,2020-02-09,4295890620.0,LafargeHolcim Ltd,4.5Mt/yr,,,,,4.5,Mt/yr,S K Thakur,Tel: +91 71 7326 6323,Fax: +91 71 7326 6339,,1380004.385,0.0099
IND,IND0033,India,Grinding,Visakha Plant,Andhra Cements (UltraTech Cement),"Durga Nagar, Visakhapatnam, Andhra Pradesh",Operating,17.763951000000002,83.194711,GCD,Exact,,,,,,,,,0.6Mt/yr,,,,,0.6,Mt/yr,K Sri Hari,Tel: +91 89 1272 0669,Fax: +91 89 1252 0408,,1380004.385,0.0099
IND,IND0034,India,Integrated,Durga plant,Andhra Cements (JP Group),"Durgapuram, Guntur, Andhra Pradesh",Operating,16.648359,79.702465,GCD,Exact,,,,,,,,,0.9Mt/yr,,,,,0.9,Mt/yr,,Tel: +91 86 4925 7428 ( / 9),Fax: +91 86 4925 7449,,1380004.385,0.0099
IND,IND0035,India,Integrated,Anjani plant,Anjani Portland Cement (Chettinad Cement),"Gudimalkapuram, Nalgonda,Telangana",Operating,16.767007,80.01402399999999,GCD,Exact,,,,,,,,,1.3Mt/yr,,,,,1.3,Mt/yr,N Venkat Raju,Tel: +91 40 2335 3096,Fax: +91 40 2335 3093,,1380004.385,0.0099
IND,IND0036,India,Integrated,Asian plant,Asian Concretes & Cements (ACC),"Manjholi, Solan, Himachal Pradesh",Operating,31.037155,76.629773,GCD,Exact,,,,,,,,,1.3Mt/yr,,,,,1.3,Mt/yr,Jai Dheeraj Chopra,Tel: +91 17 9526 5968,Fax: +91 17 9526 5968,,1380004.385,0.0099
IND,IND0038,India,Integrated,Bagalkot plant,Bagalkot Cement & Industries,"Bagalkot, Bagalkot, Karnataka",Operating,16.17713,75.681411,GCD,Exact,,,,,,,,,0.3Mt/yr,,,,,0.3,Mt/yr,K N Tulsyan,Tel: +91 83 5422 0252,Fax: +91 83 5422 0736,,1380004.385,0.0099
IND,IND0039,India,Integrated,Barak plant,Barak Valley Cement,"Badarpurghat, Karimganj, Assam",Operating,24.865722,92.582104,GCD,Exact,,,,,,,,,0.3Mt/yr,,,,,0.3,Mt/yr,Mukesh Agarwal,Tel: +91 38 4526 9435 ( / 9881),Fax: +91 38 4526 8965,,1380004.385,0.0099
IND,IND0040,India,Integrated,Bharathi plant,Bharathi Cement Corporation (Vicat),"Nallalingayapalli, Kadapa, Andhra Pradesh",Operating,14.586917000000001,78.579757,GCD,Exact,5000716366.0,Bharathi Cement Corp Pvt Ltd,5.0,,http://www.bharathicement.com/contact.php,2020-02-11,4295868605.0,Vicat SA,5.0Mt/yr,,,,,5.0,Mt/yr,B L N Murthy,Tel: +91 85 6320 0400,Fax: +91 85 6330 8080,,1380004.385,0.0099
IND,IND0041,India,Integrated,Bhavya plant,Bhavya Cements,"Thangeda, Guntur, Andhra Pradesh",Operating,16.654684,79.81512,GCD,Exact,,,,,,,,,1.4Mt/yr,,,,,1.4,Mt/yr,U Vijaya Sarathi,Tel: +91 86 4927 3900,Fax: +91 86 4927 3819,,1380004.385,0.0099
IND,IND0042,India,Integrated,Bheema plant,Bheema Cements,"Somajiguda, Hyderabad",Operating,16.844307999999998,79.98997299999999,GCD,Exact,,,,,,,,,0.9Mt/yr,,,,,0.9,Mt/yr,Shri S R B Ramesh Chandra,Tel: +91 40 2342 3270,Fax: +91 40 2331 1413,,1380004.385,0.0099
IND,IND0043,India,Integrated,Binani plant,Binani Cement (UltraTech),"Binanigram, Sirohi, Rajasthan",Operating,24.82232,73.093914,GCD,Exact,4297204326.0,Binani Cement Ltd,6.25,,http://binaniindustries.com/our-business-areas/cement/,2020-08-07,4295872971.0,Grasim Industries Ltd,4.9Mt/yr,,,,,4.9,Mt/yr,R P Sharma,Tel: +91 29 7122 3005,Fax: +91 29 7123 5020,,1380004.385,0.0099
IND,IND0044,India,Grinding,Neem-Ka-Thana Plant,Binani Cement (UltraTech),"Sirohi, Sikar, Rajasthan",Operating,27.693977,75.728868,GCD,Exact,,,,,,,,,1.4Mt/yr,,,,,1.4,Mt/yr,Vijay Kumar Panwar,Tel: +91 15 7451 3476,Fax: +91 15 7451 7476,,1380004.385,0.0099
IND,IND0045,India,Grinding,Raebareli Plant,Birla Corporation,"Amawan Road, Raebareli, Uttar Pradesh",Operating,26.253459000000003,81.250948,GCD,Exact,4295872966.0,Birla Corporation Ltd,1.3,,https://www.birlacorporation.com/plants.html,2020-02-05,4295872966.0,Birla Corporation Ltd,0.6Mt/yr,,,,,0.6,Mt/yr,B K Agarwal,Tel: +91 53 5221 7114,Fax: +91 53 5221 7239,,1380004.385,0.0099
IND,IND0046,India,Integrated,Satna plant,Birla Corporation,"Birla Vikas, Satna, Madhya Pradesh",Operating,24.595585,80.858324,GCD,Exact,4295872966.0,Birla Corporation Ltd,2.2,,https://www.birlacorporation.com/plants.html,2020-02-05,4295872966.0,Birla Corporation Ltd,1.7Mt/yr,,,,,1.7,Mt/yr,P S Marwah,Tel: +91 76 7241 2000,Fax: +91 76 7225 7456,,1380004.385,0.0099
IND,IND0047,India,Grinding,Durgapur Plant,Birla Corporation,"Durgapur, Burdwan, West Bengal",Operating,23.562013,87.23354,GCD,Exact,4295872966.0,Birla Corporation Ltd,2.3,,https://www.birlacorporation.com/plants.html,2020-02-05,4295872966.0,Birla Corporation Ltd,1.6Mt/yr,,,,,1.6,Mt/yr,P C Mathur,Tel: +91 34 3645 4051,Fax: +91 34 3258 5290,,1380004.385,0.0099
IND,IND0048,India,Integrated,Chanderia plant,Birla Corporation,"Madhav Nagar, Chittorgarh, Rajasthan",Operating,24.930920999999998,74.634164,GCD,Exact,4295872966.0,Birla Corporation Ltd,4.0,,https://www.birlacorporation.com/plants.html,2020-02-05,4295872966.0,Birla Corporation Ltd,2.5Mt/yr,,,,,2.5,Mt/yr,Vinod Kumar Hamirwasia,Tel: +91 14 7225 6601,Fax: +91 14 7225 6609,,1380004.385,0.0099
IND,IND0050,India,Integrated,Asansol plant,Burnpur Cement,"Kanayapur, Burdwan, West Bengal",Operating,23.718837,86.954305,GCD,Exact,,,,,,,,,0.3Mt/yr,,,,,0.3,Mt/yr,B K Ladha,Tel: +91 34 1225 0859,Fax: +91 34 1225 0860,,1380004.385,0.0099
IND,IND0051,India,Integrated,Patratu plant,Burnpur Cement,"Patratu, Hazaribagh, Jharkhand",Operating,23.620478,85.274431,GCD,Exact,,,,,,,,,0.3Mt/yr,,,,,0.3,Mt/yr,B K Ladha,,,,1380004.385,0.0099
IND,IND0052,India,Integrated,Calcom plant,Calcom Cement India (Dalmia Bharat),"Jamuna Nagar, Umrangsho, Dima Hasao, Assam",Operating,25.512145,92.764963,GCD,Exact,4297911863.0,Calcom Cement India Ltd,,,https://www.dalmiacement.com/contact-us.html,2020-02-05,5050706317.0,Dalmia Bharat Ltd,0.8Mt/yr,,,,,0.8,Mt/yr,Simanta Roy Choudhury,Tel: +91 36 7425 5404 ( / 5399),Fax: +91 36 7425 5375,,1380004.385,0.0099
IND,IND0053,India,Grinding,Lanka Plant,Calcom Cement India (Dalmia Bharat),"Lanka, Assam",Operating,25.891479,92.975349,GCD,Exact,4297911863.0,Calcom Cement India Ltd,,,https://www.dalmiacement.com/contact-us.html,2020-02-05,5050706317.0,Dalmia Bharat Ltd,1.7Mt/yr,,,,,1.7,Mt/yr,,,,,1380004.385,0.0099
IND,IND0055,India,Integrated,Bokajan plant,Cement Corporation of India,"Bokajan, Karbi-Anglong, Assam",Operating,26.020467,93.766061,GCD,Exact,5000930578.0,Cement Corp Of India Ltd,,,https://cciltd.in/page.php?id=75,2020-03-13,5000930578.0,Cement Corp Of India Ltd,Dry - 0.2Mt/yr,,,,,0.2,Mt/yr,,Tel: +91 36 7524 6106,Fax: +91 36 7524 6107,,1380004.385,0.0099
IND,IND0056,India,Integrated,Tandur plant,Cement Corporation of India,"Tandur, Raipur, Chattisgarh",Operating,17.333482,77.484197,GCD,Exact,5000930578.0,Cement Corp Of India Ltd,,,https://cciltd.in/page.php?id=81,2020-03-13,5000930578.0,Cement Corp Of India Ltd,Dry - 1.0Mt/yr,,,,,1.0,Mt/yr,V K Pandey,Tel: +91 84 1124 7240,Fax: +91 84 1124 7243,,1380004.385,0.0099
IND,IND0057,India,Integrated,Rajban plant,Cement Corporation of India,"Rajban, Sirmaur, Himachal Pradesh",Operating,30.521323,77.661101,GCD,Exact,5000930578.0,Cement Corp Of India Ltd,,,https://cciltd.in/page.php?id=76,2020-03-13,5000930578.0,Cement Corp Of India Ltd,Dry - 0.2Mt/yr,,,,,0.2,Mt/yr,A K Srivastava,Tel: +91 17 0426 6221 ( / 22 2383),Fax: +91 17 0426 6270,,1380004.385,0.0099
IND,IND0058,India,Integrated,Amrit plant,Cement Industries,"Rymbai, Jaintia Hills, Meghalaya",Operating,25.242787,92.34565400000001,GCD,Exact,,,,,,,,,1.0Mt/yr,,,,,1.0,Mt/yr,Ramesh Erukulla,Tel: +91 36 4230 7077,,,1380004.385,0.0099
IND,IND0061,India,Integrated,Century Cement plant,Century Cement (UltraTech),"Baikunth, Raipur, Chattisgarh",Operating,21.497474,81.78279,GCD,Exact,,Century Cement,2.4,1974.0,http://birlagoldcement.com/our-plants#plantsdropdown,2020-02-17,4295873184.0,Century Textile and Industries Ltd,2.1Mt/yr,,,,,2.1,Mt/yr,Alok Patni,Tel: +91 77 2126 1222,Fax: +91 77 2126 1229,,1380004.385,0.0099
IND,IND0062,India,Integrated,Manikgarh plant,Century Cement (UltraTech),"Gadchandur, Chandrapur, Maharashtra",Operating,19.724394,79.176075,GCD,Exact,,Century Cement,6.0,1987.0,http://birlagoldcement.com/our-plants#plantsdropdown,2020-02-17,4295873184.0,Century Textile and Industries Ltd,2 - 2.2Mt/yr,,,,,2.2,Mt/yr,P S Bakshi,Tel: +91 71 7324 6840,Fax: +91 7173 246 485,,1380004.385,0.0099
IND,IND0063,India,Integrated,Sonar Bangla plant,Century Cement (UltraTech),"Gankar, Murshidabad, West Bengal",Operating,24.388462,88.083237,GCD,Exact,,Century Cement,2.0,2013.0,http://birlagoldcement.com/our-plants#plantsdropdown,2020-02-17,4295873184.0,Century Textile and Industries Ltd,1.5Mt/yr,,,,,1.5,Mt/yr,A K Panja,Tel: +91 38 4323 7129,Fax: +91 38 4323 7140,,1380004.385,0.0099
IND,IND0064,India,Integrated,Maihar plant,Century Cement (UltraTech),"Sarlanagar, Satna, Madhya Pradesh",Operating,24.202644,80.799867,GCD,Exact,,Century Cement,4.2,1979.0,http://birlagoldcement.com/our-plants#plantsdropdown,2020-02-17,4295873184.0,Century Textile and Industries Ltd,4.2Mt/yr,,,,,4.2,Mt/yr,R K Vaishnavi,Tel: +91 76 7427 7067,Fax: +91 76 7427 7806,,1380004.385,0.0099
IND,IND0065,India,Integrated,Kallur plant,Chettinad Cement,"Bhaktampalli, Gulbarga, Karnataka",Operating,17.370099,77.445669,GCD,Exact,4295872681.0,Chettinad Cement Corporation Pvt Ltd,,,https://www.chettinad.com/cements_plants.php?site=Kallur,2020-02-06,4295872681.0,Chettinad Cement Corporation Pvt Ltd,2.0Mt/yr (Expansion to 5.8Mt/yr announced in 2014),,,,,2.0,Mt/yr,A M Seetharamaih,Tel: +91 94 8083 2600,Fax: +91 94 7527 3019,,1380004.385,0.0099
IND,IND0066,India,Integrated,Karikkali plant,Chettinad Cement,"Karikkali, Dindigul, Tamil Nadu",Operating,10.712664,78.09319,GCD,Exact,4295872681.0,Chettinad Cement Corporation Pvt Ltd,4.5,,https://www.chettinad.com/cements_plants.php?site=Karikkali,2020-02-06,4295872681.0,Chettinad Cement Corporation Pvt Ltd,4.3Mt/yr,,,,,4.3,Mt/yr,N Muthusamy,Tel: +91 45 5123 4441 ( / 23 4431),Fax: +91 45 5123 4608,,1380004.385,0.0099
IND,IND0067,India,Integrated,Ariyalur plant,Chettinad Cement,"Keelapaluvur, Ariyalur, Tamil Nadu",Operating,11.058644000000001,79.063006,GCD,Exact,4295872681.0,Chettinad Cement Corporation Pvt Ltd,,,https://www.chettinad.com/cements_plants.php?site=Ariyalur,2020-02-06,4295872681.0,Chettinad Cement Corporation Pvt Ltd,5.5Mt/yr,,,,,5.5,Mt/yr,V Ganesan,Tel: +91 43 2924 7774 ( / 25 0004),Fax: +91 43 2925 0011,,1380004.385,0.0099
IND,IND0068,India,Integrated,Puliyur plant,Chettinad Cement,"Puliyur Cement, Karur, Tamil Nadu",Operating,10.937116,78.152888,GCD,Exact,4295872681.0,Chettinad Cement Corporation Pvt Ltd,1.7,,https://www.chettinad.com/cements_plants.php?site=Puliyur,2020-02-06,4295872681.0,Chettinad Cement Corporation Pvt Ltd,1.7Mt/yr,,,,,1.7,Mt/yr,A Annadurai,Tel: +91 43 2425 1354 ( / 55 / 56),Fax: +91 43 2425 1356,,1380004.385,0.0099
IND,IND0069,India,Grinding,Ahuja Plant,Chettinad Cement,"Solapur, Maharashtra",Operating,17.530245999999998,76.040366,GCD,Exact,4295872681.0,Chettinad Cement Corporation Pvt Ltd,,,https://www.chettinad.com/cements_plants.php?site=Solapur,2020-02-06,4295872681.0,Chettinad Cement Corporation Pvt Ltd,2Mt/yr,,,,,2.0,Mt/yr,Dhanunjaya Jagdale,Tel: +7770017412,,,1380004.385,0.0099
IND,IND0072,India,Integrated,Shriram plant,DCM Shriram Consolidated,"Shriram Nagar, Kota, Rajasthan",Operating,25.134755,75.889485,GCD,Exact,,,,,,,,,0.4Mt/yr,,,,,0.4,Mt/yr,K K Kaul,Tel: +91 74 4248 0001,Fax: +91 74 4248 0003,,1380004.385,0.0099
IND,IND0073,India,Integrated,Kadapa plant,Dalmia Bharat,"Chinna Komerla, Kadapa, Andhra Pradesh",Operating,14.932014,78.339902,GCD,Exact,5000747519.0,Dalmia Cement (Bharat) Ltd,,,https://www.dalmiacement.com/contact-us.html,2020-02-05,5050706317.0,Dalmia Bharat Ltd,2.5Mt/yr,,,,,2.5,Mt/yr,Anil Bajaj,Tel: +91 85 6027 2431 ( / 2434),Fax: +91 85 6027 2420,,1380004.385,0.0099
IND,IND0074,India,Integrated,,Dalmia Bharat,"Dalmiapuram, Tamil Nadu",Operating,10.968100999999999,78.947252,GCD,Exact,5000747519.0,Dalmia Cement (Bharat) Ltd,,,https://www.dalmiacement.com/contact-us.html,2020-02-05,5050706317.0,Dalmia Bharat Ltd,2.5Mt/yr,,,,,2.5,Mt/yr,Krishna Kumar,Tel: +91 43 2923 5382,Fax: +91 43 2923 5111,,1380004.385,0.0099
IND,IND0075,India,Integrated,Ariyalur plant,Dalmia Bharat,"Thamaraikulam, Ariyalur, Tamil Nadu",Operating,11.182995,79.09975,GCD,Exact,5000747519.0,Dalmia Cement (Bharat) Ltd,,,https://www.dalmiacement.com/contact-us.html,2020-02-05,5050706317.0,Dalmia Bharat Ltd,4.0Mt/yr,,,,,4.0,Mt/yr,Krishna Kumar,Tel: +91 43 2929 4418,,,1380004.385,0.0099
IND,IND0076,India,Grinding,Bokaro Plant,Dalmia Bharat,"Balidih, Bokaro, Jharkhand",Operating,23.700238,86.063099,GCD,Exact,5000747519.0,Dalmia Cement (Bharat) Ltd,,,https://www.dalmiacement.com/contact-us.html,2020-02-05,5050706317.0,Dalmia Bharat Ltd,2.1Mt/yr,,,,,2.1,Mt/yr,Ashok Sharma,Tel: +91 65 4225 3278 ( / 79),Fax: +91 65 4225 3032,,1380004.385,0.0099
IND,IND0077,India,Integrated,Goa plant,Dalmia Bharat Cement,"Belgaum, Karnataka",Operating,16.204723,75.209295,GCD,Exact,5000747519.0,Dalmia Cement (Bharat) Ltd,,,https://www.dalmiacement.com/contact-us.html,2020-02-05,5050706317.0,Dalmia Bharat Ltd,2.5Mt/yr,,,,,2.5,Mt/yr,,,,,1380004.385,0.0099
IND,IND0078,India,Integrated,Deccan plant,Deccan Cements,"Bhavanipurma, Nalgonda, Telangana",Operating,16.711862,79.711104,GCD,Exact,,,,,,,,,1.8Mt/yr,,,,,1.8,Mt/yr,S Venkateswarlu,Tel: +91 86 8322 9503,Fax: +91 86 8322 9502,,1380004.385,0.0099
IND,IND0079,India,Grinding,,Emami Cement,"Panagarh, West Bengal",Operating,23.439328,87.51119,GCD,Exact,,,,,,,,,2.0Mt/yr (Opening January 2017),,,,,2.0,Mt/yr,,,,,1380004.385,0.0099
IND,IND0080,India,Integrated,Kadapa plant,Emami Cement,"Risdar, Chhattisgarh",Operating,21.63125,82.110036,GCD,Exact,,,,,,,,,5.5Mt/yr,,,,,5.5,Mt/yr,,Tel: +91 77 2722 2033,,,1380004.385,0.0099
IND,IND0081,India,Grinding,Duvvada Slag Plant,Encore Cement & Additives (ACC),"Duvvada, Vishakhapatanam, Andhra Pradesh",Operating,17.709591,83.154501,GCD,Exact,,,,,,,,,0.4Mt/yr,,,,,0.4,Mt/yr,N Nageshwara Rao,Tel: +91 89 1251 0344,Fax: +91 89 1251 0344,,1380004.385,0.0099
IND,IND0082,India,Integrated,Max plant,Green Valley Industries,"Chiehruphi, Jaintia Hills, Meghalaya",Operating,25.240013,92.390906,GCD,Exact,,,,,,,,,1.0Mt/yr,,,,,1.0,Mt/yr,Vineet Agarwal,Tel: +91 33 2282 7367 ( / 7368),Fax: +91 33 2282 8307,,1380004.385,0.0099
IND,IND0083,India,Integrated,Sidheegram plant,Gujarat Sidhee Cement,"Sidheegram, Junagadh, Gujarat",Operating,20.867858,70.564701,GCD,Exact,,,,,,,,,1.2Mt/yr,,,,,1.2,Mt/yr,K K Vasavada,Tel: +91 28 7628 6530,Fax: +91 28 7628 6540,,1380004.385,0.0099
IND,IND0085,India,Integrated,Ammasandra plant,HeidelbergCement India,"Ammasandra, Tumkur, Karnataka",Operating,13.270220000000002,76.723122,GCD,Exact,4295872429.0,Heidelbergcement India Ltd,,,http://www.mycemco.com/plants-overview-capacities,2020-02-08,4295868961.0,HeidelbergCement AG,0.6Mt/yr,,,,,0.6,Mt/yr,Gopi Ranganath,Tel: +91 81 3927 8656,Fax: +91 81 3927 8375,,1380004.385,0.0099
IND,IND0086,India,Grinding,Imlai Plant Jhansi Plant,HeidelbergCement India HeidelbergCement India,"Imlai, Damoh, Madhya Pradesh Madora, Jhansi, Uttar Pradesh",Operating,23.863185,79.42625100000001,GCD,Exact,,,,,,,,,1.0Mt/yr 2.7Mt/yr,,,,,1.0,Mt/yr,Kailash Singh S Gupta,Tel: +91 76 0124 1301 ( / 02 / 05) Tel: +91 51 0275 0545 ( / 0549),Fax: +91 76 0124 1235 Fax: +91 51 0275 0544,,1380004.385,0.0099
IND,IND0087,India,Grinding,Jhansi Plant,HeidelbergCement India,"Madora, Jhansi, Uttar Pradesh",Operating,25.499517,78.71143599999999,GCD,Exact,4295872429.0,Heidelbergcement India Ltd,,,http://www.mycemco.com/plants-overview-capacities,2020-02-08,4295868961.0,HeidelbergCement AG,2.7Mt/yr,,,,,2.7,Mt/yr,,Tel: +91 5102 750545/ 0549,Fax: +91 5102 750544,,1380004.385,0.0099
IND,IND0088,India,Integrated,Narsingarh plant,HeidelbergCement India,"Narsingarh, Rajgarh, Madhya Pradesh",Operating,23.990282,79.392584,GCD,Exact,4295872429.0,Heidelbergcement India Ltd,,,http://www.mycemco.com/plants-overview-capacities,2020-02-08,4295868961.0,HeidelbergCement AG,3.1Mt/yr (Clinker),,,,,3.1,Mt/yr,Sanjeev Gupta,Tel: +91 76 0124 1301,Fax: +91 77 2628 8208,,1380004.385,0.0099
IND,IND0089,India,Integrated,,Hills Cement Company,"Mynkee, Jaintia Hills, Meghalaya",Operating,25.225076,92.388161,GCD,Exact,,,,,,,,,1.0Mt/yr,,,,,1.0,Mt/yr,Kunal Mittal,Tel: +91 36 1273 3938 / 5527,Fax: +91 36 1273 3939,,1380004.385,0.0099
IND,IND0096,India,Integrated,Gotan plant,JK Cement Ltd,"Gotan, Nagaur, Rajasthan",Operating,26.644668,73.727432,GCD,Exact,4295873446.0,J K Cement Ltd,,,https://www.jkcement.com/l-plant_locator,2020-02-06,4295873446.0,J K Cement Ltd,0.6Mt/yr (White),,,,,0.6,Mt/yr,,Tel: +91 15 91 23 0201,Fax: +91 15 9123 0206,,1380004.385,0.0099
IND,IND0097,India,Grinding,Jhajjar Plant,JK Cement Ltd,"Jhajjar, Haryana",Operating,28.490245,76.386299,GCD,Exact,4295873446.0,J K Cement Ltd,,,https://www.jkcement.com/l-plant_locator,2020-02-06,4295873446.0,J K Cement Ltd,1.5Mt/yr,,,,,1.5,Mt/yr,,,,,1380004.385,0.0099
IND,IND0098,India,Integrated,Nimbahera plant,JK Cement Ltd,"Kailash Nagar, Chittorgarh, Rajasthan",Operating,24.642507000000002,74.684476,GCD,Exact,4295873446.0,J K Cement Ltd,,,https://www.jkcement.com/l-plant_locator,2020-02-06,4295873446.0,J K Cement Ltd,3.3Mt/yr,,,,,3.3,Mt/yr,D Ravishankar,Tel: +91 14 7722 0087,Fax: +91 14 7722 0027,,1380004.385,0.0099
IND,IND0099,India,Integrated,Mangrol plant,JK Cement Ltd,"Mangrol, Chittorgarh, Rajasthan",Operating,24.695595,74.684612,GCD,Exact,4295873446.0,J K Cement Ltd,,,https://www.jkcement.com/l-plant_locator,2020-02-06,4295873446.0,J K Cement Ltd,1.0Mt/yr (Plans to increase to 3.0Mt/yr),,,,,1.0,Mt/yr,D Ravishankar,Tel: +91 14 7724 6324,Fax: +91 14 7722 0027,,1380004.385,0.0099
IND,IND0100,India,Integrated,Muddapur plant,JK Cement Ltd,"Muddapur, Bagalkot, Karnataka",Operating,16.205970999999998,75.298457,GCD,Exact,4295873446.0,J K Cement Ltd,,,https://www.jkcement.com/l-plant_locator,2020-02-06,4295873446.0,J K Cement Ltd,3.0Mt/yr,,,,,3.0,Mt/yr,Shabbir Khan,Tel: +91 83 5028 9000,Fax: +91 83 5028 0710,,1380004.385,0.0099
IND,IND0102,India,Integrated,Durg plant,JK Lakshmi Cement,"Durg, Chhattisgarh",Operating,21.372294,81.45013399999999,GCD,Exact,4295872438.0,JK Lakshmi Cement Ltd,,,http://www.jklakshmicement.com/contact-us/,2020-02-06,4295872438.0,JK Lakshmi Cement Ltd,1.7Mt/yr,,,,,1.7,Mt/yr,D K Mehta,,,,1380004.385,0.0099
IND,IND0103,India,Integrated,Sirohi plant,JK Lakshmi Cement,"Jaykaypuram, Sirohi, Rajasthan",Operating,24.690620000000003,73.002276,GCD,Exact,4295872438.0,JK Lakshmi Cement Ltd,,,https://www.jklakshmicement.com/about-jklc/,2020-02-06,4295872438.0,JK Lakshmi Cement Ltd,4.2Mt/yr,,,,,4.2,Mt/yr,P L Mehta,Tel: +91 29 7124 4409 ( / 10),Fax: +91 29 7124 4417,,1380004.385,0.0099
IND,IND0104,India,Grinding,,JK Lakshmi Cement,"Jhajjar, Haryana",Operating,28.495110999999998,76.358152,GCD,Exact,4295872438.0,JK Lakshmi Cement Ltd,,,http://www.jklakshmicement.com/contact-us/,2020-02-06,4295872438.0,JK Lakshmi Cement Ltd,0.6Mt/yr,,,,,0.6,Mt/yr,,Tel: +91 12 5120 1011 ( / 14),,,1380004.385,0.0099
IND,IND0106,India,Grinding,Kalol Plant,JK Lakshmi Cement,"Moti Bhoyan, Gandhi Nagar, Gujarat",Operating,23.176764000000002,72.442047,GCD,Exact,4295872438.0,JK Lakshmi Cement Ltd,,,http://www.jklakshmicement.com/contact-us/,2020-02-06,4295872438.0,JK Lakshmi Cement Ltd,0.6Mt/yr,,,,,0.6,Mt/yr,Naveen Kumar Sharma,Tel: +91 27 6428 1939,Fax: +91 27 6428 1940,,1380004.385,0.0099
IND,IND0108,India,Integrated,Nandyal plant,JSW Cement,"Bilakalguduru, Kurnool, Andhra Pradesh",Operating,15.686282,78.458991,GCD,Exact,4298071860.0,JSW Cement Ltd,4.8,,https://www.jsw.in/cement/about-nandyal-works,2020-02-06,4298071860.0,JSW Cement Ltd,4.8Mt/yr (Slag cement) 2.2Mt/yr (Clinker),,,,,4.8,Mt/yr,G Veerababu,Tel: +91 85 1420 2301 (to 08),,,1380004.385,0.0099
IND,IND0109,India,Grinding,Dolvi Plant,JSW Cement,"Gadab, Raigad, Maharashtra",Operating,18.682154999999998,73.03803,GCD,Exact,4298071860.0,JSW Cement Ltd,0.97,,https://www.jsw.in/cement/about-dolvi-works,2020-02-06,4298071860.0,JSW Cement Ltd,1.0Mt/yr,,,,,1.0,Mt/yr,P S Murthy,Tel: +91 21 4327 7601 ( / 02),Fax: +91 21 4327 7725,,1380004.385,0.0099
IND,IND0112,India,Integrated,Vijaynagar plant,JSW Cement,"Vidhyanagar, Bellary, Karnataka",Operating,15.179579,76.70030600000001,GCD,Exact,4298071860.0,JSW Cement Ltd,0.6,,https://www.jsw.in/cement/about-vijaynagar-works,2020-02-06,4298071860.0,JSW Cement Ltd,0.7Mt/yr (Portland slag cement only),,,,,0.7,Mt/yr,R C Sodani,Tel: +91 83 9525 0120 ( / 30),Fax: +91 83 9524 1003,,1380004.385,0.0099
IND,IND0115,India,Integrated,Best plant,JUD Cement,"Wahiajer, Jaintia Hills, Meghalaya",Operating,25.192404999999997,92.400015,GCD,Exact,,,,,,,,,0.5Mt/yr (Expanding to 2.0Mt/yr),,,,,0.5,Mt/yr,,Tel: +91 36 5529 0501 ( / 05),Fax: +91 36 1246 4385,,1380004.385,0.0099
IND,IND0116,India,Integrated,Jaypee Sidhi plant,UltraTech Cement,"Bharathpur, Sidhi, Madhya Pradesh",Operating,24.327417999999998,81.329448,GCD,Exact,4295873970.0,UltraTech Cement Ltd,,,https://www.ultratechcement.com/investors/plant-location.php,2020-02-05,4295872971.0,Grasim Industries Ltd,2.0Mt/yr,,,,,2.0,Mt/yr,Upendra Mishra,Tel: +91 78 0227 6701 (to 09),Fax: +91 78 0227 6715,,1380004.385,0.0099
IND,IND0117,India,Grinding,Bhilai Jaypee Plant,Jaiprakash Associates,"Bhilai, Durg, Chhattisgarh",Operating,21.184966,81.361747,GCD,Exact,,,,,,,,,2.2Mt/yr,,,,,2.2,Mt/yr,A R Verma,Tel: +91 78 8402 2255 ( / 56),Fax: +91 78 8402 2216,,1380004.385,0.0099
IND,IND0118,India,Grinding,Chunar Plant,UltraTech Cement,"Chunar, Mirzapur, Uttar Pradesh",Operating,25.087704000000002,82.90258399999999,GCD,Exact,,,,,,,,,2.5Mt/yr,,,,,2.5,Mt/yr,B R R Bali,Tel: +91 54 4322 2265 ( / 2602),Fax: +91 54 4322 2700,,1380004.385,0.0099
IND,IND0119,India,Integrated,Dalla plant,UltraTech Cement,"Dalla, Sonebhadra, Uttar Pradesh",Operating,24.449401,83.039567,GCD,Exact,4295873970.0,UltraTech Cement Ltd,,,https://www.ultratechcement.com/investors/plant-location.php,2020-02-05,4295872971.0,Grasim Industries Ltd,0.5Mt/yr (Expansion to 2.0Mt/yr announced in 2015),,,,,0.5,Mt/yr,Ajay Sharma,Tel: +91 54 4526 5801 ( / 02),Fax: +91 54 4526 5776,,1380004.385,0.0099
IND,IND0120,India,Integrated,Jaypee Rewa plant,UltraTech Cement,"Jaypee Nagar, Rewa, Madhya Pradesh",Operating,24.565587,81.17643299999999,GCD,Exact,5035959433.0,Jaypee Cement Corporation Ltd,,,http://www.jalindia.com/geographicalspread.html,2020-02-06,4295872628.0,Jaiprakash Associates Ltd,3.2Mt/yr,,,,,3.2,Mt/yr,G V Bhat,Tel: +91 76 6222 9212 (to 17),Fax: +91 76 6222 9218,,1380004.385,0.0099
IND,IND0121,India,Integrated,Jaypee Bela plant,UltraTech Cements,"Jaypeepuram, Rewa, Madhya Pradesh",Operating,24.528559,81.16901899999999,GCD,Exact,4295873970.0,UltraTech Cement Ltd,,,https://www.ultratechcement.com/investors/plant-location.php,2020-02-05,4295872971.0,Grasim Industries Ltd,2.2Mt/yr,,,,,2.2,Mt/yr,R K Singh,Tel: +91 76 62409301-08,Fax: +91 76 62 409309,,1380004.385,0.0099
IND,IND0122,India,Grinding,Jaypee Ayodhya Plant,UltraTech Cement,"Khanaura, Husainpur Sudhana, Ambedkar Nagar, Uttar Pradesh",Operating,26.576622999999998,82.584652,GCD,Exact,,,,,,,,,1Mt/yr,,,,,1.0,Mt/yr,B Rakesh Kumar,Tel: +91 52 7328 4809 ( / 1020 / 1015),Fax: +91 52 7328 4609,,1380004.385,0.0099
IND,IND0123,India,Grinding,Jaypee Himachal Plant,UltraTech Cement,"Khilian, Solan, Himachal",Operating,31.197965000000003,76.629839,GCD,Exact,,,,,,,,,2Mt/yr,,,,,2.0,Mt/yr,,Tel: +91 17 9522 9100 ( / 6 6937 / 6 6935),Fax: +91 17 9522 9159,,1380004.385,0.0099
IND,IND0124,India,Integrated,Jaypee Balaji plant,UltraTech Cement,"P.O. Budawada, Krishna, Andhra Pradesh",Operating,16.871085,80.021716,GCD,Exact,4295873970.0,UltraTech Cement Ltd,,,https://www.ultratechcement.com/investors/plant-location.php,2020-02-05,4295872971.0,Grasim Industries Ltd,5.0Mt/yr,,,,,5.0,Mt/yr,,Tel: +91 86 5428 5011 ( / 18),Fax: +91 86 5428 5010,,1380004.385,0.0099
IND,IND0125,India,Integrated,Jaypee Sadwa plant,UltraTech Cement,"Sadwa Khurd, Allahabad, Uttar Pradesh",Operating,25.229553,81.78150600000001,GCD,Exact,,,,,,,,,0.6Mt/yr,,,,,0.6,Mt/yr,S S Chauhan,Tel: +91 53 2242 5012,,,1380004.385,0.0099
IND,IND0126,India,Grinding,Jaypee Wanakbori Plant,Jaiprakash Associates,"Sangol, Sonipur, Kheda, Gujarat M J Kapur",Operating,22.86688,73.360916,GCD,Exact,,,,,,,,,2.4Mt/yr - Pfeiffer Vertical Roller Mills - 2x (MPS 4750 BC),,,,,2.4,Mt/yr,,Tel: +91 26 9923 2000,Fax: +91 26 9923 6881,,1380004.385,0.0099
IND,IND0127,India,Integrated,Jaypee Shahabad plant,Jaiprakash Associates,"Shahabad, Gulbarga, Karnataka",Operating,17.136362,76.945424,GCD,Exact,,,,,,,,,0.6Mt/yr,,,,,0.6,Mt/yr,,Tel: +91 84 7420 4074 ( / 75),,,1380004.385,0.0099
IND,IND0128,India,Integrated,Khrew plant,Jammu & Kashmir Cements,"Khrew, Pulwama, Jammu & Kashmir",Operating,34.032635,75.01564300000001,GCD,Exact,,,,,,,,,0.4Mt/yr,,,,,0.4,Mt/yr,G H Sofi,Tel: +91 19 3324 5324 ( / 25),Fax: +91 19 3324 5324,,1380004.385,0.0099
IND,IND0129,India,Integrated,Unit I plant,KCP,"Macherla, Guntur, Andhra Pradesh",Operating,16.468871,79.435689,GCD,Exact,,,,,,,,,0.8Mt/yr,,,,,0.8,Mt/yr,VVS Choudhary,Tel: +91 86 4222 2303,Fax: +91 86 4222 2350,,1380004.385,0.0099
IND,IND0130,India,Integrated,Unit I plant,KCP,"Muktyala, Krishna, Andhra Pradesh",Operating,16.837636,80.063456,GCD,Exact,,,,,,,,,1.8Mt/yr,,,,,1.8,Mt/yr,G V K Prasad,Tel: +91 86 5429 6006,Fax: +91 86 5429 6009,,1380004.385,0.0099
IND,IND0132,India,Integrated,Banjari plant,"Kalyanpur Cements (OCL Ltd, Dalmia Cement)","Banjari, Rohtas, Bihar",Operating,24.670568,83.9891,GCD,Exact,4296876157.0,Kalyanpur Cements Ltd,,,https://www.dalmiacement.com/contact-us.html,2020-02-05,5050706317.0,Dalmia Bharat Ltd,1.0Mt/yr,,,,,1.0,Mt/yr,D M Sinha,Tel: +91 61 8823 3215,Fax: +91 61 8823 3242,,1380004.385,0.0099
IND,IND0133,India,Integrated,Keerthi plant,Keerthi Industries,"Mellacheruvu, Nalgonda, Telangana",Operating,16.798253,79.91290500000001,GCD,Exact,,,,,,,,,0.6Mt/yr,,,,,0.6,Mt/yr,JS Reo,Tel: +91 95 5330 2366,Fax: +91 40 2307 9867,,1380004.385,0.0099
IND,IND0134,India,Integrated,Kesoram plant,Kesoram Industries,"Basant Nagar, Karimnagar, Telangana",Operating,18.712203,79.404569,GCD,Exact,4295872768.0,Kesoram Industries Ltd,,,https://www.kesocorp.com/DOCS/contact_us.php,2020-03-13,4295872768.0,Kesoram Industries Ltd,1.5Mt/yr,,,,,1.5,Mt/yr,K C Jain,Tel: +91 87 2822 8121,Fax: +91 87 2822 8160,,1380004.385,0.0099
IND,IND0135,India,Integrated,Vasavadatta plant,Kesoram Industries,"Sedam, Gulbarga, Karnataka",Operating,17.160018,77.293503,GCD,Exact,4295872768.0,Kesoram Industries Ltd,,,https://www.kesocorp.com/DOCS/contact_us.php,2020-03-13,4295872768.0,Kesoram Industries Ltd,5.8Mt/yr,,,,,5.8,Mt/yr,K C Jain,Tel: +91 84 4127 6005 ( / 6391),Fax: +91 84 4127 6193,,1380004.385,0.0099
IND,IND0137,India,Integrated,Khyber plant,Khyber Industries,"Khonmoh, Srinagar, Jammu & Kashmir",Operating,34.077496999999994,74.97535500000001,GCD,Exact,,,,,,,,,0.4Mt/yr,,,,,0.4,Mt/yr,Manzoor Ahmed Mir,Tel: +91 19 4245 0174,Fax: +91 19 4247 1133,,1380004.385,0.0099
IND,IND0138,India,Integrated,Arasmeta plant,Nirma (Nuvoco Vistas Corporation),"Gopalnagar, Janjgir, Champa, Chhattisgarh",Operating,21.969431,82.35143199999999,GCD,Exact,4296754082.0,Nuvoco Vistas Corporation Ltd,,,https://nuvoco.in/manufacturing-units/,2020-02-06,4295872891.0,Nirma Ltd,1.6Mt/yr,,,,,1.6,Mt/yr,Sanjay Joshi,Tel: +91 98 9349 7147,Fax: +91 78 1723 3286,,1380004.385,0.0099
IND,IND0139,India,Grinding,Mejia Plant,Lafarge India (LafargeHolcim),"Mejia, Bankura, West Bengal",Operating,23.461907,87.120726,GCD,Exact,4296754082.0,Nuvoco Vistas Corporation Ltd,,,https://nuvoco.in/manufacturing-units/,2020-02-06,4295872891.0,Nirma Ltd,1.0Mt/yr,,,,,1.0,Mt/yr,,Tel: +91 32 4126 2078 ( / 2571),Fax: +91 32 4126 2688,,1380004.385,0.0099
IND,IND0140,India,Grinding,Jojobera Plant,Lafarge India (LafargeHolcim),"Rahargora, Jamshedpur, Jharkhand",Operating,22.753764999999998,86.245522,GCD,Exact,4296754082.0,Nuvoco Vistas Corporation Ltd,,,https://nuvoco.in/manufacturing-units/,2020-02-06,4295872891.0,Nirma Ltd,4.6Mt/yr - Loesche 53.3+3 C/S,,,,,4.6,Mt/yr,Ramesh Warke,Tel: +91 65 7227 7252 ( / 53),Fax: +91 65 7227 7239,,1380004.385,0.0099
IND,IND0141,India,Integrated,Sonadih plant,Nirma (Nuvoco Vistas Corporation),"Raseda, Baloda Bazar, Chhattisgarh",Operating,21.730339999999998,82.212864,GCD,Exact,4296754082.0,Nuvoco Vistas Corporation Ltd,,,https://nuvoco.in/manufacturing-units/,2020-02-06,4295872891.0,Nirma Ltd,0.6Mt/yr,,,,,0.6,Mt/yr,Ashish Palod,Tel: (+91) 9993 - 01191,Fax: (+91) 7727 - 272230,,1380004.385,0.0099
IND,IND0142,India,Grinding,Cherthala Plant,Malabar Cement,"Pallippuram, Alappuzha, Kerala",Operating,9.748529,76.362414,GCD,Exact,5001088052.0,Malabar Cements,0.2,,https://www.malabarcements.co.in/en/contactdetails,2020-02-22,5001088052.0,Malabar Cements,0.2Mt/yr,,,,,0.2,Mt/yr,K Padmakumar,Tel: +91 47 8255 2186 ( / 255 3688),Fax: +91 47 8255 3417,,1380004.385,0.0099
IND,IND0144,India,Integrated,Walayar plant,Malabar Cement,"Walayar, Palakkad, Kerala",Operating,10.848197,76.835789,GCD,Exact,5001088052.0,Malabar Cements,0.66,,https://www.malabarcements.co.in/en/history-1,2020-02-22,5001088052.0,Malabar Cements,0.4Mt/yr,,,,,0.4,Mt/yr,V B Ramachandran Nair,Tel: +91 49 1286 2373 ( / 3600),Fax: +91 49 1286 2230,,1380004.385,0.0099
IND,IND0145,India,Integrated,Morak plant,Managalam Cement,"Adityanagar, Kota, Rajasthan",Operating,24.715120000000002,75.953886,GCD,Exact,,,,,,,,,1.0Mt/yr,,,,,1.0,Mt/yr,R C Gupta,Tel: +91 74 5923 2237,Fax: +91 74 5923 2231,,1380004.385,0.0099
IND,IND0146,India,Integrated,Mancherial plant,Mancherial Cement,"Mancherial, Adilabad, Telangana",Operating,18.8943,79.45006500000001,GCD,Exact,,,,,,,,,0.3Mt/yr,,,,,0.3,Mt/yr,P Kondal Rao,Tel: +91 87 3625 2692,Fax: +91 87 3625 2637,,1380004.385,0.0099
IND,IND0147,India,Integrated,West Kameng plant,Meghalaya Cement,"West Kameng, Arunachal Pradesh",Operating,25.204735,92.383684,GCD,Exact,,,,,,,,,(Plan),,,,,,,,,,,1380004.385,0.0099
IND,IND0150,India,Integrated,Murli plant,Murli Industries (Dalmia Bharat),"Naranda, Chandrapur, Maharashtra",Operating,19.787467000000003,79.064451,GCD,Exact,4295872215.0,Murli Industries Cn Ltd,3.2,,http://www.murliindustries.com/projects_existing_cement.php,2020-02-06,4295872215.0,Murli Industries Cn Ltd,3.0Mt/yr,,,,,3.0,Mt/yr,Afroz Ansari,Tel: +91 71 2268 3000,Fax: +91 71 2268 4422,,1380004.385,0.0099
IND,IND0151,India,Grinding,Malakapalli Plant,My Home Industries (CRH),"Malakapalli, Andhra Pradesh",Operating,17.503171,82.772664,GCD,Exact,4298124626.0,My Home Industries Ltd,,,http://www.mahacement.com/contact-us/,2020-02-10,4295874867.0,CRH PLC,1.5Mt/yr - Loesche LM 53.3+3 S,,,,,1.5,Mt/yr,P Sreedhar,Tel: +91 89 3120 1010,,,1380004.385,0.0099
IND,IND0152,India,Integrated,Mellacheruvu plant,My Home Industries (CRH),"Srinagar, Nalgonda, Telangana",Operating,16.810365,79.917592,GCD,Exact,4298124626.0,My Home Industries Ltd,,,http://www.mahacement.com/contact-us/,2020-02-10,4295874867.0,CRH PLC,3.2Mt/yr,,,,,3.2,Mt/yr,M M Patil,Tel: +91 86 8322 6025,Fax: +91 86 8322 6354,,1380004.385,0.0099
IND,IND0153,India,Grinding,Kondapalli Plant,NCL Industries (CRH),"Kadimpothavaram, Andhra Pradesh",Operating,16.661776,80.547848,GCD,Exact,4295872559.0,Ncl Industries Ltd,,,http://www.nclind.com/plant-locations.html,2020-02-06,4295872559.0,Ncl Industries Ltd,1.0Mt/yr,,,,,1.0,Mt/yr,Gopal Raju,Tel: +91 8666 452556,,,1380004.385,0.0099
IND,IND0154,India,Integrated,Simhapuri plant,NCL Industries (CRH),"Mattapally, Nalgonda, Telangana",Operating,16.715611,79.817766,GCD,Exact,4295872559.0,Ncl Industries Ltd,,,http://www.nclind.com/plant-locations.html,2020-02-06,4295872559.0,Ncl Industries Ltd,1.0Mt/yr,,,,,1.0,Mt/yr,R S S Murthy,Tel: +91 86 8321 6069 ( / 8322 7630),Fax: +91 86 8322 7627,,1380004.385,0.0099
IND,IND0155,India,Integrated,Nimbol plant,Nirma Cement (Nuvoco Vistas Corporation),"Nimbol, Rajasthan",Operating,26.332138,73.84767099999999,GCD,Exact,4296754082.0,Nuvoco Vistas Corporation Ltd,,,https://nuvoco.in/manufacturing-units/,2020-02-06,4295872891.0,Nirma Ltd,2.3Mt/yr,,,,,2.3,Mt/yr,,,Fax: +91 28 4422 3804,,1380004.385,0.0099
IND,IND0156,India,Grinding,Kapilas Plant,OCL India (Dalmia Bharat),"Barunia, Cuttack, Odisha",Operating,20.628053,86.000291,GCD,Exact,5000747519.0,Dalmia Cement (Bharat) Ltd,,,https://www.dalmiacement.com/contact-us.html,2020-02-05,5050706317.0,Dalmia Bharat Ltd,1.3Mt/yr - Loesche 56.3+3 C/S,,,,,1.3,Mt/yr,R Pandey,Tel:+91 67 1320 2339,Fax:+91 67 1244 4661,,1380004.385,0.0099
IND,IND0157,India,Integrated,,OCL India (Dalmia Bharat),"Rajgangpur, Sundergarh, Odisha",Operating,22.201498,84.58922,GCD,Exact,4295873003.0,OCL India Ltd,,,https://www.dalmiacement.com/contact-us.html,2020-02-05,5050706317.0,Dalmia Bharat Ltd,3.6Mt/yr,,,,,3.6,Mt/yr,D D Atal,Tel: +91 66 2422 1212 ( / 2422 0121),Fax: +91 66 2422 0933,,1380004.385,0.0099
IND,IND0158,India,Grinding,,OCL India (Dalmia Bharat),"West Midnapore, West Bengal",Operating,22.528774,87.31327399999999,GCD,Exact,4295873003.0,OCL India Ltd,,,https://www.dalmiacement.com/contact-us.html,2020-02-05,5050706317.0,Dalmia Bharat Ltd,1.4Mt/yr,,,,,1.4,Mt/yr,,,,,1380004.385,0.0099
IND,IND0159,India,Integrated,,Orient Cement,"Devapur, Adilabad, Telangana",Operating,19.033435,79.349324,GCD,Exact,,,,,,,,,3.0Mt/yr,,,,,3.0,Mt/yr,P K Tripathy,Tel: +91 87 3624 0709,Fax: +91 87 3624 0522,,1380004.385,0.0099
IND,IND0160,India,Integrated,Chittapur Plant,Orient Cement,"Chittapur, Gulbarga, Karnataka",Operating,17.108273999999998,77.13245699999999,GCD,Exact,,,,,,,,,3.0Mt/yr,,,,,3.0,Mt/yr,,Tel: +91 84 7423 6716,,,1380004.385,0.0099
IND,IND0161,India,Grinding,Jalgaon Plant,Orient Cement Limited,"Nashirabad, Jalgaon, Maharashtra",Operating,21.021005,75.68345699999999,GCD,Exact,,,,,,,,,2Mt/yr,,,,,2.0,Mt/yr,S P Nema,Tel: +91 25 7235 6289,Fax: +91 25 7235 6290,,1380004.385,0.0099
IND,IND0162,India,Integrated,,Panyam Cement & Minerals,"Cement Nagar, Kurnool, Andhra Pradesh",Operating,15.500020000000001,78.210468,GCD,Exact,,,,,,,,,1.4Mt/yr,,,,,1.4,Mt/yr,G S Sainath,Tel: +91 85 1627 4638,Fax: +91 85 1627 4644,,1380004.385,0.0099
IND,IND0163,India,Integrated,Parasakti plant,Parasakti Cement Industries,"Jettipalem, Guntur, Andhra Pradesh",Operating,16.624454999999998,79.50270400000001,GCD,Exact,,,,,,,,,1.7Mt/yr,,,,,1.7,Mt/yr,Sambasiva Rao,Tel: +91 86 3234 4600,Fax: +91 86 3234 4605,,1380004.385,0.0099
IND,IND0164,India,Integrated,Talaridheruvu plant,Penna Cement,"Anantapur, Andhra Pradesh",Operating,14.951422,78.075824,GCD,Exact,4298177123.0,Penna Cement Industries Ltd,1.8,1994.0,https://www.pennacement.com/plants/,2020-02-06,4298177123.0,Penna Cement Industries Ltd,1.8Mt/yr,,,,,1.8,Mt/yr,S Jayarama Raju,Tel: +91 85 5828 6033 ( / 55 / 66),Fax: +91 88 5828 6044,,1380004.385,0.0099
IND,IND0165,India,Integrated,Tandur plant,Penna Cement,"Belkatur, Ranga, Reddy, Telangana",Operating,17.296070999999998,77.504923,GCD,Exact,4298177123.0,Penna Cement Industries Ltd,2.0,2010.0,https://www.pennacement.com/plants/,2020-02-06,4298177123.0,Penna Cement Industries Ltd,2.0Mt/yr,,,,,2.0,Mt/yr,R Nagaraju,Tel: +91 84 1124 7892,Fax: +91 84 1124 7897,,1380004.385,0.0099
IND,IND0166,India,Integrated,Boyareddyapalli plant,Penna Cement,"Boyireddypallli, Anantapur, Andhra Pradesh",Operating,15.061606,77.950937,GCD,Exact,4298177123.0,Penna Cement Industries Ltd,2.0,2008.0,https://www.pennacement.com/plants/,2020-02-06,4298177123.0,Penna Cement Industries Ltd,2.0Mt/yr,,,,,2.0,Mt/yr,K Nagaraju,Tel: +91 85 5827 9431,Fax: +91 98 4817 2059,,1380004.385,0.0099
IND,IND0167,India,Grinding,,Penna Cement,"Daund, Pune, Maharashtra",Operating,18.473438,74.484301,GCD,Exact,4298177123.0,Penna Cement Industries Ltd,1.0,2018.0,https://www.pennacement.com/plants/,2020-02-06,4298177123.0,Penna Cement Industries Ltd,0.7Mt/yr (Announced in 2015),,,,,0.7,Mt/yr,,,,,1380004.385,0.0099
IND,IND0168,India,Integrated,Ganeshpahad plant,Penna Cement,"Wadapally, Nalgonda, Telangana",Operating,16.718672,79.694801,GCD,Exact,4298177123.0,Penna Cement Industries Ltd,1.2,2002.0,https://www.pennacement.com/plants/,2020-02-06,4298177123.0,Penna Cement Industries Ltd,1.2Mt/yr,,,,,1.2,Mt/yr,Mr Gurumurthy,Tel: +91 86 8322 9714 ( / 15 / 17),Fax: +91 86 8322 9716,,1380004.385,0.0099
IND,IND0170,India,Integrated,Prism plant,Prism Cement,"Mankahari, Satna, Madhya Pradesh",Operating,24.565681,81.000297,GCD,Exact,,,,,,,,,6.1Mt/yr,,,,,6.1,Mt/yr,Vivek Agnihotri,Tel: +91 76 7227 5621 ( / 22),Fax: +91 76 7227 5303,,1380004.385,0.0099
IND,IND0171,India,Integrated,Kurnool plant,Rain Cements,"Boincheruvupalli, Kurnool, Andhra Pradesh",Operating,15.221793,77.93196,GCD,Exact,,,,,,,,,2.2Mt/yr,,,,,2.2,Mt/yr,M Achi Reddy,Tel: +91 85 2224 9919,Fax: +91 85 2224 9920,,1380004.385,0.0099
IND,IND0172,India,Integrated,Ramapuram plant,Rain Cements,"Priya Nagar, Nalgonda, Telangana",Operating,16.84395,79.984596,GCD,Exact,,,,,,,,,1.0Mt/yr,,,,,1.0,Mt/yr,C Balanagaiah,Tel: +91 86 8323 4607,Fax: +91 86 8323 4602,,1380004.385,0.0099
IND,IND0173,India,Integrated,Ariyalur plant,Ramco Cement,"Govindapuram, Ariyalur, Tamil Nadu",Operating,11.177107000000001,79.08910999999999,GCD,Exact,4295873201.0,Ramco Cements Ltd,3.5,2008.0,http://www.ramcocements.in/ariyalur.aspx,2020-02-06,4295873201.0,Ramco Cements Ltd,3.5Mt/yr,,,,,3.5,Mt/yr,Mandeo Yadav,Tel: +91 43 2922 6001 ( to 04),Fax: +91 43 2922 6005,,1380004.385,0.0099
IND,IND0174,India,Integrated,Jayanthipuram Cement plant,Ramco Cement,"Kumarasamy Raja Nagar, Andhra Pradesh",Operating,16.875719,80.1215,GCD,Exact,4295873201.0,Ramco Cements Ltd,3.65,1986.0,http://www.ramcocements.in/jayanthipuram.aspx,2020-02-06,4295873201.0,Ramco Cements Ltd,3.7Mt/yr,,,,,3.7,Mt/yr,P B Gopalkrishna,Tel: +91 86 5422 4400,Fax: +91 86 5422 2532,,1380004.385,0.0099
IND,IND0175,India,Integrated,Mathodu plant,Ramco Cement,"Mathodu, Chitradurga, Karnataka",Operating,13.758783,76.422107,GCD,Exact,4295873201.0,Ramco Cements Ltd,0.29,,http://www.ramcocements.in/mathodu.aspx,2020-02-06,4295873201.0,Ramco Cements Ltd,0.3Mt/yr,,,,,0.3,Mt/yr,Ramachandra Y Dambal,Tel: +91 81 9924 0039 ( / 0112),Fax: +91 81 9924 0314,,1380004.385,0.0099
IND,IND0176,India,Integrated,Alathiyur plant,Ramco Cement,"PAC Ramaswamy Raja Nagar, Ariyalur, Tamil Nadu",Operating,11.361772,79.23204100000001,GCD,Exact,4295873201.0,Ramco Cements Ltd,3.05,1997.0,http://www.ramcocements.in/alathiyur.aspx,2020-02-06,4295873201.0,Ramco Cements Ltd,3.0Mt/yr,,,,,3.0,Mt/yr,S Shanmugam,Tel: +91 43 2924 8305 ( to 06),Fax: +91 43 2924 8313,,1380004.385,0.0099
IND,IND0177,India,Integrated,Ramasamy Raja Nagar plant,Ramco Cement,"Ramasamy Raja Nagar, Virudhnagar, Tamil Nadu",Operating,9.455703,77.927796,GCD,Exact,4295873201.0,Ramco Cements Ltd,2.0,1961.0,http://www.ramcocements.in/rr-nagar.aspx,2020-02-06,4295873201.0,Ramco Cements Ltd,1.5Mt/yr,,,,,1.5,Mt/yr,N Ravishankar,Tel: +91 45 6225 6201 ( / 02),Fax: +91 45 6225 6268,,1380004.385,0.0099
IND,IND0181,India,Grinding,Rashmi Plant,Rashmi Cement,"Jhargram, West Midnapore, West Bengal",Operating,22.392435,87.015888,GCD,Exact,,,,,,,,,0.2Mt/yr,,,,,0.2,Mt/yr,,Tel: +91 32 2125 8411,Fax: +91 32 2125 8452,,1380004.385,0.0099
IND,IND0182,India,Grinding,Butibori Plant,Reliance Cement,"Butibori, Nagpur, Maharashtra",Operating,20.928244,78.922224,GCD,Exact,4298546065.0,RCCPL Pvt Ltd,0.58,,https://www.birlacorporation.com/plants.html,2020-02-05,4295872966.0,Birla Corporation Ltd,0.5Mt/yr,,,,,0.5,Mt/yr,Shri Arun Kumar Singh,,,,1380004.385,0.0099
IND,IND0185,India,Grinding,Kundanganj Plant,Reliance Cement,"Kundanganj, Rae Bareli, Uttar Pradesh",Operating,26.404843,81.13032199999999,GCD,Exact,4298546065.0,RCCPL Pvt Ltd,2.0,,https://www.birlacorporation.com/plants.html,2020-02-05,4295872966.0,Birla Corporation Ltd,2.2Mt/yr - Loesche LM 46.2+2,,,,,2.2,Mt/yr,Shri Haribhanu Parihar,,,,1380004.385,0.0099
IND,IND0186,India,Integrated,Madhya Pradesh plant,Reliance Cement (Birla Corporation),"Maihar, Madhya Pradesh",Operating,24.254955,80.79765400000001,GCD,Exact,4298546065.0,RCCPL Pvt Ltd,3.0,,https://www.birlacorporation.com/plants.html,2020-02-05,4295872966.0,Birla Corporation Ltd,2.8Mt/yr,,,,,2.8,Mt/yr,,,,,1380004.385,0.0099
IND,IND0189,India,Integrated,Sagar plant,Sagar Cements (Vicat),"Mattampally, Nalgonda, Telangana",Operating,16.766967,79.862794,GCD,Exact,4295872300.0,Sagar Cements Ltd,,,http://www.sagarcements.in/contact.html,2020-02-06,4295872300.0,Sagar Cements Ltd,3.0Mt/yr,,,,,3.0,Mt/yr,P Vasudev Reddy,Tel: +91 86 8324 7039,Fax: +91 86 8324 7029,,1380004.385,0.0099
IND,IND0190,India,Integrated,Tadipatri plant,Sagar Cements (Vicat),"Tadipatri, Anantapur, Andhra Pradesh",Operating,15.075325,77.982725,GCD,Exact,4295872300.0,Sagar Cements Ltd,1.0,,https://www.vccircle.com/sagar-cements-acquire-bmm-cements-enterprise-value-90m/,2020-02-06,4295872300.0,Sagar Cements Ltd,1.0Mt/yr,,,,,1.0,Mt/yr,,,,,1380004.385,0.0099
IND,IND0191,India,Integrated,Sanghi plant,Sanghi Industries,"Sanghipuram, Kutch, Gujarat",Operating,23.49822,68.578098,GCD,Exact,,,,,,,,,2.9Mt/yr (Expansion to 4.1Mt/yr ongoing),,,,,2.9,Mt/yr,Vivek Gedam,Tel: +91 28 3127 4131 ( / 33 / 38 / 39),Fax: +91 28 3127 4115,,1380004.385,0.0099
IND,IND0192,India,Integrated,Hathi plant,Saurashtra Cement,"Ranavav, Probandar, Gujarat",Operating,21.704422,69.719992,GCD,Exact,,,,,,,,,1.5Mt/yr,,,,,1.5,Mt/yr,Narendra Singh,Tel: +91 28 0130 4200 ( / 0123 5001),Fax: +91 28 0130 4376 / 84,,1380004.385,0.0099
IND,IND0193,India,Grinding,Shiva Plant,Shiva Cement,"Biringatoli, Sundargarh, Odisha",Operating,22.228822,84.416723,GCD,Exact,,,,,,,,,,,,,,,,,Tel: +91 66 1240 0828 ( / 0168 / 0080),Fax: +91 66 1240 0172,,1380004.385,0.0099
IND,IND0194,India,Grinding,Laksar Plant,Shree Cement,"Akbarpur, Haridwar, Uttarkhand",Operating,29.758381,78.062049,GCD,Exact,4295874015.0,Shree Cement Ltd,,,https://www.shreecement.com/pages/plant_locations.php,2020-02-10,4295874015.0,Shree Cement Ltd,1.8Mt/yr,,,,,1.8,Mt/yr,,Tel: +91 13 3222 5810 ( / 11),,,1380004.385,0.0099
IND,IND0195,India,Grinding,Jaipur Plant,Shree Cement,"Asalpur, Jaipur, Rajasthan",Operating,26.931614,75.394888,GCD,Exact,4295874015.0,Shree Cement Ltd,,,https://www.shreecement.com/pages/plant_locations.php,2020-02-10,4295874015.0,Shree Cement Ltd,1.5Mt/yr,,,,,1.5,Mt/yr,S Palsania,Tel: +91 14 2525 4904,Fax: +91 14 2525 4906,,1380004.385,0.0099
IND,IND0196,India,Grinding,Bihar Plant,Shree Cement,"Aurangabad, Bihar",Operating,24.774342,84.354352,GCD,Exact,4295874015.0,Shree Cement Ltd,,,https://www.shreecement.com/pages/plant_locations.php,2020-02-10,4295874015.0,Shree Cement Ltd,(Under construction) 2.0Mt/yr - Pfeiffer MVR 6000 C-6,,,,,2.0,Mt/yr,,,,,1380004.385,0.0099
IND,IND0197,India,Integrated,Beawar plant,Shree Cement,"Bangur Nagar, Beawar, Rajasthan",Operating,26.081874,74.380089,GCD,Exact,4295874015.0,Shree Cement Ltd,,,https://www.shreecement.com/pages/plant_locations.php,2020-02-10,4295874015.0,Shree Cement Ltd,3.0Mt/yr,,,,,3.0,Mt/yr,Vinay Saxena,Tel: +91 14 6222 8101 ( / 06),Fax: +91 14 6222 8117 ( / 19),,1380004.385,0.0099
IND,IND0198,India,Grinding,Bulandshahr Plant,Shree Cement,"Bulandshahr, Uttar Pradesh",Operating,28.480534000000002,77.658796,GCD,Exact,4295874015.0,Shree Cement Ltd,,,https://www.shreecement.com/pages/plant_locations.php,2020-02-10,4295874015.0,Shree Cement Ltd,2.0Mt/yr,,,,,2.0,Mt/yr,,,,,1380004.385,0.0099
IND,IND0200,India,Grinding,Jaypee Plant,Shree Cement,"Khukhrana, Asan Kalan, Panipat, Haryana",Operating,29.396089,76.889313,GCD,Exact,,,,,,,,,1.5Mt/yr,,,,,1.5,Mt/yr,G K Singh,Tel: +91 18 0252 0160,Fax: +91 18 0252 0100,,1380004.385,0.0099
IND,IND0201,India,Grinding,Khushkhera Plant,Shree Cement,"Khuskhera, Alwar, Rajasthan",Operating,28.121957000000002,76.777883,GCD,Exact,4295874015.0,Shree Cement Ltd,,,https://www.shreecement.com/pages/plant_locations.php,2020-02-10,4295874015.0,Shree Cement Ltd,3.0Mt/yr,,,,,3.0,Mt/yr,Ashok Pasari,Tel: +91 14 9325 0521 ( / 24),Fax: +91 14 9325 0571,,1380004.385,0.0099
IND,IND0202,India,Integrated,Kodala plant,Shree Cement,"Kodala, Karnataka",Operating,17.042884,77.22119599999999,GCD,Exact,4295874015.0,Shree Cement Ltd,,,https://www.shreecement.com/pages/plant_locations.php,2020-02-10,4295874015.0,Shree Cement Ltd,3.0Mt/yr (Plan),,,,,3.0,Mt/yr,,,,,1380004.385,0.0099
IND,IND0205,India,Integrated,Ras plant,Shree Cement,"Ras, Beawar, Rajasthan",Operating,26.268063,74.188744,GCD,Exact,4295874015.0,Shree Cement Ltd,,,https://www.shreecement.com/pages/plant_locations.php,2020-02-10,4295874015.0,Shree Cement Ltd,5.0Mt/yr,,,,,5.0,Mt/yr,P N Chhangani,Tel: +91 14 6222 8101 ( / 06),Fax: +91 14 6222 8117 ( / 19),,1380004.385,0.0099
IND,IND0206,India,Grinding,Suratgarh Plant,Shree Cement,"Udasar, Sri Ganganagar, Rajasthan",Operating,29.156732,73.865416,GCD,Exact,4295874015.0,Shree Cement Ltd,,,https://www.shreecement.com/pages/plant_locations.php,2020-02-10,4295874015.0,Shree Cement Ltd,1.2Mt/yr,,,,,1.2,Mt/yr,,Tel: +91 10 5964 5505,,,1380004.385,0.0099
IND,IND0208,India,Integrated,Jamnagar plant,Shree Digvijay Cement Company Ltd (Votorantim),"Jamnagar, Gujarat",Operating,22.429021,69.834138,GCD,Exact,4295872388.0,Shree Digvijay Cement Co Ltd,,,https://www.digvijaycement.com/company/presence/,2020-02-11,5000075361.0,Votorantim SA,1.2Mt/yr,,,,,1.2,Mt/yr,"K K Rajeev Nambiar (CEO, MD)",Tel: +91 28 8234 4272 ( to 75),Fax: +91 28 8234 4092,,1380004.385,0.0099
IND,IND0212,India,Integrated,Jothi plant,Sree Jayajothi Cements,"Yanakandla, Kurnool, Andhra Pradesh",Operating,15.364101000000002,78.219484,GCD,Exact,,,,,,,,,3.2Mt/yr 2.0Mt/yr (Clinker),,,,,3.2,Mt/yr,D S N V Prasad,Tel: +91 85 1520 0505,Fax: +91 85 1520 0507,,1380004.385,0.0099
IND,IND0213,India,Grinding,Annamarajupeta Plant,Sri Chakra Cements,"Alamanda, Andhra Pradesh",Operating,18.017317000000002,83.275178,GCD,Exact,,,,,,,,,0.3Mt/yr,,,,,0.3,Mt/yr,,Tel: +91 97 0321 9007,,,1380004.385,0.0099
IND,IND0214,India,Integrated,Narasimhapuri plant,Sri Chakra Cements,"Karampudi, Guntur, Andhra Pradesh",Operating,16.380772,79.723973,GCD,Exact,,,,,,,,,0.7Mt/yr,,,,,0.7,Mt/yr,S Ramamurthy,Tel: +91 97 0321 9022,,,1380004.385,0.0099
IND,IND0215,India,Integrated,Surva Shakti plant,Sri Lalita Cement Industries,"Ragunathapalem, Nalgonda, Telangana",Operating,16.734616,79.881588,GCD,Exact,,,,,,,,,1.0Mt/yr,,,,,1.0,Mt/yr,Narasa Raju,Tel: +91 40 2323 2051,Fax: +91 40 2323 1998,,1380004.385,0.0099
IND,IND0216,India,Integrated,Star Cement plant,Star Cement,"Khaliehriat, Jaintia Hills, Meghalaya",Operating,25.177887,92.390338,GCD,Exact,,,,,,,,,0.6Mt/yr,,,,,0.6,Mt/yr,S K Mohapa,Tel: +91 36 5527 8215,Fax: +91 36 5527 8217,,1380004.385,0.0099
IND,IND0217,India,Integrated,Alangulam plant,Tamil Nadu Cements,"Alangulam, Virudhunagar, Tamil Nadu",Operating,9.374599,77.678857,GCD,Exact,,,,,,,,,0.4Mt/yr,,,,,0.4,Mt/yr,G Mohandoss,Tel: +91 45 6227 1442,Fax: +91 45 6227 1435,,1380004.385,0.0099
IND,IND0219,India,Integrated,Cement plant,Tata Chemicals,"Mithapur, Jamnagar, Gujarat",Operating,22.400932,69.020015,GCD,Exact,,,,,,,,,0.9Mt/yr,,,,,0.9,Mt/yr,,Tel: +91 28 9266 5991 ( / 92),Fax: +91 28 9222 3471,,1380004.385,0.0099
IND,IND0221,India,Integrated,Dalvoi plant,The India Cements,"Cement Nagar, Ariyalur, Tamil Nadu",Operating,11.357619,79.223045,GCD,Exact,4295873040.0,India Cements Ltd,1.85,,https://www.indiacements.co.in/plants-locations.php,2020-02-06,4295873040.0,India Cements Ltd,1.9Mt/yr,,,,,1.9,Mt/yr,K Rajendran,Tel: +91 43 2924 8201,Fax: +91 43 2924 8248,,1380004.385,0.0099
IND,IND0222,India,Integrated,,The India Cements,"Chilamkur, Andhra Pradesh",Operating,14.665693,78.457835,GCD,Exact,4295873040.0,India Cements Ltd,1.46,,https://www.indiacements.co.in/plants-locations.php,2020-02-06,4295873040.0,India Cements Ltd,1.5Mt/yr,,,,,1.5,Mt/yr,P. Muni Reddy,Tel: +91 85 6327 6150,Fax: +91 85 6327 6155,,1380004.385,0.0099
IND,IND0224,India,Integrated,Maklapur plant,The India Cements,"Malkapur, Ranga, Reddy, Andhra Pradesh",Operating,17.308165,77.474324,GCD,Exact,4295873040.0,India Cements Ltd,2.4,,https://www.indiacements.co.in/plants-locations.php,2020-02-06,4295873040.0,India Cements Ltd,2.4Mt/yr,,,,,2.4,Mt/yr,VSC Bose,Tel: +91 84 1124 6324,Fax: +91 84 1124 6302,,1380004.385,0.0099
IND,IND0225,India,Grinding,,The India Cements,"NCPTPP Road, Tamil Nadu",Operating,13.241160999999998,80.291687,GCD,Exact,4295873040.0,India Cements Ltd,1.1,,https://www.indiacements.co.in/plants-locations.php,2020-02-06,4295873040.0,India Cements Ltd,1.1Mt/yr,,,,,1.1,Mt/yr,V Sivanandam,Tel: +91 44 2796 6229,Fax: +91 44 2796 6307,,1380004.385,0.0099
IND,IND0226,India,Grinding,Parli Plant,The India Cements,"Parli Vaijnath, Beed, Maharashtra",Operating,18.861883,76.542925,GCD,Exact,4295873040.0,India Cements Ltd,1.1,,https://www.indiacements.co.in/plants-locations.php,2020-02-06,4295873040.0,India Cements Ltd,1.1Mt/yr,,,,,1.1,Mt/yr,Sanjay Kumar,Tel: +91 24 4622 2244,Fax: +91 24 4622 4822,,1380004.385,0.0099
IND,IND0227,India,Integrated,Sankri plant,The India Cements,"Sankari West, Salem, Tamil Nadu",Operating,11.454467999999999,77.828686,GCD,Exact,4295873040.0,India Cements Ltd,0.86,,https://www.indiacements.co.in/plants-locations.php,2020-02-06,4295873040.0,India Cements Ltd,0.9Mt/yr,,,,,0.9,Mt/yr,S K Palaniappan,Tel: +91 42 8324 0387,Fax: +91 42 8324 0051,,1380004.385,0.0099
IND,IND0228,India,Integrated,,The India Cements,"Sankarnagar, Tamil Nadu",Operating,8.78885,77.730918,GCD,Exact,4295873040.0,India Cements Ltd,2.05,,https://www.indiacements.co.in/plants-locations.php,2020-02-06,4295873040.0,India Cements Ltd,2.1Mt/yr,,,,,2.1,Mt/yr,J Thirumeni,Tel: +91 46 2230 0221,Fax: +91 46 2230 0294,,1380004.385,0.0099
IND,IND0229,India,Integrated,Vishnupuram plant,The India Cements,"Wadapally, Nalgonda, Telangana",Operating,16.696363,79.648627,GCD,Exact,4295873040.0,India Cements Ltd,2.5,,https://www.indiacements.co.in/plants-locations.php,2020-02-06,4295873040.0,India Cements Ltd,3.5Mt/yr,,,,,3.5,Mt/yr,D Muruganandam,Tel: +91 86 8922 8427,Fax: +91 86 8922 8447,,1380004.385,0.0099
IND,IND0230,India,Integrated,Yerraguntala plant,The India Cements,"Yerraguntla, Kadapa, Andhra Pradesh",Operating,14.642947,78.528902,GCD,Exact,4295873040.0,India Cements Ltd,0.73,,https://www.indiacements.co.in/plants-locations.php,2020-02-06,4295873040.0,India Cements Ltd,0.7Mt/yr,,,,,0.7,Mt/yr,,Tel: +91 85 6327 5158,Fax: +91 85 6327 5154,,1380004.385,0.0099
IND,IND0231,India,Grinding,Kolaghat Plant,The Ramco Cements,"Kolaghat, Purba Medinipur, West Bengal",Operating,22.423362,87.862852,GCD,Exact,4295873201.0,Ramco Cements Ltd,1.95,2010.0,http://www.ramcocements.in/kolaghat.aspx,2020-02-06,4295873201.0,Ramco Cements Ltd,1.0Mt/yr,,,,,1.0,Mt/yr,A K Paul,Tel: +91 32 2825 0207,,,1380004.385,0.0099
IND,IND0232,India,Grinding,Chengalpet Plant,The Ramco Cements,"P.O. Olaiyur, Kancheepuram, Tamil Nadu",Operating,12.643417999999999,79.69946,GCD,Exact,4295873201.0,Ramco Cements Ltd,0.5,2009.0,http://www.ramcocements.in/Chengalpet.aspx,2020-02-06,4295873201.0,Ramco Cements Ltd,0.5Mt/yr,,,,,0.5,Mt/yr,S Rao,Tel: +91 44 2729 7295,,,1380004.385,0.0099
IND,IND0233,India,Grinding,Salem Plant,The Ramco Cements,"Singipuram, Salem, Tamil Nadu",Operating,11.634286,78.40361899999999,GCD,Exact,4295873201.0,Ramco Cements Ltd,1.6,2009.0,http://www.ramcocements.in/salem.aspx,2020-02-06,4295873201.0,Ramco Cements Ltd,1.6Mt/yr,,,,,1.6,Mt/yr,R D Kumar,Tel: +91 72 9997 3001,,,1380004.385,0.0099
IND,IND0234,India,Grinding,Vizag Plant,The Ramco Cements,"Vizag, Andhra Pradesh",Operating,17.617542,82.891222,GCD,Exact,4295873201.0,Ramco Cements Ltd,0.95,2015.0,http://www.ramcocements.in/Vizag.aspx,2020-02-06,4295873201.0,Ramco Cements Ltd,0.95Mt/yr,,,,,0.95,Mt/yr,,,,,1380004.385,0.0099
IND,IND0236,India,Integrated,Ampavalli plant,Toshali Cement,"Ampavalli, Koraput, Odisha",Operating,18.407977,82.973488,GCD,Exact,,,,,,,,,0.2Mt/yr,,,,,0.2,Mt/yr,T K Guha,Tel: +91 99 4822 1983 ( / 85),,,1380004.385,0.0099
IND,IND0237,India,Grinding,Bayyavaram Plant,Toshali Cement,"Kasimkota, Andhra Pradesh",Operating,17.655559,82.926289,GCD,Exact,4295872300.0,Sagar Cements Ltd,,,http://www.sagarcements.in/contact.html,2020-02-06,4295872300.0,Sagar Cements Ltd,0.2Mt/yr,,,,,0.2,Mt/yr,,Tel: +91 89 2224 4550,Fax: +91 89 2224 4570,,1380004.385,0.0099
IND,IND0238,India,Integrated,,Trinetra Cement (ICL Group),"Wajwana, Banswara, Rajasthan",Operating,23.603059,74.256034,GCD,Exact,4295873040.0,India Cements Ltd,1.5,,https://www.indiacements.co.in/plants-locations.php,2020-02-06,4295873040.0,India Cements Ltd,1.8Mt/yr,,,,,1.8,Mt/yr,Karan Vashisht,Tel: +91 29 6230 1516,Fax: +91 26 9225 0551,,1380004.385,0.0099
IND,IND0239,India,Integrated,,Udaipur Cement (JK Lakshmi Cement),"Udaipur, Rajasthan",Operating,24.657581,73.8752,GCD,Exact,,,,,,,,,1 Dry - 1.4Mt/yr,1.0,DRY,,,1.4,Mt/yr,Naveen Sharma,Tel: +91 29 4265 5076,Fax: +91 294 265 5077,,1380004.385,0.0099
IND,IND0240,India,Integrated,Rajashree plant,UltraTech Cement,"Aditya Nagar, Gulbarga, Karnataka",Operating,17.141011,77.176197,GCD,Exact,4295873970.0,UltraTech Cement Ltd,,,https://www.ultratechcement.com/investors/plant-location.php,2020-02-05,4295872971.0,Grasim Industries Ltd,3.2Mt/yr,,,,,3.2,Mt/yr,S K Gupta,Tel: +91 84 4128 8888 ( / 7226),Fax: +91 84 4128 8624,,1380004.385,0.0099
IND,IND0241,India,Integrated,Aditya plant,UltraTech Cement,"Adityapuram, Chittorgarh, Rajasthan",Operating,24.765642,74.60991800000001,GCD,Exact,4295873970.0,UltraTech Cement Ltd,,,https://www.ultratechcement.com/investors/plant-location.php,2020-02-05,4295872971.0,Grasim Industries Ltd,2.0Mt/yr,,,,,2.0,Mt/yr,B B Joshi,Tel: +91 14 7222 1001 ( to 9),Fax: +91 14 7222 1020,,1380004.385,0.0099
IND,IND0242,India,Grinding,Jharsuguda Plant,UltraTech Cement,"Arda, Jharsuguda, Odisha",Operating,21.892175,84.098455,GCD,Exact,,,,,,,,,1Mt/yr,,,,,1.0,Mt/yr,M Sivaramakrishna,Tel: +91 66 4528 3101 ( / 104 / 105),Fax: +91 66 4528 3110,,1380004.385,0.0099
IND,IND0243,India,Integrated,Awarpur plant,UltraTech Cement,"Awarpur, Chandrapur, Maharashtra",Operating,19.785698999999997,79.148964,GCD,Exact,4295873970.0,UltraTech Cement Ltd,,,https://www.ultratechcement.com/investors/plant-location.php,2020-02-05,4295872971.0,Grasim Industries Ltd,3.6Mt/yr (Expansion to 6.0Mt/yr announced in 2015),,,,,3.6,Mt/yr,Ashish Panpalia,Tel: +91 71 7326 6323,Fax: +91 71 7326 6339,,1380004.385,0.0099
IND,IND0244,India,Integrated,Jafrabad plant,UltraTech Cement,"Babarkot, Amreli, Gujarat",Operating,20.868289,71.39770899999999,GCD,Exact,4295873970.0,UltraTech Cement Ltd,,,https://www.ultratechcement.com/investors/plant-location.php,2020-02-05,4295872971.0,Grasim Industries Ltd,0.5Mt/yr,,,,,0.5,Mt/yr,K I Durban,Tel: +91 27 9424 5103,Fax: +91 27 9324 5110,,1380004.385,0.0099
IND,IND0245,India,Integrated,Andhra Pradesh plant,UltraTech Cement,"Bhogasamudram, Anantapur, Andhra Pradesh",Operating,15.023021,78.01432,GCD,Exact,4295873970.0,UltraTech Cement Ltd,,,https://www.ultratechcement.com/investors/plant-location.php,2020-02-05,4295872971.0,Grasim Industries Ltd,5.6Mt/yr,,,,,5.6,Mt/yr,G M Krishna,Tel: +91 85 5828 8841 ( / 47),Fax: +91 85 5828 8821 ( / 59),,1380004.385,0.0099
IND,IND0246,India,Grinding,Arakkonam Plant,UltraTech Cement,"Chetteri, Vellore, Tamil Nadu",Operating,13.078557,79.613393,GCD,Exact,,,,,,,,,1.1Mt/yr,,,,,1.1,Mt/yr,G R Ravishankar,Tel: +91 41 7729 3111 ( / 7723 3589),Fax: +91 41 7723 3585,,1380004.385,0.0099
IND,IND0247,India,Grinding,Dankuni Plant,UltraTech Cement,"Dankuni, West Bengal",Operating,22.726902,88.26913,GCD,Exact,,,,,,,,,1.6Mt/yr,,,,,1.6,Mt/yr,,,,,1380004.385,0.0099
IND,IND0248,India,Grinding,,UltraTech Cement,"Ginigera, Koppal, Karnataka",Operating,15.352160999999999,76.263198,GCD,Exact,,,,,,,,,1.3Mt/yr - Loesche 2 x LM 53.3+3 C,,,,,1.3,Mt/yr,T K M Reddy,Tel: +91 85 3928 6575 ( / 20 1452),Fax: +91 85 3928 6574,,1380004.385,0.0099
IND,IND0249,India,Integrated,Hirmi plant,UltraTech Cement,"Hirmi, Raipur, Chhatisgarh",Operating,21.545403,81.94780300000001,GCD,Exact,4295873970.0,UltraTech Cement Ltd,,,https://www.ultratechcement.com/investors/plant-location.php,2020-02-05,4295872971.0,Grasim Industries Ltd,1.9Mt/yr,,,,,1.9,Mt/yr,Kiran Patil,Tel: +91 77 2628 1217,Fax: +91 77 2628 1268,,1380004.385,0.0099
IND,IND0250,India,Integrated,Hotgi plant,UltraTech Cement,"Hotgi, Solapur, Maharashtra",Operating,17.558229,76.003405,GCD,Exact,,,,,,,,,1.8Mt/yr,,,,,1.8,Mt/yr,N Ravikumar,Tel: +91 21 7225 0303,,,1380004.385,0.0099
IND,IND0251,India,Grinding,Jhajjar Plant,UltraTech Cement,"Jhajjar, Haryana",Operating,28.505156,76.36704,GCD,Exact,,,,,,,,,1.6Mt/yr,,,,,1.6,Mt/yr,,,,,1380004.385,0.0099
IND,IND0253,India,Grinding,Panipat Plant,UltraTech Cement,"Karad, Panipat, Haryana",Operating,29.289372999999998,76.808284,GCD,Exact,,,,,,,,,1.3Mt/yr,,,,,1.3,Mt/yr,A Sukla,Tel: +91 99 9211 2031 ( / 32),Fax: +91 11 4385 1660,,1380004.385,0.0099
IND,IND0254,India,Integrated,Aligarh plant,UltraTech Cement,"Kasimpur Power House, Aligarh, Uttar Pradesh",Operating,27.989507,78.136713,GCD,Exact,,,,,,,,,1.3Mt/yr,,,,,1.3,Mt/yr,P K Srivastava,Tel: +91 57 1308 1940,Fax: +91 57 1308 1902,,1380004.385,0.0099
IND,IND0255,India,Integrated,Vikram plant,UltraTech Cement,"Khor, Neemuch, Madhya Pradesh",Operating,24.578516,74.80399200000001,GCD,Exact,4295873970.0,UltraTech Cement Ltd,,,https://www.ultratechcement.com/investors/plant-location.php,2020-02-05,4295872971.0,Grasim Industries Ltd,3.0Mt/yr,,,,,3.0,Mt/yr,Chander Shekar,Tel: +91 74 2023 0554,Fax: +91 74 2023 5524,,1380004.385,0.0099
IND,IND0256,India,Integrated,Gujarat plant,UltraTech Cement,"Kovaya, Amreli, Gujarat",Operating,20.910014999999998,71.46093,GCD,Exact,4295873970.0,UltraTech Cement Ltd,,,https://www.ultratechcement.com/investors/plant-location.php,2020-02-05,4295872971.0,Grasim Industries Ltd,4.8Mt/yr,,,,,4.8,Mt/yr,Ramana Rao,Tel: +91 27 9428 3034,Fax: +91 27 9428 3036,,1380004.385,0.0099
IND,IND0257,India,Grinding,Bathinda Plant,UltraTech Cement,"Lehra Mohabat, Bathinda, Punjab",Operating,30.272416999999997,75.162379,GCD,Exact,,,,,,,,,1.8Mt/yr,,,,,1.8,Mt/yr,M Baury,Tel: +91 16 4275 6340 ( / 826),Fax: +91 16 4275 6316,,1380004.385,0.0099
IND,IND0258,India,Grinding,Magdalla Plant,UltraTech Cement,"Magdalla, Surat, Gujarat",Operating,21.137147,72.73304399999999,GCD,Exact,,,,,,,,,0.7Mt/yr,,,,,0.7,Mt/yr,B L Deopura,Tel: +91 26 1272 3454,Fax: +91 26 1272 6952,,1380004.385,0.0099
IND,IND0259,India,Integrated,Kotputli plant,UltraTech Cement,"Mohanpura, Jodhupra, Jaipur, Rajasthan",Operating,27.668801000000002,76.12889399999999,GCD,Exact,4295873970.0,UltraTech Cement Ltd,,,https://www.ultratechcement.com/investors/plant-location.php,2020-02-05,4295872971.0,Grasim Industries Ltd,1 Dry - 3.1Mt/yr,1.0,DRY,,,3.1,Mt/yr,C S Pandey,Tel: +91 14 2115 719,Fax: +91 14 2128 8665,,1380004.385,0.0099
IND,IND0260,India,Integrated,Birla White Cement plant,UltraTech Cement,"Rajashree Nagar, Kharia Khangar, Jodhpur, Rajasthan",Operating,26.606036,73.684448,GCD,Exact,4295873970.0,UltraTech Cement Ltd,,,https://www.ultratechcement.com/investors/plant-location.php,2020-02-05,4295872971.0,Grasim Industries Ltd,2 Dry - 0.7Mt/yr (White),2.0,DRY,,,0.7,Mt/yr,Mahendra Kumar Mishra,Tel: +91 29 2026 4040,Fax: +91 29 2026 4225,,1380004.385,0.0099
IND,IND0261,India,Grinding,West Bengal Plant,UltraTech Cement,"Rajbandh, Burdwan, West Bengal",Operating,23.492432,87.36224200000001,GCD,Exact,,,,,,,,,1.2Mt/yr,,,,,1.2,Mt/yr,M M Mukherjee,Tel: +91 34 3253 3030 ( / 3996),Fax: +91 34 3254 4358,,1380004.385,0.0099
IND,IND0262,India,Grinding,Dadri Plant,UltraTech Cement,"Ranauli, Uttar Pradesh",Operating,28.578002,77.592701,GCD,Exact,,,,,,,,,1.3Mt/yr,,,,,1.3,Mt/yr,J Vyas,Tel: +91 12 0280 9066 ( / 9056),Fax: +91 12 0280 9014,,1380004.385,0.0099
IND,IND0263,India,Integrated,Rawan plant,UltraTech Cement,"Rawan, Raipur, Chhattisgarh",Operating,21.577059,82.021174,GCD,Exact,4295873970.0,UltraTech Cement Ltd,,,https://www.ultratechcement.com/investors/plant-location.php,2020-02-05,4295872971.0,Grasim Industries Ltd,2.5Mt/yr,,,,,2.5,Mt/yr,M M Tiwari,Tel: +91 77 2628 8217 ( / 20),Fax: +91 77 2628 8215,,1380004.385,0.0099
IND,IND0264,India,Integrated,Reddipalayam plant,UltraTech Cement,"Reddipalayam, Ariyalur, Tamil Nadu",Operating,11.105441,79.172074,GCD,Exact,4295873970.0,UltraTech Cement Ltd,,,https://www.ultratechcement.com/investors/plant-location.php,2020-02-05,4295872971.0,Grasim Industries Ltd,1.4Mt/yr,,,,,1.4,Mt/yr,S Natrajan,Tel: +91 43 2924 9240,Fax: +91 43 2924 9253,,1380004.385,0.0099
IND,IND0265,India,Integrated,Jaypee Gujarat plant,UltraTech Cement,"Sewagram, Kutch, Bhuj, Gujarat",Operating,23.428539999999998,68.712812,GCD,Exact,,,,,,,,,2.4Mt/yr,,,,,2.4,Mt/yr,Y Parimu,Tel: +91 28 3127 9200,Fax: +91 28 3127 9279,,1380004.385,0.0099
IND,IND0266,India,Grinding,Ratnagiri Plant,UltraTech Cement,"Zadgaon Block, Ratnagiri, Maharashtra",Operating,17.0013,73.303187,GCD,Exact,,,,,,,,,0.4Mt/yr,,,,,0.4,Mt/yr,T V Rao,Tel: +91 23 5222 3679,Fax: +91 23 5222 1807,,1380004.385,0.0099
IND,IND0267,India,Integrated,Vicat Sagar Cement plant,Vicat Sagar Cement,"Chatrasal, Gulbarga, Karnataka",Operating,17.303447,77.43615,GCD,Exact,5046718583.0,Kalburgi Cement Pvt Ltd,2.75,2013.0,http://www.bharathicement.com/contact.php,2020-02-11,4295868605.0,Vicat SA,2.8Mt/yr,,,,,2.8,Mt/yr,,,,,1380004.385,0.0099
IND,IND0268,India,Integrated,,Wonder Cement,"Chittorgarh, Rajasthan",Operating,24.661883,74.632446,GCD,Exact,,,,,,,,,6.8Mt/yr,,,,,6.8,Mt/yr,,Tel: +91 14 7730 7000,,,1380004.385,0.0099
IND,IND0269,India,Grinding,Chennai Plant,Zuari Cement (HeidelbergCement),"Attipattu, Ponneri Taluk, Thiruvallur, Chennai",Operating,13.260660999999999,80.306354,GCD,Exact,4296029056.0,Zuari Cement Ltd,1.0,2011.0,http://www.zuaricements.com/index.php/our-plants/plants/zuari-cement-yerraguntla-works,2020-02-08,4295868961.0,HeidelbergCement AG,1.0Mt/yr,,,,,1.0,Mt/yr,Y Nagendra Prasad,Tel: +91 44 2796 0027,Fax: +91 44 2796 0028,,1380004.385,0.0099
IND,IND0270,India,Integrated,Sitapuram plant,Zuari Cement (HeidelbergCement),"Dondapade, Nalgonda, Telangana",Operating,16.832064000000003,80.036823,GCD,Exact,4296029056.0,Zuari Cement Ltd,,1984.0,http://www.zuaricements.com/index.php/our-plants/plants/zuari-cement-yerraguntla-works,2020-02-08,4295868961.0,HeidelbergCement AG,Dry - 1.4Mt/yr,,,,,1.4,Mt/yr,Sunil Kumar,Tel: +91 86 8323 5107 ( / 5333),Fax: +91 86 8323 5229,,1380004.385,0.0099
IND,IND0272,India,Integrated,Krishna Nagar plant,Zuari Cement (HeidelbergCement),"Yerraguntla, Kadapa, Andhra Pradesh",Operating,14.605210000000001,78.522478,GCD,Exact,4296029056.0,Zuari Cement Ltd,4.6,1985.0,http://www.zuaricements.com/index.php/our-plants/plants/zuari-cement-yerraguntla-works,2020-02-08,4295868961.0,HeidelbergCement AG,3.8Mt/yr,,,,,3.8,Mt/yr,Y S Rao,Tel: +91 85 6327 5108,Fax: +91 85 63275164,,1380004.385,0.0099
IND,IND0273,India,,,,,Operating,26.168341,92.21409200000001,https://www.dalmiacement.com/contact-us.html,Exact,5069477263.0,Alsthom Industries Ltd,,,https://www.dalmiacement.com/contact-us.html,2020-02-05,5050706317.0,Dalmia Bharat Ltd,,,,,,,,,,,,1380004.385,0.0099
IND,IND0274,India,,,Cement Corporation of India,,Operating,17.183522,77.34737700000001,https://cciltd.in/page.php?id=74,Exact,5000930578.0,Cement Corp Of India Ltd,,,https://cciltd.in/page.php?id=74,2020-03-13,5000930578.0,Cement Corp Of India Ltd,,,,,,,,,,,,1380004.385,0.0099
IND,IND0275,India,,,Cement Corporation of India,,Operating,22.00256,82.408211,https://cciltd.in/page.php?id=78,Exact,5000930578.0,Cement Corp Of India Ltd,,,https://cciltd.in/page.php?id=78,2020-03-13,5000930578.0,Cement Corp Of India Ltd,,,,,,,,,,,,1380004.385,0.0099
IND,IND0276,India,,,Cement Corporation of India,,Operating,24.540356,74.773539,https://cciltd.in/page.php?id=77,Exact,5000930578.0,Cement Corp Of India Ltd,,,https://cciltd.in/page.php?id=77,2020-03-13,5000930578.0,Cement Corp Of India Ltd,,,,,,,,,,,,1380004.385,0.0099
IND,IND0277,India,,,,,Operating,21.142607,73.021805,https://www.jklakshmicement.com/about-jklc/,Exact,4295872438.0,JK Lakshmi Cement Ltd,,,https://www.jklakshmicement.com/about-jklc/,2020-02-06,4295872438.0,JK Lakshmi Cement Ltd,,,,,,,,,,,,1380004.385,0.0099
IND,IND0278,India,,,,,Operating,21.165505,72.986551,https://www.jklakshmicement.com/about-jklc/,Exact,4295872438.0,JK Lakshmi Cement Ltd,,,https://www.jklakshmicement.com/about-jklc/,2020-02-06,4295872438.0,JK Lakshmi Cement Ltd,,,,,,,,,,,,1380004.385,0.0099
IND,IND0279,India,,,,,Operating,22.92701,72.447126,http://www.jklakshmicement.com/contact-us/,Exact,4295872438.0,JK Lakshmi Cement Ltd,,,http://www.jklakshmicement.com/contact-us/,2020-02-06,4295872438.0,JK Lakshmi Cement Ltd,,,,,,,,,,,,1380004.385,0.0099
IND,IND0280,India,,,,,Operating,22.576171,87.309609,https://www.jsw.in/cement/about-salboni-works,Exact,4298071860.0,JSW Cement Ltd,2.4,,https://www.jsw.in/cement/about-salboni-works,2020-02-06,4298071860.0,JSW Cement Ltd,,,,,,,,,,,,1380004.385,0.0099
IND,IND0281,India,,,,,Operating,8.893025,78.133482,http://www.mahacement.com/contact-us/,Exact,4298124626.0,My Home Industries Ltd,,,http://www.mahacement.com/contact-us/,2020-02-10,4295874867.0,CRH PLC,,,,,,,,,,,,1380004.385,0.0099
IND,IND0282,India,,,,,Operating,24.714457,74.670187,https://nuvoco.in/manufacturing-units/,Exact,4296754082.0,Nuvoco Vistas Corporation Ltd,,,https://nuvoco.in/manufacturing-units/,2020-02-06,4295872891.0,Nirma Ltd,,,,,,,,,,,,1380004.385,0.0099
IND,IND0283,India,,,,,Operating,28.455175,76.273575,https://nuvoco.in/manufacturing-units/,Exact,4296754082.0,Nuvoco Vistas Corporation Ltd,,,https://nuvoco.in/manufacturing-units/,2020-02-06,4295872891.0,Nirma Ltd,,,,,,,,,,,,1380004.385,0.0099
IND,IND0284,India,,,,,Operating,14.27251,80.11508,GCD,Exact,4298177123.0,Penna Cement Industries Ltd,2.0,2018.0,https://www.pennacement.com/plants/,2020-02-06,4298177123.0,Penna Cement Industries Ltd,,,,,,,,,,,,1380004.385,0.0099
IND,IND0285,India,,,,,Operating,21.602223000000002,82.041492,https://www.shreecement.com/pages/plant_locations.php,Exact,4295874015.0,Shree Cement Ltd,,,https://www.shreecement.com/pages/plant_locations.php,2020-02-10,4295874015.0,Shree Cement Ltd,,,,,,,,,,,,1380004.385,0.0099
IND,IND0286,India,,,,,Operating,22.753657999999998,85.85646,https://www.shreecement.com/pages/plant_locations.php,Exact,4295874015.0,Shree Cement Ltd,,,https://www.shreecement.com/pages/plant_locations.php,2020-02-10,4295874015.0,Shree Cement Ltd,,,,,,,,,,,,1380004.385,0.0099
IND,IND0287,India,Integrated,Baga Cement Plant,UltraTech Cement,"Baga, Kandhar, Arki, Solan, Himachal Pradesh",Operating,31.3282,76.89425899999999,GCD,Exact,4295873970.0,UltraTech Cement Ltd,,,https://www.ultratechcement.com/investors/plant-location.php,2020-02-05,4295872971.0,Grasim Industries Ltd,1 Dry - 3Mt/yr (planning to expand to 5.25Mt/yr),1.0,DRY,,,3.0,Mt/yr,,Tel: +91 1796 223300,Fax: +91 1796 223344,,1380004.385,0.0099
IND,IND0288,India,Grinding,Solapur plant,Zuari Cement (HeidelbergCement),"Solapur, Maharastra",Operating,17.540668,76.034869,GCD,Exact,4296029056.0,Zuari Cement Ltd,0.95,2015.0,http://www.zuaricements.com/index.php/our-plants/plants/zuari-cement-yerraguntla-works,2020-02-08,4295868961.0,HeidelbergCement AG,1.2Mt/yr,,,,,1.2,Mt/yr,G. Gopal Krishnamurthy,+ 217 2500740,,,1380004.385,0.0099
IND,IND0289,India,,,,,Operating,9.559566,76.510421,OSM,Exact,,,,,,,,,,,,,,,,,,,,1380004.385,0.0099
IND,IND0293,India,,,,,Operating,18.992068,73.030851,OSM,Exact,,,,,,,,,,,,,,,,,,,,1380004.385,0.0099
IND,IND0294,India,,,,,Operating,22.419734,75.06965600000001,OSM,Exact,,,,,,,,,,,,,,,,,,,,1380004.385,0.0099
IND,IND0295,India,,,,,Operating,23.383685999999997,68.56913399999999,OSM,Exact,,,,,,,,,,,,,,,,,,,,1380004.385,0.0099
IND,IND0296,India,,,,,Operating,23.680721,80.650309,OSM,Exact,,,,,,,,,,,,,,,,,,,,1380004.385,0.0099
IND,IND0297,India,,,,,Operating,23.817428,68.794833,OSM,Exact,,,,,,,,,,,,,,,,,,,,1380004.385,0.0099
IND,IND0298,India,,,,,Operating,24.44605,83.075826,OSM,Exact,,,,,,,,,,,,,,,,,,,,1380004.385,0.0099
IND,IND0299,India,,,,,Operating,24.549063,83.96485799999999,OSM,Exact,,,,,,,,,,,,,,,,,,,,1380004.385,0.0099
IND,IND0300,India,,,,,Operating,24.63924,83.101967,OSM,Exact,,,,,,,,,,,,,,,,,,,,1380004.385,0.0099
IND,IND0301,India,,,,,Operating,25.26056,91.710717,OSM,Exact,,,,,,,,,,,,,,,,,,,,1380004.385,0.0099
IND,IND0302,India,Grinding,Aligarh Plant,Mangalam Cement,"Aligarh, Uttar Pradesh",Operating,27.960795,78.08159,GCD,Exact,,,,,,,,,0.8Mt/yr,,,,,0.8,Mt/yr,,,,,1380004.385,0.0099
IDN,IDN0001,Indonesia,Integrated,Manokwari Plant,Semen Anhui Conch,West Papua,Operating,-0.997604,134.024306,GCD,Exact,,SDIC Indonesia Papua Cement Co Ltd,,2016.0,http://english.conch.cn/fdfdg62434819/list.aspx,2020-02-11,4295864310.0,Anhui Conch Cement Co Ltd,3.0Mt/yr (Under construction),,,,,3.0,Mt/yr,,,,,273523.615,0.0107
IDN,IDN0002,Indonesia,Integrated,Tanjung Plant,Semen Anhui Conch,"Tanjung, Tabalong, South Kalimantan",Operating,-2.060086,115.57021200000001,GCD,Exact,5037968727.0,Conch South Kalimantan Cement PT,,2016.0,http://english.conch.cn/fdfdg62435/list.aspx,2020-02-11,4295864310.0,Anhui Conch Cement Co Ltd,2.5Mt/yr,,,,,2.5,Mt/yr,,,,,273523.615,0.0107
IDN,IDN0003,Indonesia,Integrated,,PT Cemindo Gemilang (Semen Merah Putih),"Lebak, Bayah, Banten, West Java",Operating,-6.954596,106.24700800000001,GCD,Exact,,,,,,,,,4.0Mt/yr,,,,,4.0,Mt/yr,,,,,273523.615,0.0107
IDN,IDN0006,Indonesia,Integrated,Cilacap Plant,Semen Indonesia (formerly Holcim Indonesia),"Karangtalun, Cilapap, Central Java",Operating,-7.687489,109.022305,GCD,Exact,4295874371.0,Solusi Bangun Indonesia Tbk PT,,,https://solusibangunindonesia.com/profil-perusahaan/,2020-07-27,4295874376.0,Semen Indonesia (Persero) Tbk PT,1 Dry - 3.5Mt/yr,1.0,DRY,,,3.5,Mt/yr,,Tel: +62 282 541 521,Fax: +62 282 542 529,,273523.615,0.0107
IDN,IDN0007a,Indonesia,Grinding,,Cemindo Gemilang,"Ciwandan, Banten",Operating,-6.022556,105.96033600000001,GCD,Exact,,,,,,,,,"2 mills, total 0.75Mt/yr",,,,,0.75,Mt/yr,,,,,273523.615,0.0107
IDN,IDN0007b,Indonesia,Grinding,"Ciwandan Plant, Banten",Holcim Indonesia (LafargeHolcim),,Operating,-6.020475,105.95855900000001,GCD,Exact,,,,,,,,,0.7Mt/yr,,,,,0.7,Mt/yr,,,,,273523.615,0.0107
IDN,IDN0008,Indonesia,Integrated,Narogong Plant,Semen Indonesia (formerly Holcim Indonesia),"Narogong, Bogor, West Java",Operating,-6.461181,106.93356000000001,GCD,Exact,4295874371.0,Solusi Bangun Indonesia Tbk PT,,,https://solusibangunindonesia.com/profil-perusahaan/,2020-07-27,4295874376.0,Semen Indonesia (Persero) Tbk PT,4 Dry - 6.2Mt/yr (Only 2 kilns running),4.0,DRY,,,6.2,Mt/yr,Timothy David Mackay,Tel: +62 21 823 1260,Fax: +62 21 823 4584,,273523.615,0.0107
IDN,IDN0009,Indonesia,Integrated,Tuban Plant,Semen Indonesia (formerly Holcim Indonesia),"Tuban, East Java",Operating,-6.816613,111.88583,GCD,Exact,4295874371.0,Solusi Bangun Indonesia Tbk PT,,,https://solusibangunindonesia.com/profil-perusahaan/,2020-07-27,4295874376.0,Semen Indonesia (Persero) Tbk PT,2 Dry - 3.4Mt/yr,2.0,DRY,,,3.4,Mt/yr,,Tel: +62 356 289 3000,Fax: +62 356 289 3111,,273523.615,0.0107
IDN,IDN0011,Indonesia,Integrated,Citeureup Plant,Indocement Tunggal Prakarsa (Heidelberg Cement),"Bogor, West Java",Operating,-6.479811,106.89911799999999,GCD,Exact,4295874363.0,Indocement Tunggal Prakarsa Tbk PT,4.4,,http://www.indocement.co.id/v5/en/company/indocement-in-brief/brief-description,2020-02-08,4295868961.0,HeidelbergCement AG,18Mt/yr,,,,,18.0,Mt/yr,Christian Kartawijaya,Tel: +62 21 875 2812,Fax: +62 21 876,,273523.615,0.0107
IDN,IDN0013,Indonesia,Integrated,Paliman Plant,Indocement Tunggal Prakarsa (HeidelbergCement),"Cirebon, West Java",Operating,-6.705336999999999,108.401523,GCD,Exact,4295874363.0,Indocement Tunggal Prakarsa Tbk PT,,,http://www.indocement.co.id/v5/en/company/indocement-in-brief/brief-description,2020-02-08,4295868961.0,HeidelbergCement AG,2 Dry - 4.1Mt/yr,2.0,DRY,,,4.1,Mt/yr,Christian Kartawijaya,Tel: +62 23 134 3952,Fax: +62 23 134 3617,,273523.615,0.0107
IDN,IDN0015,Indonesia,Integrated,Tarjun Plant,Indocement Tunggal Prakarsa (HeidelbergCement),"Kotabaru, South Kalimanta",Operating,-3.271007,116.10583500000001,GCD,Exact,4295874363.0,Indocement Tunggal Prakarsa Tbk PT,,,http://www.indocement.co.id/v5/en/company/indocement-in-brief/brief-description,2020-02-08,4295868961.0,HeidelbergCement AG,1 Dry - 2.6Mt/yr,1.0,DRY,,,2.6,Mt/yr,Christian Kartawijaya,Tel: +62 21 251 2121,,,273523.615,0.0107
IDN,IDN0017,Indonesia,Integrated,Lhoknga Plant,Semen Indonesia (formerly Holcim Indonesia),"Lhoknga, Aceh",Operating,5.4511389999999995,95.246351,GCD,Exact,4295874371.0,Solusi Bangun Indonesia Tbk PT,,,https://solusibangunindonesia.com/profil-perusahaan/,2020-07-27,4295874376.0,Semen Indonesia (Persero) Tbk PT,1 Dry - 1.6Mt/yr (planned expansion to 2.1Mt/yr),1.0,DRY,,,1.6,Mt/yr,Thomas Erhard,Tel: +62 651 7550 0016,Fax: +62 651 7550 010,,273523.615,0.0107
IDN,IDN0018,Indonesia,Integrated,,PT Semen Jawa (Siam Cement Group),"Sukabumi, West Java",Operating,-6.976614,106.86075,GCD,Exact,,,,,,,,,1.8Mt/yr,,,,,1.8,Mt/yr,Nantapong Chantrakul,Tel: +62 213 509 491,Fax: +62 213 509 704,,273523.615,0.0107
IDN,IDN0020,Indonesia,Grinding,Baturaja Plant,Semen Baturaja (Persero),"Baturaja, Ogan Komering Ulu, South Sumatra",Operating,-4.11672,104.16159499999999,GCD,Exact,5000035952.0,Semen Baturaja (Persero) Tbk PT,,,https://semenbaturaja.co.id/alamat-perusahaan/,2020-03-13,5000035952.0,Semen Baturaja (Persero) Tbk PT,1.3Mt/yr,,,,,1.3,Mt/yr,,Tel: +62 735 320 344 ( / 366 / 368),Fax: +62 735 320 367,,273523.615,0.0107
IDN,IDN0021,Indonesia,Grinding,Palembang Plant,Semen Baturaja (Persero),"Ketapati, Palembang",Operating,-3.023469,104.745325,GCD,Exact,5000035952.0,Semen Baturaja (Persero) Tbk PT,,,https://semenbaturaja.co.id/alamat-perusahaan/,2020-03-13,5000035952.0,Semen Baturaja (Persero) Tbk PT,,,,,,,,,Tel: +62 711 511 261,Fax: +62 711 512 126,,273523.615,0.0107
IDN,IDN0023,Indonesia,Grinding,Panjang Plant,Semen Baturaja (Persero),"Panjang, Bandar Lampung",Operating,-5.459666,105.316406,GCD,Exact,5000035952.0,Semen Baturaja (Persero) Tbk PT,,,https://semenbaturaja.co.id/alamat-perusahaan/,2020-03-13,5000035952.0,Semen Baturaja (Persero) Tbk PT,,,,,,,,,Tel: +62 721 31718 ( / 31818 / 31538),Fax: +62 721 31343,,273523.615,0.0107
IDN,IDN0024,Indonesia,Grinding,Batam Plant,Semen Bosowa,"Kampung Baru, Batam, Riau Island",Operating,1.058782,104.136023,GCD,Exact,,,,,,,,,1.2Mt/yr,,,,,1.2,Mt/yr,,Tel: +62 770 611 489,Fax: +62 77 871 1429,,273523.615,0.0107
IDN,IDN0025,Indonesia,Integrated,Maros Plant,Semen Bosowa,"Ujung Pandang, South Sulawesi",Operating,-4.947312,119.62697299999999,GCD,Exact,,,,,,,,,2 Dry - 4.2Mt/yr,2.0,DRY,,,4.2,Mt/yr,Rachid Hamdani,Tel: + 62 41 137 2372,Fax: + 62 41 137 2233,,273523.615,0.0107
