iso3,uid,country,pf_number_plants,pf_number_blast_furnace,pf_total_raw_production_capacity,Unnamed: 6,pf_owner,pf_location,status,latitude,longitude,source,accuracy,owner_permid,owner_name,reported_capacity,reported_production_start,owner_source,date_accessed,parent_permid,parent_name,ownership_stake,parent_permid.1,parent_name.1,ownership_stake.1,comment_ownership
DZA,DZA0001,Algeria,22.0,2.0,7050.0,1.0,ARCELORMITTAL ALGERIA,"EL HADJAR, ANNABA",Operating,36.792072,7.701535000000001,PlantFacts,Exact,,,,,,,,,,,,,
DZA,DZA0002,Algeria,10.0,,5100.0,1.0,ALGERIAN QATARI STEEL,"BELLARA, JIJEL",Operating,36.747137,6.250612,PlantFacts,Exact,,Algerian Qatari Steel Company,,,https://aqs.dz/about/,2020-07-22,5000010731.0,Qatar Steel Company QPSC,,,,,
DZA,DZA0003,Algeria,2.0,,6500.0,1.0,TOSYALI ALGERIA,BETHIOUA,Operating,35.7702333,-0.2646662,PlantFacts,Exact,5074196906,Tosyali Ironsteel Industry Algerie SPA,,,https://www.tosyaliholding.com.tr/en/our-scope-of-activity/group-companies/international-subsidiaries/tosyali-iron-steel-industry-algerie,2020-07-22,5000866267.0,Tosyali Holding AS,,,,,
AGO,AGO0001,Angola,5.0,,,0.0,ACERIA DE ANGOLA SA,"BARRA DO DANDE, BENGO PROV.",Operating,-8.5824,13.405270999999999,PlantFacts,Exact,,,,,,,,,,,,,
ARG,ARG0001,Argentina,12.0,1.0,360.0,0.0,ACEROS ZAPLA SA,"PALPALA, JUJUY",Operating,-24.244239999999998,-65.19809599999999,PlantFacts,Exact,,,,,,,,,,,,,
ARG,ARG0002,Argentina,,,,0.0,,,Operating,-32.926684,-60.714138,https://www.ternium.com/en/contact-us#our-offices,Exact,4295856067,Ternium Argentina SA,,,https://www.ternium.com/en/contact-us#our-offices,2020-04-30,4295856130.0,Ternium SA,,,,,
ARG,ARG0003,Argentina,1.0,,,0.0,LAMINADOS INDUSTRIALES (BELTRAME),"VILLA CONSTITUCION, SANTA FE",Operating,-33.26958,-60.282830000000004,PlantFacts,Exact,,,,,,,,,,,,,
ARG,ARG0004,Argentina,11.0,,2600.0,1.0,ARCELORMITTAL ACINDAR SA,"VILLA CONSTITUCION, SANTA FE",Operating,-33.25696,-60.286649,PlantFacts,Exact,4295856032,Acindar Industria Argentina de Aceros SA,,,https://www.acindar.com.ar/wp-content/uploads/2018/11/reporte-sustentabilidad-2011.pdf,2020-04-08,5000030092.0,Arcelormittal SA,,,,,
ARG,ARG0005,Argentina,1.0,,,0.0,ARCELORMITTAL ACINDAR SA,"SAN NICOLAS, BA",Operating,-33.346459,-60.257842000000004,PlantFacts,Exact,4295856032,Acindar Industria Argentina de Aceros SA,,,https://www.acindar.com.ar/wp-content/uploads/2018/11/reporte-sustentabilidad-2011.pdf,2020-04-08,5000030092.0,Arcelormittal SA,,,,,
ARG,ARG0006,Argentina,18.0,2.0,8630.0,1.0,TERNIUM SIDERAR,"RAMALLO-SAN NICOLAS, BA",Operating,-33.36772,-60.149568,PlantFacts,Exact,4295856067,Ternium Argentina SA,,,https://www.ternium.com/en/contact-us#our-offices,2020-04-30,4295856130.0,Ternium SA,,,,,
ARG,ARG0007,Argentina,1.0,,,0.0,TERNIUM SIDERAR,"HAEDO, BA",Operating,-34.638826,-58.611764,PlantFacts,Exact,4295856067,Ternium Argentina SA,,,https://www.ternium.com/en/contact-us#our-offices,2020-04-30,4295856130.0,Ternium SA,,,,,
ARG,ARG0008,Argentina,1.0,,,0.0,OSTRILION SA,BUENOS AIRES,Operating,-34.653667999999996,-58.372772999999995,PlantFacts,Exact,,,,,,,,,,,,,
ARG,ARG0009,Argentina,2.0,,,0.0,TERNIUM SIDERAR,"FLORENCIO VARELA, BA",Operating,-34.819972,-58.199373,PlantFacts,Exact,4295856067,Ternium Argentina SA,,,https://www.ternium.com/en/contact-us#our-offices,2020-04-30,4295856130.0,Ternium SA,,,,,
ARG,ARG0010,Argentina,5.0,,,0.0,TERNIUM SIDERAR,"ENSENADA, BA",Operating,-34.854633,-57.941098,PlantFacts,Exact,4295856067,Ternium Argentina SA,,,https://www.ternium.com/en/contact-us#our-offices,2020-04-30,4295856130.0,Ternium SA,,,,,
ARG,ARG0011,Argentina,2.0,,,0.0,TERNIUM SIDERAR,"CANNING, BA",Operating,-34.877925,-58.511103000000006,PlantFacts,Exact,4295856067,Ternium Argentina SA,,,https://www.ternium.com/en/contact-us#our-offices,2020-04-30,4295856130.0,Ternium SA,,,,,
ARG,ARG0012,Argentina,5.0,,300.0,0.0,VOTORANTIM ACERBRAG SA,"BRAGADO, BA",Operating,-35.140246999999995,-60.44965,PlantFacts,Exact,,,,,,,,,,,,,
ARG,ARG0013,Argentina,5.0,,650.0,0.0,GERDAU SA,"PEREZ, SANTA FE",Operating,-32.991766,-60.755798,PlantFacts,Exact,,,,,,,,,,,,,
ARG,ARG0014,Argentina,7.0,,1300.0,1.0,TENARIS SIDERCA,"CAMPANA, BA",Operating,-34.155515,-58.975955000000006,PlantFacts,Exact,4298123650,Siderca SAIC,,,https://www.tenaris.com/en/contact/tenaris-around-the-world/,2020-05-15,4295883040.0,Tenaris SA,,,,,
ARG,ARG0015,Argentina,,,,0.0,,,Operating,-34.687596,-58.539625,https://www.acindar.com.ar/wp-content/uploads/2018/11/reporte-sustentabilidad-2011.pdf,Exact,4295856032,Acindar Industria Argentina de Aceros SA,,,https://www.acindar.com.ar/wp-content/uploads/2018/11/reporte-sustentabilidad-2011.pdf,2020-07-24,5000030092.0,Arcelormittal SA,,,,,
ARG,ARG0016,Argentina,,,,0.0,,,Operating,-32.974327,-60.728177,https://www.acindar.com.ar/wp-content/uploads/2018/11/reporte-sustentabilidad-2011.pdf,Exact,4295856032,Acindar Industria Argentina de Aceros SA,,,https://www.acindar.com.ar/wp-content/uploads/2018/11/reporte-sustentabilidad-2011.pdf,2020-07-24,5000030092.0,Arcelormittal SA,,,,,
ARM,ARM0001,Armenia,3.0,,200.0,0.0,ASCE GROUP OJSC,CHARENTSAVAN,Operating,40.413734000000005,44.639174,PlantFacts,Exact,,,,,,,,,,,,,
AUS,AUS0001,Australia,2.0,,,0.0,ONESTEEL,"NEWCASTLE, NSW",Operating,-32.887895,151.744629,PlantFacts,Exact,5071167707,Infrabuild Australia Pty Ltd,,,https://www.infrabuild.com/en-au/branch-locator/branches/infrabuild-steel-centre-newcastle/,2020-05-19,5057811578.0,Gfg Alliance Ltd,,,,,
AUS,AUS0002,Australia,8.0,1.0,4000.0,1.0,ONESTEEL,"WHYALLA, SA",Operating,-33.009381,137.587836,PlantFacts,Exact,5071167707,Infrabuild Australia Pty Ltd,,,https://www.libertygfg.com/liberty-primary-steel/,2020-05-19,5057811578.0,Gfg Alliance Ltd,,,,,
AUS,AUS0003,Australia,4.0,,660.0,0.0,ONESTEEL,"SYDNEY WEST-ROOTY HILL , NSW",Operating,-33.766009999999994,150.849819,PlantFacts,Exact,5071167707,Infrabuild Australia Pty Ltd,,,https://www.infrabuild.com/en-au/branch-locator/branches/infrabuild-steel-rooty-hill/,2020-05-19,5057811578.0,Gfg Alliance Ltd,,,,,
AUS,AUS0005,Australia,,,,0.0,,,Operating,-34.457668,150.874433,https://www.bluescope.com/about-us/where-we-are/,Exact,4295858761,BlueScope Steel Ltd,,,https://www.bluescope.com/about-us/where-we-are/,2020-04-30,4295858761.0,BlueScope Steel Ltd,,,,,
AUS,AUS0006,Australia,19.0,1.0,10900.0,1.0,BLUESCOPE STEEL,"PORT KEMBLA, NSW",Operating,-34.463834000000006,150.886191,PlantFacts,Exact,4295858761,BlueScope Steel Ltd,2.6,,https://www.bluescope.com/about-us/where-we-are/,2020-04-30,4295858761.0,BlueScope Steel Ltd,,,,,
AUS,AUS0007,Australia,5.0,,710.0,0.0,ONESTEEL ,"LAVERTON, VIC",Operating,-37.831379,144.78816899999998,PlantFacts,Exact,5071167707,Infrabuild Australia Pty Ltd,,,https://www.infrabuild.com/en-au/branch-locator/branches/infrabuild-steel-laverton/,2020-05-19,5057811578.0,Gfg Alliance Ltd,,,,,
AUS,AUS0008,Australia,9.0,,,0.0,BLUESCOPE STEEL,"WESTERN PORT-HASTINGS, VIC",Operating,-38.283196000000004,145.20503,PlantFacts,Exact,4295858761,BlueScope Steel Ltd,,,https://www.bluescope.com/about-us/where-we-are/,2020-04-30,4295858761.0,BlueScope Steel Ltd,,,,,
AUS,AUS0009,Australia,1.0,,,0.0,BLUESCOPE STEEL,"BRISBANE, QLD",Operating,-27.582695,153.032028,PlantFacts,Exact,4295858761,BlueScope Steel Ltd,,,https://www.bluescope.com/about-us/where-we-are/,2020-04-30,4295858761.0,BlueScope Steel Ltd,,,,,
AUT,AUT0001,Austria,3.0,,,0.0,VOESTALPINE WIRE ROD AUSTRIA GMBH,DONAWITZ,Operating,47.3907944,15.041311300000002,PlantFacts,Exact,5000038424,voestalpine Stahl Donawitz GmbH,,,https://www.voestalpine.com/stahldonawitz/en/,2020-03-09,4295858976.0,voestalpine AG,,,,,
AUT,AUT0002,Austria,4.0,,,0.0,VOESTALPINE PRECISION STRIP ,KEMATEN,Operating,48.064267,14.792859,PlantFacts,Exact,4298049361,voestalpine Precision Strip GmbH,,,https://www.voestalpine.com/precision-strip/company/locations-worldwide/austria/locations,2020-03-09,4295858976.0,voestalpine AG,,,,,
AUT,AUT0003,Austria,40.0,4.0,13780.0,1.0,VOESTALPINE STAHL,LINZ,Operating,48.280419,14.332767,PlantFacts,Exact,5035949909,voestalpine Stahl GmbH,,,https://www.voestalpine.com/search/en/#?category=locations&format=list&ccontinent=europe&ccountry=austria,2020-03-09,4295858976.0,voestalpine AG,,,,,
AUT,AUT0004,Austria,1.0,,,0.0,STAHL JUDENBURG GMBH,JUDENBURG,Operating,47.174085,14.667944,PlantFacts,Exact,5039934273,Stahl Judenburg GmbH,,,https://www.gmh-gruppe.de/de-en/gmh-gruppe/units.html,2020-05-13,4296801706.0,Georgsmarienhuette Holding GmbH,,,,,
AUT,AUT0005,Austria,10.0,2.0,4340.0,1.0,VA STAHL DONAWITZ GMBH,DONAWITZ,Operating,47.381778000000004,15.061917000000001,PlantFacts,Exact,5000038424,voestalpine Stahl Donawitz GmbH,,,https://www.voestalpine.com/stahldonawitz/en/company/location/,2020-05-13,4295858976.0,voestalpine AG,,,,,
AUT,AUT0006,Austria,1.0,,,0.0,VA SCHIENEN GMBH,DONAWITZ,Operating,47.385683,15.054246,PlantFacts,Exact,4297238556,voestalpine Schienen GmbH,,,https://www.voestalpine.com/railway-systems/en/locations/voestalpine-schienen/,2020-05-13,4295858976.0,voestalpine AG,,,,,
AUT,AUT0007,Austria,1.0,,,0.0,WUPPERMANN AUSTRIA,JUDENBURG,Operating,47.173627,14.656863000000001,PlantFacts,Exact,5035951450,Wuppermann Austria GmbH,,,https://www.wuppermann.com/locations/business-unit-tube/wuppermann-austria-gmbh,2020-05-14,4297659527.0,Wuppermann AG,,,,,
AUT,AUT0008,Austria,22.0,,180.0,0.0,BÌÐHLER EDELSTAHL GMBH,KAPFENBERG,Operating,47.444064399999995,15.2830786,PlantFacts,Exact,5061187413,Voestalpine Boehler Edelstahl Co GmbH & KG,,,https://www.bohler-edelstahl.com/en/voestalpine-boehler-edelstahl/,2020-05-13,4295858976.0,voestalpine AG,,,,,
AUT,AUT0009,Austria,9.0,,300.0,0.0,BREITENFELD EDELSTAHL,MITTERDORF,Operating,47.5345049,15.5006443,PlantFacts,Exact,4297142027,Breitenfeld Edelstahl AG,,1942.0,https://breitenfeld.at/en/how-to-find-us/,2020-05-13,4297142027.0,Breitenfeld Edelstahl AG,,,,,
AUT,AUT0010,Austria,4.0,,,0.0,VOESTALPINE PRECISION STRIP ,BOEHLERWERK,Operating,47.989746000000004,14.739820000000002,PlantFacts,Exact,4298049361,voestalpine Precision Strip GmbH,,,https://www.voestalpine.com/precision-strip/company/locations-worldwide/austria/locations,2020-03-09,4295858976.0,voestalpine AG,,,,,
AUT,AUT0011,Austria,4.0,,365.0,0.0,ST.+WW. MARIENHÌÏTTE,GRAZ,Operating,47.063927,15.418404,PlantFacts,Exact,5000898379,Stahl- und Walzwerk Marienhütte GmbH,,,https://www.marienhuette.at/kontakt,2020-05-15,,M + S Maschinen und Stahl Holding GmbH,,,,,
AUT,AUT0012,Austria,2.0,,,0.0,BÌÐHLER BLECHE GMBH,MÌÏRZZUSCHLAG,Operating,47.601473,15.666271,PlantFacts,Exact,,Voestalpine BÖHLER Bleche GmbH,,,https://www.voestalpine.com/search/en/#?category=locations&format=list&ccontinent=europe&ccountry=austria,2020-05-13,4295858976.0,voestalpine AG,,,,,
AUT,AUT0013,Austria,,,,0.0,,,Operating,47.547881,15.546945000000001,https://www.gmh-gruppe.de/de-en/gmh-gruppe/units/vtk-krieglach-gmbh.html,Exact,5057961576,VTK Veredelungstechnik Krieglach GmbH,,,https://www.gmh-gruppe.de/de-en/gmh-gruppe/units/vtk-krieglach-gmbh.html,2020-05-13,4296801706.0,Georgsmarienhuette Holding GmbH,,,,,
AZE,AZE0001,Azerbaijan,7.0,,700.0,0.0,BAKU STEEL,BAKU PLANT,Operating,40.430741999999995,49.886409,PlantFacts,Exact,,,,,,,,,,,,,
BHR,BHR0001,Bahrain,5.0,,2350.0,1.0,UNITED STEEL CO (SULB),HIDD INDUSTRIAL AREA,Operating,26.195868,50.678224,PlantFacts,Exact,5000674578,Sulb Company BSCC,,,http://www.sulb.com.bh/#!/contactus,2020-07-30,5000674578.0,Sulb Company BSCC,,,,,
BHR,BHR0002,Bahrain,1.0,,,0.0,UNIVERSAL ROLLING (UNIROL),HIDD INDUSTRIAL AREA,Operating,26.209857,50.669087,PlantFacts,Exact,,,,,,,,,,,,,
BHR,BHR0003,Bahrain,3.0,,,0.0,UNITED STAINLESS STEEL CO,HIDD INDUSTRIAL AREA,Operating,26.20225,50.678546999999995,PlantFacts,Exact,,,,,,,,,,,,,
BHR,BHR0004,Bahrain,2.0,,11000.0,1.0,BAHRAIN STEEL,HIDD INDUSTRIAL AREA,Operating,26.196895,50.681574,PlantFacts,Exact,,,,,,,,,,,,,
BGD,BGD0001,Bangladesh,2.0,,,0.0,KYCR COIL INDUSTRIES LTD,CHITTAGONG,Operating,22.499834,91.715778,PlantFacts,Exact,,,,,,,,,,,,,
BGD,BGD0002,Bangladesh,2.0,,,0.0,BSRM STEELS,CHITTAGONG,Operating,22.38106,91.76862,PlantFacts,Exact,,,,,,,,,,,,,
BGD,BGD0004,Bangladesh,10.0,,1450.0,1.0,ABUL KHAIR STEEL,CHITTAGONG,Operating,22.472008,91.734827,PlantFacts,Exact,,,,,,,,,,,,,
BLR,BLR0001,Belarus,16.0,,2700.0,1.0,BYELORUSSIAN STEEL  WORKS (BMZ),ZHLOBIN,Operating,52.85154300000001,29.992252,PlantFacts,Exact,,,,,,,,,,,,,
BEL,BEL0001,Belgium,1.0,,,0.0,ARCELORMITTAL LIEGE,MARCHIN,Operating,50.493935,5.235437,PlantFacts,Exact,5000060650,Arcelormittal Belgium SA,,,https://belgium.arcelormittal.com/en/inauguration-world-first-steel-industry-jet-vapor-deposition/,2020-04-08,5000030092.0,Arcelormittal SA,,,,,
BEL,BEL0002,Belgium,1.0,,,0.0,ARCELORMITTAL GENT ,GEEL,Operating,51.143648,4.9251879999999995,PlantFacts,Exact,5000060650,Arcelormittal Belgium SA,,,https://flateurope.arcelormittal.com/ourmills/be/geel,2020-04-08,5000030092.0,Arcelormittal SA,,,,,
BEL,BEL0003,Belgium,2.0,,,0.0,EUROPICKLING NV,EVERGEM,Operating,51.097947,3.6929309999999997,PlantFacts,Exact,5057778962,Europickling SA NV,,,http://www.europickling.com/en/,2020-05-14,5057778962.0,Europickling SA NV,,,,,
BEL,BEL0004,Belgium,1.0,,,0.0,ARCELORMITTAL GENT (SIKEL),GENK,Operating,50.940834,5.47968,PlantFacts,Exact,5000060650,Arcelormittal Belgium SA,,,https://flateurope.arcelormittal.com/ourmills/be/genk,2020-04-08,5000030092.0,Arcelormittal SA,,,,,
BEL,BEL0005,Belgium,17.0,,1200.0,1.0,APERAM STAINLESS EUROPE,GENK,Operating,50.935668,5.509796,PlantFacts,Exact,5000047720,Aperam Stainless Belgium NV,,,https://www.aperam.com/belgium,2020-05-13,5001428593.0,Aperam SA,,,,,
BEL,BEL0008,Belgium,27.0,2.0,16630.0,1.0,ARCELORMITTAL GENT ,GHENT,Operating,51.170703,3.8076879999999997,PlantFacts,Exact,5000060650,Arcelormittal Belgium SA,,,https://flateurope.arcelormittal.com/ourmills/be/gent,2020-04-08,5000030092.0,Arcelormittal SA,,,,,
BEL,BEL0009,Belgium,5.0,,,0.0,ARCELORMITTAL LIEGE,LIEGE-KESSALES,Operating,50.613572999999995,5.494676,PlantFacts,Exact,5000060650,Arcelormittal Belgium SA,,,https://belgium.arcelormittal.com/en/inauguration-world-first-steel-industry-jet-vapor-deposition/,2020-04-08,5000030092.0,Arcelormittal SA,,,,,
BEL,BEL0010,Belgium,7.0,,,0.0,NLMK LA LOUVIERE,LA LOUVIERE,Operating,50.488137,4.189103,PlantFacts,Exact,4296772966,NLMK la Louviere SA,,,https://eu.nlmk.com/en/strip/la-louviere/,2020-04-08,4295887048.0,Novolipetsk Steel PAO,,,,,
BEL,BEL0011,Belgium,5.0,,,0.0,ARCELORMITTAL LIEGE,FLEMALLE,Operating,50.594707,5.466776,PlantFacts,Exact,5000060650,Arcelormittal Belgium SA,,,https://flateurope.arcelormittal.com/ourmills/be/liege,2020-04-08,5000030092.0,Arcelormittal SA,,,,,
BEL,BEL0013,Belgium,1.0,,,0.0,TATA STEEL SEGAL,IVOZ-RAMET,Operating,50.585014,5.437697,PlantFacts,Exact,,Segal Le galvaniseur de pointe pour l'automobile,0.6,1986.0,http://www.segal.be/fr/segal.html,2020-04-08,4295872420.0,Tata Steel Ltd,,,,,
BEL,BEL0015,Belgium,7.0,,1000.0,0.0,APERAM STAINLESS EUROPE,CHATELET,Operating,50.414695,4.531989,PlantFacts,Exact,5000047720,Aperam Stainless Belgium NV,,,https://www.aperam.com/belgium,2020-05-13,5001428593.0,Aperam SA,,,,,
BEL,BEL0016,Belgium,5.0,,850.0,0.0,THY MARCINELLE S.A.,CHARLEROI,Operating,50.410334999999996,4.429693,PlantFacts,Exact,4296671968,Thy Marcinelle S.A.,,,https://www.rivagroup.com/en/production_sites/thy_marcinelle_charleroi,2020-05-13,5039934846.0,Riva Forni Elettrici SpA,,,,,
BEL,BEL0017,Belgium,5.0,,450.0,0.0,ARCELORMITTAL INDUSTEEL BELGIUM,CHARLEROI-MARCHIENNE,Operating,50.409828999999995,4.412782,PlantFacts,Exact,4296306422,Industeel Belgium SA,,,https://industeel.arcelormittal.com/industeel/where-we-are/,2020-04-08,5000030092.0,Arcelormittal SA,,,,,storage
BEL,BEL0018,Belgium,1.0,,,0.0,NLMK CLABECQ ,ITTRE,Operating,50.6757,4.227263,PlantFacts,Exact,5000738417,NLMK Clabecq SA,,,https://eu.nlmk.com/en/plate/clabecq/production-process/,2020-04-08,4295887048.0,Novolipetsk Steel PAO,,,,,
BEL,BEL0019,Belgium,2.0,,,0.0,ARCELORMITTAL LIEGE,LIEGE-TILLEUR,Operating,50.615642,5.517478,PlantFacts,Exact,5039930036,Arcelormittal Ringmill SA,,,https://arcelormittalringmill.com/en/,2020-04-08,5000030092.0,Arcelormittal SA,,,,,
BEL,BEL0022,Belgium,,,,0.0,,,Operating,48.577504,7.795942999999999,https://eu.nlmk.com/en/strip/strasbourg/,Exact,5000737650,NLMK Strasbourg SA,,,https://eu.nlmk.com/en/strip/strasbourg/,2020-05-13,4295887048.0,Novolipetsk Steel PAO,,,,,
BEL,BEL0023,Belgium,,,,0.0,,,Operating,50.412708,4.3334660000000005,https://www.rivagroup.com/en/production_sites/tfe_fontaine_l_eveque,Exact,,Tréfileries de Fontaine l'Eveque,,,https://www.rivagroup.com/en/production_sites/tfe_fontaine_l_eveque,2020-05-13,5039934846.0,Riva Forni Elettrici SpA,,,,,
BIH,BIH0001,Bosnia and Herzegovina,9.0,1.0,5000.0,1.0,ARCELORMITTAL ZENICA,ZENICA,Operating,44.227639,17.898785,PlantFacts,Exact,5000032006,Arcelormittal Zenica doo Zenica,,,https://barsandrods.arcelormittal.com/mills/zenica,2020-07-27,5000030092.0,Arcelormittal SA,,,,,
BIH,BIH0002,Bosnia and Herzegovina,1.0,,,0.0,GIKIL,LUKAVAC,Operating,44.549915000000006,18.505602,PlantFacts,Exact,,,,,,,,,,,,,
BIH,BIH0003,Bosnia and Herzegovina,,,,0.0,,,Operating,44.550961,18.504728,0,Exact,,,,,,,,,,,,,
BRA,BRA0001,Brazil,6.0,,870.0,0.0,GERDAU USIBA ,"SIMOES FILHO, BA",Operating,-12.84938,-38.433312,PlantFacts,Exact,4297571558,Gerdau Acos Longos Sa,,,https://www2.gerdau.com.br/sites/default/files/downloadable_files/LO-USB-080722.pdf,2020-07-20,5000004542.0,Gerdau SA,,,,,
BRA,BRA0002,Brazil,2.0,2.0,500.0,0.0,COSIPAR,"BARCARENA CITY, PARA",Operating,-5.413941,-49.089814000000004,PlantFacts,Exact,,,,,,,,,,,,,
BRA,BRA0003,Brazil,4.0,,,0.0,CIA. SIDERURGICA DE SUAPE,"SUAPE, PERNAMBUCO",Operating,-8.342767,-35.006253,PlantFacts,Exact,,,,,,,,,,,,,
BRA,BRA0004,Brazil,8.0,,250.0,0.0,GERDAU ACONORTE,"RECIFE, PE",Operating,-8.071809,-34.977168,PlantFacts,Exact,4297571558,Gerdau Acos Longos Sa,,,https://www2.gerdau.com.br/sites/default/files/downloadable_files/14001-Aconorte-010122.pdf,2020-07-20,5000004542.0,Gerdau SA,,,,,
BRA,BRA0005,Brazil,6.0,1.0,610.0,0.0,SID. NORTE BRASIL SA,"MARABA, PARA",Operating,-5.413785,-49.079903,PlantFacts,Exact,,,,,,,,,,,,,
BRA,BRA0006,Brazil,6.0,3.0,780.0,0.0,GUSA NORDESTE SA,"ACAILANDIA, MARANHAO",Operating,-4.893147,-47.387118,PlantFacts,Exact,,,,,,,,,,,,,
BRA,BRA0007,Brazil,4.0,4.0,340.0,0.0,VIENA SIDERURGICA SA,"ACAILANDIA, MARANHAO",Operating,-4.889582,-47.392827000000004,PlantFacts,Exact,,,,,,,,,,,,,
BRA,BRA0008,Brazil,3.0,,190.0,0.0,GERDAU CEARENSE ,"MARACANAU, CE",Operating,-3.856478,-38.607259,PlantFacts,Exact,4297571558,Gerdau Acos Longos Sa,,,https://www2.gerdau.com.br/sites/default/files/downloadable_files/14001-Cearense-010122.pdf,2020-07-20,5000004542.0,Gerdau SA,,,,,
BRA,BRA0009,Brazil,2.0,,,0.0,SIDERURGICA LATINO-AMERICANA SA,"CAUCAIA, CEARA",Operating,-3.7164370000000004,-38.839304999999996,PlantFacts,Exact,,,,,,,,,,,,,
BRA,BRA0010,Brazil,6.0,1.0,10460.0,1.0,CIA. SID. DO PECEM (CSP),"PORTUARIO DO PECEM, CE",Operating,-3.581128,-38.858662,PlantFacts,Exact,5036161673,CSP Companhia Siderurgica do Pecem,,,https://www.cspecem.com/en/about-us/pecem-industry-and-port-complex/,2020-08-03,4295859761.0,Vale SA,,,,,
BRA,BRA0011,Brazil,1.0,,7000.0,1.0,VALE,"SAO LUIS, MARANHAO",Operating,-2.565241,-44.346453000000004,PlantFacts,Exact,,,,,,,,,,,,,
BRA,BRA0012,Brazil,30.0,3.0,14355.0,1.0,USIMINAS,"IPATINGA, MG",Operating,-19.48595,-42.543737,PlantFacts,Exact,4295859856,Usinas Siderurgicas de Minas Gerais SA (USIMINAS),,,http://ri.usiminas.com/enu/geographical-presence,2020-03-09,5000808305.0,Techint Group,,,,,
BRA,BRA0013,Brazil,2.0,,,0.0,UNIGAL,"IPATINGA, MG",Operating,-19.492494,-42.552628999999996,PlantFacts,Exact,4298262119,UNIGAL,,,https://www.nipponsteel.com/en/company/bases/north-central-and-south-america/,2020-04-08,4295877313.0,Nippon Steel Corp,,,,,"seems to be part of the big Usiminas plant in IPATINGA, MG"
BRA,BRA0014,Brazil,2.0,,510.0,0.0,GERDAU GUAIRA,"ARAUCARIA, PR",Operating,-25.564045999999998,-49.421696999999995,PlantFacts,Exact,4297571558,Gerdau Acos Longos Sa,,,https://www2.gerdau.com.br/sites/default/files/downloadable_files/LO-UAR-100817.pdf,2020-07-20,5000004542.0,Gerdau SA,,,,,
BRA,BRA0015,Brazil,21.0,2.0,940.0,0.0,APERAM SOUTH AMERICA,"TIMOTEO, MG",Operating,-19.530304,-42.643162,PlantFacts,Exact,4295859711,Aperam Inox America do Sul SA,,,https://www.aperam.com/brazil,2020-05-13,5001428593.0,Aperam SA,,,,,
BRA,BRA0016,Brazil,13.0,,140.0,0.0,VILLARES METALS SA,"SUMARE, SP",Operating,-22.802429999999998,-47.205493,PlantFacts,Exact,,,,,,,,,,,,,
BRA,BRA0017,Brazil,10.0,,600.0,0.0,GERDAU ACOS ESPECIAIS,"PINDAMONHANGABA,SP",Operating,-22.899036,-45.351304,PlantFacts,Exact,4298258054,Gerdau Acos Especiais SA,,,https://www2.gerdau.com.br/blog-acos-especiais,2020-05-22,5000004542.0,Gerdau SA,,,,,
BRA,BRA0018,Brazil,10.0,,1200.0,1.0,GERDAU COSIGUA,"SANTA CRUZ, RJ",Operating,-22.911284,-43.740853,PlantFacts,Exact,4297571558,Gerdau Acos Longos Sa,,,https://www2.gerdau.com.br/sites/default/files/downloadable_files/38002_16_Certificado_01_01_22_Correcao_Escopo.pdf,2020-07-20,5000004542.0,Gerdau SA,,,,,
BRA,BRA0020,Brazil,,,,0.0,,,Operating,-22.909515,-43.735625,https://www.ternium.com/en/contact-us#our-offices,Exact,5072816151,Ternium Brasil Ltda,,,https://www.ternium.com/en/contact-us#our-offices,2020-04-30,4295856130.0,Ternium SA,,,,,
BRA,BRA0021a,Brazil,,,,0.0,,,Operating,-22.920129,-45.413562,https://www.gsimec.com.mx/locations.php,Exact,4295884304,Grupo Simec SAB de CV,,,https://www.gsimec.com.mx/locations.php,2020-04-30,4295884304.0,Grupo Simec SAB de CV,,,,,
BRA,BRA0021b,Brazil,,,,0.0,,,Operating,-20.348094,-40.360882000000004,https://www.gsimec.com.mx/locations.php,Exact,4295884304,Grupo Simec SAB de CV,,,https://www.gsimec.com.mx/locations.php,2020-04-30,4295884304.0,Grupo Simec SAB de CV,,,,,
BRA,BRA0021c,Brazil,,,,0.0,,,Operating,-20.067539,-44.590902,https://www.gsimec.com.mx/locations.php,Exact,4295884304,Grupo Simec SAB de CV,,,https://www.gsimec.com.mx/locations.php,2020-04-30,4295884304.0,Grupo Simec SAB de CV,,,,,
BRA,BRA0022,Brazil,5.0,,520.0,0.0,GV DO BRASIL (SIMEC),"PINDAMONHANGABA, SP",Operating,-22.920462,-45.413671,PlantFacts,Exact,,,,,,,,,,,,,
BRA,BRA0023,Brazil,1.0,,,0.0,TEKNO SA,"GUARATINGUETA, SP",Operating,-22.781060999999998,-45.161643,PlantFacts,Exact,,,,,,,,,,,,,
BRA,BRA0024,Brazil,2.0,,0.0,0.0,MWL BRASIL MANUFACTURERS,"CACAPAVA, SP",Operating,-23.099299,-45.690689,PlantFacts,Exact,,,,,,,,,,,,,
BRA,BRA0025,Brazil,5.0,,360.0,0.0,GERDAU ACOS VILLARES SA,"MOGI DAS CRUZES,SP",Operating,-23.526669000000002,-46.155653,PlantFacts,Exact,4298258054,Gerdau Acos Especiais SA,,,https://www2.gerdau.com.br/blog-acos-especiais,2020-05-22,5000004542.0,Gerdau SA,,,,,
BRA,BRA0026,Brazil,26.0,2.0,14100.0,1.0,USIMINAS,"CUBATAO, SP",Operating,-23.864354000000002,-46.375453,PlantFacts,Exact,4295859856,Usinas Siderurgicas de Minas Gerais SA (USIMINAS),,,http://ri.usiminas.com/enu/geographical-presence,2020-03-09,5000808305.0,Techint Group,,,,,
BRA,BRA0028,Brazil,4.0,,,0.0,CSN-PARANA,"ARAUCARIA, PARANA",Operating,-25.571562,-49.379677,PlantFacts,Exact,,,,,,,,,,,,,
BRA,BRA0029,Brazil,5.0,,,0.0,ARCELORMITTAL VEGA,"SAO  FRANCISCO  DO SUL, SC",Operating,-26.293549,-48.632341,PlantFacts,Exact,,Arcelormittal Vega,,,https://brasil.arcelormittal.com/a-arcelormittal/unidades,2020-07-24,5000030092.0,Arcelormittal SA,,,,,
BRA,BRA0030,Brazil,7.0,,300.0,0.0,GERDAU RIOGRANDENSE,"SAPUCAIA do SUL, RS",Operating,-29.814758,-51.174543,PlantFacts,Exact,4297571558,Gerdau Acos Longos Sa,,,https://www2.gerdau.com.br/sites/default/files/downloadable_files/licenca-de-operacao-riograndense.pdf,2020-07-20,5000004542.0,Gerdau SA,,,,,
BRA,BRA0031,Brazil,7.0,,440.0,0.0,GERDAU ACOS ESPECIAIS,"PIRATINI, CHARQUEADAS, RS",Operating,-29.955796999999997,-51.615722,PlantFacts,Exact,4298258054,Gerdau Acos Especiais SA,,,https://www2.gerdau.com.br/blog-acos-especiais,2020-05-22,5000004542.0,Gerdau SA,,,,,
BRA,BRA0032,Brazil,4.0,,800.0,0.0,GERDAU SAO PAULO,"ARACARIGUAMA, SP",Operating,-23.438837,-47.088448,PlantFacts,Exact,4297571558,Gerdau Acos Longos Sa,,,https://www2.gerdau.com.br/sites/default/files/downloadable_files/LO-GSP-310719.pdf,2020-07-20,5000004542.0,Gerdau SA,,,,,
BRA,BRA0033,Brazil,5.0,,1100.0,1.0,ARCELORMITTAL ACOS LONGOS,"PIRACICABA, SP",Operating,-22.697006,-47.657576,PlantFacts,Exact,4297613419,Arcelormittal Acos Longos,,,https://brasil.arcelormittal.com/a-arcelormittal/unidades,2020-07-24,5000030092.0,Arcelormittal SA,,,,,
BRA,BRA0034,Brazil,8.0,2.0,16200.0,1.0,THYSSENKRUPP CSA ,"SANTA CRUZ, RJ",Operating,-22.910398999999998,-43.738842,PlantFacts,Exact,5047640306,Thyssenkrupp Companhia Siderurgica do Atlantico,,,https://www.thyssenkrupp-brazil.com/en/locations/,2020-04-08,4295869754.0,Thyssenkrupp AG,,,,,Sold to Ternium https://www.reuters.com/article/us-csa-m-a-ternium/thyssenkrupp-ends-costly-americas-venture-with-csa-sale-to-ternium-idUSKBN1610Y2
BRA,BRA0035,Brazil,44.0,3.0,17520.0,1.0,CIA.SID. NACIONAL,"VOLTA REDONDA, RJ",Operating,-22.51241,-44.111205,PlantFacts,Exact,,,,,,,,,,,,,
BRA,BRA0036,Brazil,9.0,1.0,4400.0,1.0,ARCELORMITTAL ACOS LONGOS,"MONLEVADE, MG",Operating,-19.832517000000003,-43.1306,PlantFacts,Exact,4297613419,Arcelormittal Acos Longos,,,https://brasil.arcelormittal.com/a-arcelormittal/unidades,2020-07-24,5000030092.0,Arcelormittal SA,,,,,
BRA,BRA0037,Brazil,5.0,2.0,680.0,0.0,GERDAU BARAO DE COCAIS,"BARAO DE COCAIS, MG",Operating,-19.937757,-43.479802,PlantFacts,Exact,4297571558,Gerdau Acos Longos Sa,,,https://www2.gerdau.com.br/sites/default/files/downloadable_files/14001-BCOC-010122.pdf,2020-07-20,5000004542.0,Gerdau SA,,,,,
BRA,BRA0038,Brazil,6.0,2.0,1150.0,1.0,VALLOUREC TUBOS DO BRASIL,"BELO HORIZONTE, MG",Operating,-19.967326,-44.010111,PlantFacts,Exact,5050269481 & 5001083353,Vallourec Soluções Tubulares do Brasil S.A. VSB,,,https://www.vallourec.com/en/brazil/about-us,2020-03-09,4295867374.0,Vallourec SA,,,,,"Website: ""Vallourec Soluções Tubulares do Brasil, established in October 2016, is the result of the merging between Vallourec Tubos do Brasil and Vallourec & Sumitomo Tubos do Brasil. The company has two plants for the production of seamless steel pipes, one in Belo Horizonte (MG) in the district of Barreiro, and the other in Jeceaba (MG)."" PermID from the new company NA. Thus added permIDs from both former companies.  Registration doc 2018 states: ""close the blast furnace and steel mill in Belo Horizonte, which
was launched in 2017 and completed, as planned, in July 2018;"" (p. 56)"
BRA,BRA0039,Brazil,7.0,,700.0,0.0,VOTORANTIM SIDERURGIA,"BARRA MANSA, RJ",Operating,-22.525002,-44.192582,PlantFacts,Exact,4295859712,Arcelormittal Brasil SA,,,https://brasil.arcelormittal.com/a-arcelormittal/unidades,2020-07-27,5000030092.0,ArcelorMittal SA,,,,,Company is now owned by ArcelorMittal Brasil
BRA,BRA0040,Brazil,7.0,3.0,790.0,0.0,GERDAU DIVINOPOLIS,"DIVINOPOLIS, MG",Operating,-20.154319,-44.879284999999996,PlantFacts,Exact,4297571558,Gerdau Acos Longos Sa,,,https://www2.gerdau.com.br/sites/default/files/downloadable_files/14001_Divinopolis_010122.pdf,2020-07-20,5000004542.0,Gerdau SA,,,,,
BRA,BRA0041,Brazil,1.0,,7000.0,1.0,VALE,"VARGEM GRANDE, MG",Operating,-20.177001,-43.877478,PlantFacts,Exact,,,,,,,,,,,,,
BRA,BRA0042,Brazil,14.0,3.0,21390.0,1.0,ARCELORMITTAL TUBARAO,"VITORIA, ES",Operating,-20.252175,-40.235543,PlantFacts,Exact,4295860088,Arcelormittal Tubarao Comercial SA,,,https://brasil.arcelormittal.com/a-arcelormittal/unidades,2020-07-24,5000030092.0,Arcelormittal SA,,,,,
BRA,BRA0043,Brazil,1.0,1.0,75.0,0.0,SIDERSUL,RIBAS DO RIO PARDO,Operating,-20.443545999999998,-53.774032999999996,PlantFacts,Exact,,,,,http://www.vetorial.ind.br/pt/negocios/siderurgia,,,,,,,,Owned by Vetorial 
BRA,BRA0044,Brazil,22.0,2.0,15460.0,1.0,GERDAU ACOMINAS SA,"OURO BRANCO, MG",Operating,-20.545246,-43.751022999999996,PlantFacts,Exact,4296998615,Gerdau Acominas SA,,,https://www2.gerdau.com.br/sites/default/files/downloadable_files/14001-OuroBranco-010122.pdf,2020-07-20,5000004542.0,Gerdau SA,,,,,
BRA,BRA0045,Brazil,6.0,2.0,1650.0,1.0,VALLOUREC & SUMITOMO TUBOS DO BRAZIL,"JECEABA CITY, MG",Operating,-20.584536,-43.962919,PlantFacts,Exact,5050269481 & 5001083353,Vallourec Soluções Tubulares do Brasil S.A. VSB,,,https://www.vallourec.com/en/brazil/about-us,2020-03-09,4295867374.0,Vallourec SA,,,,,"Website: ""Vallourec Soluções Tubulares do Brasil, established in October 2016, is the result of the merging between Vallourec Tubos do Brasil and Vallourec & Sumitomo Tubos do Brasil. The company has two plants for the production of seamless steel pipes, one in Belo Horizonte (MG) in the district of Barreiro, and the other in Jeceaba (MG)."" PermID from the new company NA. Thus added permIDs from both former companies."
BRA,BRA0046,Brazil,4.0,,30500.0,1.0,SAMARCO MINERACAO,"PONTA UBU, ES",Operating,-20.779552,-40.582788,PlantFacts,Exact,,,,,https://www.samarco.com/en?s=ubu,,,,,,,,This is a port; company owned by Vale & BHP (50/50)
BRA,BRA0047,Brazil,6.0,2.0,1110.0,1.0,ARCELORMITTAL ACOS LONGOS,"JUIZ DE FORA, MG",Operating,-21.626262,-43.465857,PlantFacts,Exact,4297613419,Arcelormittal Acos Longos,,,https://brasil.arcelormittal.com/a-arcelormittal/unidades,2020-07-24,5000030092.0,Arcelormittal SA,,,,,
BRA,BRA0048,Brazil,1.0,,,0.0,GALVASUD S.A.,"PORTO REAL, RJ",Operating,-22.432299,-44.346012,PlantFacts,Exact,,,,,,,,,,,,,
BRA,BRA0049,Brazil,5.0,,1000.0,0.0,VOTORANTIM SIDERURGIA,"RESENDE, RJ",Operating,-22.493036,-44.511737,PlantFacts,Exact,4295859712,Arcelormittal Brasil SA,,,https://brasil.arcelormittal.com/a-arcelormittal/unidades,2020-07-27,5000030092.0,ArcelorMittal SA,,,,,Company is now owned by ArcelorMittal Brasil
BRA,BRA0050,Brazil,1.0,,4600.0,1.0,VALE,"FABRICA, MG.",Operating,-20.418922,-43.877319,PlantFacts,Exact,,,,,,,,,,,,,
BRA,BRA0053,Brazil,2.0,,5200.0,1.0,VALE,"TUBARAO, VITORIA, ES",Operating,-20.273529999999997,-40.244719,PlantFacts,Exact,,,,,,,,,,,,,No idea which facility in the area this one refers to
BRA,BRA0059,Brazil,2.0,2.0,230.0,0.0,GERDAU COSIGUA,"CONTAGEM, MG",Operating,-19.961966,-44.024426,PlantFacts,Exact,4297571558,Gerdau Acos Longos Sa,,,https://www2.gerdau.com.br/sites/default/files/downloadable_files/Declaracao_Ambiental_CED_Contagem_jun_2020.pdf,2020-07-20,5000004542.0,Gerdau SA,,,,,No idea which facility in the area this one refers to
BRA,BRA0064,Brazil,,,,0.0,,,Operating,-22.524566,-44.192888,https://brasil.arcelormittal.com/a-arcelormittal/unidades,Exact,4297613419,Arcelormittal Acos Longos,,,https://brasil.arcelormittal.com/a-arcelormittal/unidades,2020-07-24,5000030092.0,Arcelormittal SA,,,,,
BRA,BRA0065,Brazil,,,,0.0,,,Operating,-22.493336,-44.512854,https://brasil.arcelormittal.com/a-arcelormittal/unidades,Exact,4297613419,Arcelormittal Acos Longos,,,https://brasil.arcelormittal.com/a-arcelormittal/unidades,2020-07-24,5000030092.0,Arcelormittal SA,,,,,
BRA,BRA0066,Brazil,,,,0.0,,,Operating,-23.526901000000002,-46.155852,https://www2.gerdau.com.br/sites/default/files/downloadable_files/LO-MOGI-050417.pdf,Exact,4297571558,Gerdau Acos Longos Sa,,,https://www2.gerdau.com.br/sites/default/files/downloadable_files/LO-MOGI-050417.pdf,2020-07-20,5000004542.0,Gerdau SA,,,,,
BRA,BRA0067,Brazil,,,,0.0,,,Operating,-23.257903,-45.920223,https://www2.gerdau.com.br/sites/default/files/downloadable_files/14001-SJC-150922.pdf,Exact,4297571558,Gerdau Acos Longos Sa,,,https://www2.gerdau.com.br/sites/default/files/downloadable_files/14001-SJC-150922.pdf,2020-07-20,5000004542.0,Gerdau SA,,,,,
BRA,BRA0068,Brazil,,,,0.0,,,Operating,-23.598177,-46.882013,https://www2.gerdau.com.br/sites/default/files/downloadable_files/LO-COT-270819.pdf,Exact,4297571558,Gerdau Acos Longos Sa,,,https://www2.gerdau.com.br/sites/default/files/downloadable_files/LO-COT-270819.pdf,2020-07-20,5000004542.0,Gerdau SA,,,,,
BGR,BGR0001,Bulgaria,10.0,,1000.0,0.0,STOMANA INDUSTRY SA,PERNIK,Operating,42.598509,23.099229,PlantFacts,Exact,,Stomana Industry S.A.,,,https://sidenor.gr/en/start/production-facilities/,2020-05-13,5040438569.0,Viohalco SA,,,,,
BGR,BGR0002,Bulgaria,1.0,,,0.0,PROMET STEEL JSC,BOURGAS,Operating,42.381594,27.295882000000002,PlantFacts,Exact,5036178411,Promet Steel JSC,,,https://promet.metinvestholding.com/en/about/structure,2020-05-15,5037839870.0,SCM Holdings Ltd,,,,,
BGR,BGR0003,Bulgaria,6.0,,0.0,0.0,RADOMIR METAL IND. JSC,RADOMIR,Operating,42.522861999999996,22.989212,PlantFacts,Exact,,Radomir Metal Industries Ad,,,http://www.radomir-metal-industries.com/en/index.php,2020-05-15,,Radomir Metal Industries Ad,,,,,
CAN,CAN0001,Canada,4.0,,330.0,0.0,GERDAU,"SELKIRK, MANITOBA",Operating,50.129954,-96.899991,PlantFacts,Exact,5035931883,Gerdau Steel North America Inc,,,https://www2.gerdau.com/gerdau-locations,2020-04-08,5000004542.0,Gerdau SA,,,,,
CAN,CAN0002,Canada,1.0,,5700.0,1.0,WABUSH MINES,"POINTE NOIRE-Septlies, QC",Operating,50.159447,-66.491004,PlantFacts,Exact,,,,,,,,,,,,,
CAN,CAN0003,Canada,1.0,,6000.0,1.0,IRON ORE CO OF CANADA,"SEPT-IIES, QC",Operating,50.194727,-66.357231,PlantFacts,Exact,4296654348,Iron Ore Company of Canada,,,http://www.ironore.ca/en/what-we-do/our-operations,2020-05-22,4295894786.0,Rio Tinto PLC,,,,,
CAN,CAN0004,Canada,6.0,,950.0,0.0,EVRAZ REGINA STEEL,"REGINA, SK",Operating,50.516767,-104.630721,PlantFacts,Exact,5044009886,Evraz North America PLC,,,https://www.evraz.com/en/company/assets/evraz-regina/,2020-04-08,5036227579.0,EVRAZ plc,,,,,
CAN,CAN0005,Canada,3.0,,290.0,0.0,ALBERTA STEEL (SCAW METALS GROUP),"EDMONTON, ALBERTA",Operating,53.530393999999994,-113.38673100000001,PlantFacts,Exact,5073667894,AltaSteel Inc,,,https://www.altasteel.com/contact,2020-08-04,4295875990.0,Kyoei Steel Ltd,,,,,
CAN,CAN0006,Canada,14.0,2.0,6060.0,1.0,ESSAR STEEL ALGOMA INC,"SAULT-STE.MARIE, ONT",Operating,46.522246,-84.368822,PlantFacts,Exact,4295860713,Algoma Steel Inc,2.8,,https://www.algoma.com/about-algoma/visitor-information/,2020-08-04,4295860713.0,Algoma Steel Inc,,,,,
CAN,CAN0007,Canada,2.0,,10000.0,1.0,IRON ORE CO OF CANADA,"LABRADOR-CITY, NL",Operating,52.958006999999995,-66.891681,PlantFacts,Exact,4296654348,Iron Ore Company of Canada,,,http://www.ironore.ca/en/what-we-do/our-operations,2020-05-22,4295894786.0,Rio Tinto PLC,,,,,
CAN,CAN0008,Canada,3.0,,72.0,0.0,FINKL STEEL,"SOREL, QC",Operating,46.045904,-73.123999,PlantFacts,Exact,4297029961,Sorel Forge Inc,,,http://www.sorelforge.com/en/contact-us.aspx,2020-08-05,4295890566.0,Schmolz+Bickenbach AG,,,,,
CAN,CAN0009,Canada,2.0,,140.0,0.0,QUEBEC METAL POWDERS,"SOREL-TRACY, QC",Operating,46.040936,-73.14579300000001,PlantFacts,Exact,,,,,,,,,,,,,
CAN,CAN0010,Canada,3.0,,400.0,0.0,"RIO TINTO, FER ET TITANE","SOREL-TRACY, QC",Operating,46.044984,-73.138363,PlantFacts,Exact,,,,,,,,,,,,,
CAN,CAN0011,Canada,1.0,,,0.0,ARCELORMITTAL DOFASCO WINDSOR,"WINDSOR, ONT",Operating,42.261466,-83.095251,PlantFacts,Exact,,,,,,,,,,,,,
CAN,CAN0012,Canada,6.0,1.0,4390.0,1.0,U.S. STEEL CANDA INC,"NANTICOKE, ONT",Operating,42.810542,-80.096124,PlantFacts,Exact,4295861119,Stelco Inc,,,https://www.stelco.com/about/contact-us,2020-04-30,4295903049.0,United States Steel Corp,,,,,
CAN,CAN0013,Canada,6.0,,330.0,0.0,ASW STEEL INC.,"WELLAND, ONT",Operating,42.999368,-79.23555400000001,PlantFacts,Exact,,Valbruna ASW Inc,,,https://www.asw-steel.com/about-us/,2020-08-04,4298375291.0,Acciaierie Valbruna SpA,,,,,
CAN,CAN0014,Canada,3.0,,,0.0,NELSON STEEL,"STONEY-CREEK, ONT",Operating,43.223098,-79.675475,PlantFacts,Exact,,,,,,,,,,,,,
CAN,CAN0015,Canada,3.0,,,0.0,BAYCOAT,"HAMILTON, ONT",Operating,43.241624,-79.749057,PlantFacts,Exact,4297637377,Baycoat Ltd,0.2,,http://www.baycoat.com/about.html,2020-08-04,4295861119.0,Stelco Inc,,,,,
CAN,CAN0016,Canada,,,,0.0,,,Operating,43.25631,-79.89665600000001,https://www.gsimec.com.mx/locations.php,Exact,4298219370,Republic Steel,,,https://www.gsimec.com.mx/locations.php,2020-04-30,4295884304.0,Grupo Simec SAB de CV,,,,,
CAN,CAN0017,Canada,31.0,3.0,7208.0,1.0,ARCELORMITTAL DOFASCO,"HAMILTON, ONT",Operating,43.270861,-79.80421700000001,PlantFacts,Exact,5044365193,ArcelorMittal Dofasco Inc,,,https://dofasco.arcelormittal.com/who-we-are/at-a-glance/about-dofasco.aspx,2020-04-08,5000030092.0,Arcelormittal SA,,,,,
CAN,CAN0019,Canada,15.0,,3050.0,1.0,ARCELORMITTAL MONTREAL,"CONTRECOEUR-EAST, QC",Operating,45.834665,-73.252253,PlantFacts,Exact,5000047717,ArcelorMittal Montreal Inc,,,https://long-canada.arcelormittal.com/en/our-locations/,2020-04-08,5000030092.0,Arcelormittal SA,,,,,
CAN,CAN0020,Canada,4.0,,500.0,0.0,IVACO ROLLING MILLS LTD,"L'ORIGNAL, ONT",Operating,45.613941,-74.704608,PlantFacts,Exact,,,,,,,,,,,,,
CAN,CAN0021,Canada,1.0,,,0.0,ARCELORMITTAL MONTREAL,"LONGUEUIL, QC",Operating,45.567953,-73.456647,PlantFacts,Exact,5000047717,ArcelorMittal Montreal Inc,,,https://long-canada.arcelormittal.com/en/our-locations/,2020-04-08,5000030092.0,Arcelormittal SA,,,,,
CAN,CAN0022,Canada,1.0,,,0.0,ARCELORMITTAL COTEAU-DU-LAC INC,"COTEAU-DU-LAC, QC",Operating,45.300868,-74.202862,PlantFacts,Exact,5057800518,ArcelorMittal Coteau-du-Lac LP,,,https://dofasco.arcelormittal.com/~/media/Files/A/Arcelormittal-Canada/documents/corporate-publications/solution-in-steel-141015.pdf,2020-04-08,5000030092.0,Arcelormittal SA,,,,,
CAN,CAN0023,Canada,3.0,,,0.0,MAX AICHER NORTH AMERICA,"HAMILTON, ONT",Operating,43.266553,-79.823015,PlantFacts,Exact,,,,,,,,,,,,,
CAN,CAN0024,Canada,1.0,,,0.0,GERDAU,"CAMBRIDGE, ONT",Operating,43.371349,-80.27930400000001,PlantFacts,Exact,5035931883,Gerdau Steel North America Inc,,,https://www2.gerdau.com/gerdau-locations,2020-04-08,5000004542.0,Gerdau SA,,,,,
CAN,CAN0025,Canada,4.0,,910.0,0.0,GERDAU,"WHITBY, ONT",Operating,43.859169,-78.910219,PlantFacts,Exact,5035931883,Gerdau Steel North America Inc,,,https://www2.gerdau.com/gerdau-locations,2020-04-08,5000004542.0,Gerdau SA,,,,,
CAN,CAN0026,Canada,5.0,,,0.0,U.S. STEEL CANDA INC,"HAMILTON, ONT",Operating,43.269220000000004,-79.824398,PlantFacts,Exact,4295861119,Stelco Inc,,,https://www.stelco.com/about/contact-us,2020-04-30,4295903049.0,United States Steel Corp,,,,,
CAN,CAN0029,Canada,4.0,,600.0,0.0,ARCELORMITTAL MONTREAL,"CONTRECOEUR-WEST, QC",Operating,45.820803000000005,-73.26465,PlantFacts,Exact,5000047717,ArcelorMittal Montreal Inc,,,https://long-canada.arcelormittal.com/en/our-locations/,2020-04-08,5000030092.0,Arcelormittal SA,,,,,
CAN,CAN0031,Canada,2.0,,6000.0,1.0,ARCELORMITTAL MINES CANADA,"PORT CARTIER, QC",Operating,50.032736,-66.795524,PlantFacts,Exact,5056442020,ArcelorMittal Mining Canada GP,,,https://www.transformerlavenir.com/en/facilities/,2020-04-08,5000030092.0,Arcelormittal SA,,,,,
CAN,CAN0032,Canada,,,,0.0,,,Operating,45.458752000000004,-73.60628100000001,https://long-canada.arcelormittal.com/en/our-locations/,Exact,5000047717,ArcelorMittal Montreal Inc,,,https://long-canada.arcelormittal.com/en/our-locations/,2020-04-08,5000030092.0,Arcelormittal SA,,,,,
CAN,CAN0033,Canada,,,,0.0,,,Operating,43.2625,-79.78609,https://long-canada.arcelormittal.com/en/our-locations/,Exact,5000047717,ArcelorMittal Montreal Inc,,,https://long-canada.arcelormittal.com/en/our-locations/,2020-04-08,5000030092.0,Arcelormittal SA,,,,,
CHL,CHL0001,Chile,19.0,2.0,2600.0,1.0,CIA. SID.HUACHIPATO SA,TALCAHUANO,Operating,-36.750028,-73.129171,PlantFacts,Exact,,,,,,,,,,,,,
CHL,CHL0002,Chile,1.0,,3800.0,1.0,CIA MINERA DEL PACIFICO SA,HUASCO,Operating,-28.481533000000002,-71.247411,PlantFacts,Exact,,,,,,,,,,,,,
CHN,CHN0001,China,9.0,3.0,3900.0,1.0,LINGYUAN I&S GROUP CO LTD,"LINGYUAN, LIAONING",Operating,41.27388,119.41240400000001,PlantFacts,Exact,5000066764,Ling Yuan Iron & Steel Group Co Ltd,,,https://markets.ft.com/data/equities/tearsheet/profile?s=600231:SHH,2020-04-08,5000066764.0,Ling Yuan Iron & Steel Group Co Ltd,,,,,This plant is in LINGYUAN; the company is Lingyuan Iron & Steel Co Ltd
CHN,CHN0002,China,28.0,12.0,21063.0,1.0,BEITAI I&S GROUP,"BENXI, LIAONING",Operating,41.220324,123.61541799999999,PlantFacts,Exact,5000005802,Beitai Iron & Steel Group Co Ltd,,,http://www.bxsteel.com/en/Benxi_steel_plates_co___ltd/,2020-04-08,5000014433.0,State-owned Assets Supervision and Administration Commission of Liaoning Provincial Government,,,,,"seems to be part of Benxi Iron & Steel Group;unclear if this is refering to the Benxi plant in Benxi, Liaoning (see above), or to the plant in Bentai, Benxi, Liaoning"
CHN,CHN0003,China,3.0,2.0,1300.0,1.0,ANSHAN BAODE I&S,"ANSHAN, LIAONING",Operating,41.172838,122.94421000000001,PlantFacts,Exact,,"Anshan Baode Iron & Steel Co., Ltd",1.3,,http://www.baode.com.cn/about/index.php?aid=3,2020-04-06,,"Anshan Baode Iron & Steel Co., Ltd",,,,,"Plant address not on the website, but listed/located on Gmaps"
CHN,CHN0004,China,,,,0.0,Jianlong Beiman,"QIQIHAR, HEILONGJIANG",Operating,47.19187,123.616174,http://www.ejianlong.com/d/jl001/steel/company.jsp?entryid=0e902d701de34206bcba509b9311a65d&parentId=14,Exact,,Jianlong Beiman,,,http://www.ejianlong.com/d/jl001/steel/company.jsp?entryid=0e902d701de34206bcba509b9311a65d&parentId=14,2020-04-06,5000564682.0,"Beijing Jianlong Heavy Industry Group Co., Ltd (Jianlong Group)",,,,,"Newly added to the list; not sure if this one refers to an existing entry ; parts of the plant nearby seem also to belong to Dongbei Special Steel Group and Beiman Special Steel Co.,Ltd."
CHN,CHN0005,China,20.0,3.0,11200.0,1.0,CHENGDE I&S GROUP CO LTD,"CHENGDE, HEBEI",Operating,40.946739,117.72101599999999,PlantFacts,Exact,5000577496,Chengde Iron & Steel Group Co Ltd (HBIS Group),,,http://www.cdsteel.cn/main/About.asp,2020-04-06,5000022648.0,HBIS Group Co Ltd,,,,,No address available but there is only one big plant near Chengde
CHN,CHN0006,China,42.0,4.0,33100.0,1.0,BENXI IRON & STEEL,"BENXI, LIAONING",Operating,41.280013000000004,123.732009,PlantFacts,Exact,5037655413,Benxi Steel Group Corp,,,http://www.bxsteel.com/en/Benxi_steel_plates_co___ltd/,2020-04-08,5000014433.0,State-owned Assets Supervision and Administration Commission of Liaoning Provincial Government,,,,,
CHN,CHN0007,China,89.0,8.0,57240.0,1.0,ANSHAN IRON & STEEL,"ANSHAN, LIAONING",Operating,41.139644,122.98693899999999,PlantFacts,Exact,5000069947,Angang Steel Co Ltd,,,http://www.ansteelgroup.com/a/news.php?pcid=16&cid1=18&cid=18&id=26 ; https://www1.hkexnews.hk/listedco/listconews/sehk/2019/0411/ltn201904111113.pdf (AR 2017),2020-03-20,5037655487.0,Ansteel Group Corp Ltd,,,,,There is only one massive plant in Anshan city which belongs to the company. The company's registered address is close to the plant. Address on the website and in AR2017
CHN,CHN0008,China,21.0,6.0,12930.0,1.0,MINMETAL YINKOU MEDIUM PLATE ,"YINGKOU, LIAONING",Operating,40.669466,122.396226,PlantFacts,Exact,5000024140,Minmetals Yingkou Medium Plate Co Ltd,,,http://www.wkyg.com/about_55.html,2020-04-08,4295865030.0,Minmetals Development Co Ltd,,,,,
CHN,CHN0009,China,,,,0.0,Jilin Jianlong Steel Co Ltd,"LONGTAN, JILIN",Operating,44.018496,126.533673,http://www.ejianlong.com/d/jl001/steel/company.jsp?entryid=25e1a14e819c4b6e9975aeadcb951d62&parentId=14,Exact,5000536907,Jilin Jianlong Steel Co Ltd,,,http://www.ejianlong.com/d/jl001/steel/company.jsp?entryid=25e1a14e819c4b6e9975aeadcb951d62&parentId=14,2020-04-06,5000564682.0,"Beijing Jianlong Heavy Industry Group Co., Ltd (Jianlong Group)",,,,,Newly added to the list; not sure if this one refers to an existing entry
CHN,CHN0010,China,33.0,5.0,12080.0,1.0,SHOUGANG TONGHUA I&S,"TONGHUA-CITY, JILIN",Operating,41.779388,126.021293,PlantFacts,Exact,4297406696,Tonghua Iron & Steel Grp Co,4.11,,https://www.shougang.com.cn/en/ehtml/IronSteelIndustry/20170329/827.html,2020-04-29,4296818551.0,"Shougang Group Co., Ltd.",,,,,
CHN,CHN0011,China,25.0,,400.0,0.0,DONGBEI SPEC. STEEL GROUP,"FUSHUN, LIAONING",Operating,41.838158,123.79454299999999,PlantFacts,Exact,4295864950,"Fushun Special Steel Co., Ltd",,,http://eng.shasteel.cn/doc/2019/03/20/11941.shtml,2020-04-06,5000051246.0,"Jiangsu Shagang Group Co., Ltd",,,,,Address provided on webside does not work but in the given district is only this plant
CHN,CHN0012,China,11.0,2.0,2630.0,1.0,FUSHUN NEW I&S CO LTD,"FUSHUN-CITY, LIAONING",Operating,41.841328999999995,123.754745,PlantFacts,Exact,4298345075,Fushun New Steel Corp Ltd,,,http://www.ejianlong.com/d/jl001/steel/company.jsp?entryid=63e60883a5f341269665a969635f651d&parentId=14,2020-04-06,5000564682.0,"Beijing Jianlong Heavy Industry Group Co., Ltd (Jianlong Group)",,,,,Address provided on webside does not work but in the given district is only this plant
CHN,CHN0013,China,,,,0.0,Jilin Henglian Precision Casting Technology Co Ltd,"PANSHI, JILIN",Operating,43.196606,126.00184899999999,http://www.ejianlong.com/d/jl001/steel/company.jsp?entryid=20365046d55e4257b051877c043dc443&parentId=14,Exact,5051781052,Jilin Henglian Precision Casting Technology Co Ltd,,,http://www.ejianlong.com/d/jl001/steel/company.jsp?entryid=20365046d55e4257b051877c043dc443&parentId=14,2020-04-06,5000564682.0,"Beijing Jianlong Heavy Industry Group Co., Ltd (Jianlong Group)",,,,,Newly added to the list; not sure if this one refers to an existing entry
CHN,CHN0014,China,33.0,3.0,24250.0,1.0,BAOSTEEL BAYI I&S ,"URUMQI, XINJIANG-UYGUR",Operating,43.851167,87.307955,PlantFacts,Exact,5000069959,Baosteel Group Xinjiang Bayi Iron & Steel Co Ltd,,,http://www.baosteel.com/group_en/contents/2898/40044.html,2020-07-23,5000039946.0,China Baowu Steel Group Corp Ltd,,,,,Address provided on website; Sustainability Report highlights that Baosteel owns 50.02% of Bayi I&S
CHN,CHN0015,China,6.0,2.0,4000.0,1.0,"Heilongjiang Jianlong Iron & Steel Co., Ltd.","SHUANGYASHAN-CITY, HEILONGJIANG",Operating,46.604985,131.083002,PlantFacts,Exact,5000695241,"Heilongjiang Jianlong Iron & Steel Co., Ltd.",,,http://www.ejianlong.com/d/jl001/steel/company.jsp?entryid=2c81fb29d6624c75b43196a1017250da&parentId=14,2020-04-06,5000564682.0,"Beijing Jianlong Heavy Industry Group Co., Ltd (Jianlong Group)",,,,,Address provided on website
CHN,CHN0016,China,47.0,7.0,39380.0,1.0,BAOTOU I&S,"BAOTOU, INN-MONGOLIA",Operating,40.652771,109.747754,PlantFacts,Exact,5000014386,Baotou Iron & Steel Group Co Ltd,,,http://www.btsteel.com/istool/JSZX/JSP/bao_gufen.jsp?,2020-04-08,5000014386.0,Baotou Iron & Steel Group Co Ltd,,,,,
CHN,CHN0017,China,5.0,1.0,4050.0,1.0,ANGANG LINGYUAN I&S,"CHAOYANG-CITY, LIAONING",Operating,41.527567,120.36835500000001,PlantFacts,Exact,5064653915,"Angang Group Chaoyang Steel and Iron Co., Ltd. ",2.0,,https://www1.hkexnews.hk/listedco/listconews/sehk/2019/0411/ltn201904111113.pdf (AR 2018),2020-03-20,5037655487.0,Ansteel Group Corp Ltd,,,,,There is only one plant in this city which belongs to the company.
CHN,CHN0018,China,26.0,8.0,18280.0,1.0,XUANHUA I&S ,"XUANHUA CITY, HEBEI",Operating,40.587671,115.09458000000001,PlantFacts,Exact,5000575826,Xuanhua Iron & Steel Group Co Ltd,,,http://www.hbisco.com/site/en/steelbusiness/index.html,2020-04-08,5000022648.0,HBIS Group,,,,,"part of Tangsteel, which is part of HBIS group"
CHN,CHN0019,China,17.0,,1120.0,1.0,DONGBEI SPEC. STEEL GROUP,"DALIAN I, LIAONING",Operating,39.191582000000004,122.060879,PlantFacts,Exact,5000042856,Dongbei Special Steel Group Co Ltd,,,http://eng.shasteel.cn/doc/2019/05/11/10125.shtml,2020-03-27,5000051246.0,"Jiangsu Shagang Group Co., Ltd",,,,,Company lists production base in this city but no exact location or address
CHN,CHN0020,China,20.0,2.0,24440.0,1.0,ANSHAN IRON & STEEL,"BAYUQUAN-YINGKOU, LIAONING",Operating,40.311737,122.133357,PlantFacts,Exact,,Angang Group Bayuquan Iron & Steel Branch Company,,,https://www1.hkexnews.hk/listedco/listconews/sehk/2019/0411/ltn201904111113.pdf (AR 2018),2020-03-20,5037655487.0,Ansteel Group Corp Ltd,,,,,There is only one plant in Bayuquan city which belongs to the company.
CHN,CHN0021,China,12.0,4.0,2620.0,1.0,SHIJIAZHUANG I&S CO,"SHIJIAZHUANG, HEBEI",Operating,38.058341999999996,114.565382,PlantFacts,Exact,4296807460,Shijiazhuang Iron and Steel Co Ltd (SHISTEEL),,,http://www.csggs.com/qyjj.asp?menulb=159%C6%F3%D2%B5%B8%C5%BF%F6&id=79,2020-03-30,5000022648.0,HBIS Group Co Ltd,,,,,Plant close to the address given on website
CHN,CHN0022,China,7.0,1.0,3800.0,1.0,HEBEI ZONGHENG I&S CO LTD,"CANGZHOU-CITY, HEBEI",Operating,38.288641,117.816946,PlantFacts,Exact,,,,,https://www.metalbulletin.com/Article/3749063/Chinas-Zongheng-Steel-shuts-down-operations.html,,,,,,,,"Company apparently shut down all operations, but this plant does not seem closed ; not sure if this is the plant to which the database entry refers as I couldn't validate the company but it's the only one in the region"
CHN,CHN0023,China,26.0,9.0,17150.0,1.0,HEBEI JINGYE GROUP,"NANDIAN-TOWN, HEBEI",Operating,38.392272,114.14113200000001,PlantFacts,Exact,4296192493,Hebei Jingye Group Co Ltd,,,http://www.hbjyjt.com/list/?204_1.html,2020-04-08,5015596280.0,British Steel Corporation Ltd,,,,,
CHN,CHN0024,China,35.0,2.0,37820.0,1.0,SHOUGANG JINGTANG UNITED I&S,"CAOFEIDIAN ISLAND, HEBEI",Operating,38.959941,118.501447,PlantFacts,Exact,5001098404,Shougang Jingtang United Iron & Steel Co Ltd,10.0,2010.0,,2020-04-06,4296818551.0,"Shougang Group Co., Ltd.",,,,,"There is only this one major completed and operational plant in CAOFEIDIAN ISLAND, HEBEI. The ultimate parent company website states that the plant is in CAOFEIDIAN. The picture shows the plant being nearby the harbour. News websites also report that the plant is directly by the harbour. "
CHN,CHN0025,China,14.0,2.0,6350.0,1.0,TIANJIN ROCKCHECK I&S CO. LTD,"TIANJIN, TIANJIN",Operating,38.970363,117.49860600000001,PlantFacts,Exact,,,,,,,,,,,,,
CHN,CHN0026,China,16.0,3.0,11570.0,1.0,TIANJIN IRON & STEEL,"TIANJIN-CITY, TIANJIN ",Operating,39.030407000000004,117.499299,PlantFacts,Exact,5040195312,Tianjin Iron&Steel Group Co Ltd,,,http://www.xbysteel.com/contact.asp,2020-04-08,5000069899.0,State-owned Assets Supervision and Administration Commission of Shan Xi Provincial Government,,,,,
CHN,CHN0027,China,,,,0.0,Tangshan Guofeng Iron & Steel Co Ltd,"Caofeidian, Tangshan, Hebei",Operating,39.539941,118.105791,https://www.argusmedia.com/en/news/1820817-tangshan-upgrades-sintering-units-cuts-steel-capacity?backToResults=true,Exact,4298150363,Tangshan Guofeng Iron & Steel Co Ltd,8.0,2019.0,https://www.argusmedia.com/en/news/1820817-tangshan-upgrades-sintering-units-cuts-steel-capacity?backToResults=true,2020-04-06,,Xinhua Metallurgy / CTS (H.K.) Steel Limited (UNCLEAR),,,,,"Seems to be the new location of the relocated Guofeng plant (formerly in Fengnan district, Tangshan). But this could not be verified with company information. Unclear if this plant is already operational or not: http://www.asianmetal.com/news/data/1465652/Tangshan%20Guofeng%20Iron%20&%20Steel%20suspends%20production"
CHN,CHN0028,China,4.0,1.0,2200.0,1.0,XILIN IRON & STEEL GROUP,"XILIN-YICHUN CITY, HEILONGJIANG",Operating,47.494755,129.288261,PlantFacts,Exact,4297276891,Jianlong Xilin,4.0,,https://www.mysteel.net/article/5012960-0503/Jianlong-Xilin-steel-output-hit-record-4-mln-t-in-2019.html,2020-04-06,5000564682.0,"Beijing Jianlong Heavy Industry Group Co., Ltd (Jianlong Group)",,,,,"It seems this company was bought by Jianlong Group. Original company website NA (www.xlsteel.com.cn). Several news point toward the acquisition: https://www.mysteel.net/article/5012960-0503/Jianlong-Xilin-steel-output-hit-record-4-mln-t-in-2019.html ; https://www.kallanish.com/en/steel-news/market-reports/article-details/jianlong-buy-xilin-iron-and-steel-1118/ ; https://www.tivlon.com/news/jianlong-group-to-spend-3-4-billion-rmb-in-2-years-to-upgrade-xilin-iron-steel-group/ ; https://mp.weixin.qq.com/s/kbAtSkWU3qTxxozIyDAOzw ; however, no news on Jianlong Group website available. "
CHN,CHN0029,China,,,,0.0,Tangshan Iron and Steel Group Co Ltd (TANGSTEEL),"Loating, Tangshan, HEBEI",Operating,39.271834000000005,119.03084299999999,http://www.tangsteel.com/Type/ThirdType1/39/134/60 ; http://www.xinhuanet.com/english/2019-04/21/c_137995249.htm ; ,Exact,5065322737,Tangshan Iron and Steel Group Co Ltd (TANGSTEEL),,,http://www.tangsteel.com/Type/ThirdType1/39/134/60 ; http://www.xinhuanet.com/english/2019-04/21/c_137995249.htm ; ,2020-03-20,5000022648.0,HBIS Group Co Ltd,,,,,This plant is already listed on the Tangsteel website as one of the company's major prodution facilities. It also seems to be the new location for some of the old Tangshan-city based plants which needed to be relocated (http://www.xinhuanet.com/english/2019-04/21/c_137995249.htm). But unclear as there is no information available on the company website.  
CHN,CHN0030,China,21.0,9.0,13050.0,1.0,TANGSHAN GUOFENG I&S GROUP ,"FEGNAN TANGSHAN, HEBEI",Operating,39.538655,118.106334,PlantFacts,Exact,4298150363,Tangshan Guofeng Iron & Steel Co Ltd,,,http://www.asianmetal.com/news/data/1465652/Tangshan%20Guofeng%20Iron%20&%20Steel%20suspends%20production ; https://www.reuters.com/article/us-china-pollution-steel/chinas-steel-heartland-tests-mills-mettle-with-new-smog-busting-plan-idUSKCN1LQ2P3,2020-03-20,,Xinhua Metallurgy / CTS (H.K.) Steel Limited (UNCLEAR),,,,,"Plant shut down. New plant to be built in the coastal region, but unclear where exactly. Company websites of Tangshan Guofeng and Xinhua not available (http://www.gfgt.com/   & NA). Ultimate parent unlcear. Company acquired by Xinhua Metallurgy in 2019 (Reuters). However, S&P Capital IQ lists China National Travel Service (HK) Group Corporation as the parent company of Tangshan Guofeng based on information on the outdated parent company's website (from 2011), which lists Tangshan Guofeng as subsidiary (http://www.ctseb.com/en/self_en/11000073.html). Also, Guofeng has another plant in Fengnan district of Tangshan which is also shut down and probably relocated (https://www.mysteel.net/article/5001185-050302/Tangshans-Guofeng-to-close-its-second-old-steelworks.html). "
CHN,CHN0032,China,41.0,5.0,24450.0,1.0,TANGSHAN I&S CO,"TANGSHAN, HEBEI",Operating,39.710978000000004,118.209809,PlantFacts,Exact,5000013130,Tangshan Iron and Steel Group Co Ltd (TANGSTEEL),,,http://www.tangsteel.com/Type/ThirdType1/39/130/56,2020-03-20,5000022648.0,HBIS Group Co Ltd,,,,,"The plant is the only big plant in Kaiping Distict and the location fits the information from the company website: ""The ironworks is located in the north of Jializi Village, Kaiping District, Tangshan City. It is adjacent to the coal mining spread line of the Kailuan Jinggezhuang Mine in the east, the Jiazunzi Station of the Tangzun Railway in the west, and the steep river flowing two kilometers to the southwest. Across the village, the plant covers an area of 2.2 square kilometers, 7 kilometers away from the headquarters of Hegang Tangsteel ."""
CHN,CHN0033,China,39.0,3.0,14070.0,1.0,JIUQUAN I&S GROUP CO LTD,"JIAYUGUAN-CITY, GANSU",Operating,39.811774,98.295914,PlantFacts,Exact,5000051244,JiuQuan Iron and Steel Group Co Ltd,,,https://www.jiugang.com/article/business/steel/,2020-04-08,5000051244.0,JiuQuan Iron and Steel Group Co Ltd,,,,,
CHN,CHN0034,China,14.0,2.0,10760.0,1.0,"Qinhuangdao Shouqin Metals Materials Co., Lt","QINHUANGDAO, HEBEI",Operating,40.01798,119.507581,PlantFacts,Exact,4296064672,Qinhuangdao Shouqin Metal Materials Co Ltd,,,https://www.shougang.com.cn/en/ehtml/ShougangQinhuangdaoPark/,2020-04-08,5037118093.0,Shougang Group,,,,,
CHN,CHN0036,China,9.0,3.0,3100.0,1.0,TANGSHAN JIANLONG,"TANGSHAN, HEBEI",Operating,40.167705,117.96591599999999,PlantFacts,Exact,5000695265,Tangshan Jianlong Special Steel Co Ltd,2.0,2000.0,http://www.ejianlong.com/d/jl001/steel/company.jsp?entryid=19dda10b6e604d129c125a7eb2eecd23&parentId=14 ; Group company: http://www.ejianlong.com/d/jl001/steel/steelindex.jsp?entryid=14,2020-04-06,5000564682.0,"Beijing Jianlong Heavy Industry Group Co., Ltd (Jianlong Group)",,,,,Address on website is close to the plant
CHN,CHN0037,China,18.0,6.0,11660.0,1.0,HEBEI JINXI I&S CO LTD,"SANTUNYING, HEBEI",Operating,40.213289,118.222862,PlantFacts,Exact,4298153651,Hebei Jinxi Iron & Steel Co Ltd,,,http://www.hbjxgtjt.com.cn/zh_aboutlist1.shtml,2020-04-08,4295864675.0,China Oriental Group Co Ltd,,,,,"this plant is in Santunyingzhen, Qianxi, Tangshan, Hebei, China"
CHN,CHN0038,China,4.0,,1600.0,1.0,CHENGDE JIANLONG I&S,"CHENGDE, HEBEI",Operating,40.511648,117.59281000000001,PlantFacts,Exact,5000695381,Chengde Jianlong Steel Co Ltd,,,http://www.ejianlong.com/d/jl001/steel/company.jsp?entryid=0c6253aa96694221a243b23c0a4a43c4&parentId=14 ; Group company: http://www.ejianlong.com/d/jl001/steel/steelindex.jsp?entryid=14,2020-04-06,5000564682.0,"Beijing Jianlong Heavy Industry Group Co., Ltd (Jianlong Group)",,,,,Address on website is close to the plant
CHN,CHN0039,China,9.0,2.0,4100.0,1.0,"SHANXI ZHONGYANG I&S CO, LTD","ZHONGYANG COUNTY, SHANXI",Operating,37.380181,111.155391,PlantFacts,Exact,,,,,,,,,,,,,
CHN,CHN0041,China,20.0,3.0,29430.0,1.0,CHONGQING I&S CO,"CHANGSHOU CHEM. ZONE, CHONGQING",Operating,29.795084999999997,107.04939499999999,PlantFacts,Exact,4295864574,Chongching Iron & Steel Co Ltd. ,8.4,,http://www.cqgt.cn/plus/list.php?tid=1 ; http://www.cqgt.cn/uploads/soft/190425/1-1Z425203A8.pdf	,2020-04-02,4296768729.0,Chongqing Iron & Steel Group Co Ltd,,,,,Address on the website is close to the plant 
CHN,CHN0042,China,25.0,5.0,5400.0,1.0,XINGTAI I&S CO,"XINGTAI, HEBEI",Operating,37.043134,114.45401299999999,PlantFacts,Exact,4297791408,Xingtai Iron & Steel Corp Ltd,,,http://www.xtsteel.com/Item/3.aspx,2020-04-08,4297791408.0,Xingtai Iron & Steel Corp Ltd,,,,,
CHN,CHN0043,China,31.0,5.0,17590.0,1.0,HUNAN VALIN XIANGTAN I&S,"XIANGTAN, HUNAN",Operating,27.816832,112.89678799999999,PlantFacts,Exact,5000040686,Xiangtan Iron&Steel Co Ltd of Hunan Valin,,,http://en.hnxg.com.cn/introduce/3.html,2020-04-08,4295865471.0,Hunan Valin Steel Co Ltd,,,,,
CHN,CHN0045,China,17.0,3.0,7720.0,1.0,FANGDA SPECIAL STEEL,"NANCHANG, JIANGXI",Operating,28.645564,115.991285,PlantFacts,Exact,4295864832,Fangda Special Steel Technology Co Ltd,,,http://www.fangda-specialsteels.com/web/comesteel/comesteel.aspx,2020-04-08,4295864832.0,Fangda Special Steel Technology Co Ltd,,,,,
CHN,CHN0047,China,11.0,3.0,5960.0,1.0,SICHUAN DESHENG I&S,"LESHAN-CITY, SICHUAN",Operating,29.398215999999998,103.54175699999999,PlantFacts,Exact,,,,,,,,,,,,,
CHN,CHN0048,China,4.0,1.0,4200.0,1.0,PINGXIANG I&S,"JIUJIANG-CITY, JIANGXI",Operating,29.781083000000002,116.278826,PlantFacts,Exact,,,,,,,,,,,,,
CHN,CHN0050,China,46.0,7.0,31840.0,1.0,XINYU I&S CO,"XINYU, JIANGXI",Operating,27.783559999999998,114.912549,PlantFacts,Exact,5000069709,"Xinyu Iron and Steel Group Co., Ltd.",,,https://www.xinsteel.com.cn/portal/about_us/about_us_brief.jsp?me_tag=introduce ; http://www.xyusteel.com/newsview.asp?newsId=935,2020-03-09,5000069709.0,"Xinyu Iron and Steel Group Co., Ltd.",,,,,"There is only one big plant in Xinyu city. The main plant is the ""Jiangxi Xinyu Iron and Steel General Plant"" highlighted on the website. "
CHN,CHN0051,China,11.0,2.0,15400.0,1.0,NINGBO IRON & STEEL CO LTD,"NINGBO, ZHEJIANG",Operating,29.918396,121.876347,PlantFacts,Exact,4298155661,"Ningbo Iron & Steel Co., Ltd.",,,http://www.baosteel.com/group_en/contents/2898/40045.html,2020-07-23,5000039946.0,China Baowu Steel Group Corp Ltd,,,,,"Address provided on Baosteel website couldn’t be found on Gmaps. There is only one big plant in Bailun habour, so it must be this. It's also on the map of subsidary website. "
CHN,CHN0054,China,27.0,4.0,18315.0,1.0,"ECHENG I&S CO, LTD","EZHOU, HUBEI",Operating,30.396278000000002,114.86093600000001,PlantFacts,Exact,4298154971,Wuhan Iron & Steel Group Echeng Iron & Steel Co Ltd,,,http://www.ecsteel.com.cn/index.php?id=3118,2020-04-08,5000039946.0,China Baowu Steel Group Corp Ltd,,,,,"part of Wuhan Iron and Steel Corp, which merged with Baosteel Group to become China Baowu Steel Group Corp., Ltd.,"
CHN,CHN0055,China,82.0,6.0,49560.0,1.0,WUHAN I&S CO,"WUHAN, HUBEI",Operating,30.624575,114.44560200000001,PlantFacts,Exact,4295864079,"Wuhan Iron & Steel Co., Ltd.",,,http://www.baosteel.com/en/about/product,2020-07-23,5000039946.0,China Baowu Steel Group Corp Ltd,,,,,"No address or exact location provided, but city district in which is only this massive plant (Wuhan Qingshan Steel Plant)"
CHN,CHN0056,China,3.0,,,0.0,SAMSUNG PRECISION STAINLESS CO LTD,"PINGHU, ZHEJIANG",Operating,30.750311,120.98041,PlantFacts,Exact,,,,,,,,,,,,,
CHN,CHN0057,China,24.0,4.0,3300.0,1.0,CHENGDU STEEL & VANADIUM (PANGANG),"CHENGDU-CITY, SICHUAN",Operating,30.871889000000003,104.288928,PlantFacts,Exact,5035972173,"Pangang Group Chengdu Steel Vanadium Co., Ltd.",,,http://www.csstco.com/About/Index?parentId=1&categoryId=2,2020-04-06,5037655487.0,Ansteel Group Corp Ltd,,,,,"Steel plant closed in 2015 due to national excess capacity reduction policy. Only mills and industrial park in operation, unclear what the capacity of those is. Coordinates locate the industrial park, not the steel plant (which is nearby). "
CHN,CHN0058,China,10.0,,240.0,0.0,YONGXING SPEC. STAINLESS STEEL,"HUZHOU, ZHEJIANG",Operating,30.897042,120.01338700000001,PlantFacts,Exact,,,,,,,,,,,,,
CHN,CHN0059,China,1.0,,2000.0,1.0,WUHAN I&S CO,"CHENGCHAO IRON MINE, EZHOU, HUBEI",Operating,30.328403,114.904271,PlantFacts,Exact,4295864079,"Wuhan Iron & Steel Co., Ltd.",,,http://www.baosteel.com/en/about/product,2020-07-23,5000039946.0,China Baowu Steel Group Corp Ltd,,,,,company website not available
CHN,CHN0060,China,35.0,7.0,18936.0,1.0,HUNAN VALIN LIANYUAN I&S ,"LOUDI, HUNAN",Operating,27.749305,111.962418,PlantFacts,Exact,5055943656,Hunan Valin Lianyuan Iron & Steel Co Ltd,,,http://www.lysteel.com/Column.aspx?ColId=30,2020-04-08,4295865471.0,Hunan Valin Steel Co Ltd,,,,,
CHN,CHN0061,China,15.0,3.0,15450.0,1.0,PANGANG XICHANG STEEL & VANADIUM,"XICHANG II, SICHUAN ",Operating,27.746401000000002,102.205709,PlantFacts,Exact,5045880137,"Pangang Group Xichang Steel and Vanadium Co., Ltd",,,http://www.pzhsteel.com.cn/index.php?s=/Home/Article/pg_jianjie/art_bm_id/134/fl/two/msg_id/545,2020-04-06,5037655487.0,Ansteel Group Corp Ltd,,,,,Address on the website is close to the plant ; plant shown on picture on website
CHN,CHN0062,China,11.0,3.0,3700.0,1.0,PINGXIANG I&S,"PINGXIANG-CITY, JIANGXI",Operating,27.630957000000002,113.72578700000001,PlantFacts,Exact,4297177966,Pingxiang Iron & Steel Co Ltd,,,http://pinggang.fengj.com/en/,2020-04-08,4297177966.0,Pingxiang Iron & Steel Co Ltd,,,,,
CHN,CHN0064,China,5.0,,,0.0,GUANGZHOU JFE ST. SHEET,"NANSHA, GUANGDONG",Operating,22.63951,113.63457700000001,PlantFacts,Exact,4298508931, Guangzhou Jfe Steel Sheet Co Ltd,,,http://www.gjss.com.cn/jfe/content/jfeportal/aboutUs/intro/index.html,2020-04-08,4295877328.0,JFE Steel Corp,0.5,5000039946.0,China Baowu Steel Group Corp Ltd,0.5,
CHN,CHN0066,China,16.0,,800.0,0.0,LIANZHONG STAINL. STEEL,"GUANGZHOU, GUANGDONG",Operating,23.12658,113.50565800000001,PlantFacts,Exact,4298153672,Angang Guangzhou Lianzhong Stainless Steel Co,,,http://en.ansteel.cn/yewubankuai/gangtiechanye/ ; http://www.lisco.com.cn/,2020-04-06,5037655487.0,Ansteel Group Corp Ltd,,,,,Address on website
CHN,CHN0068,China,30.0,7.0,17640.0,1.0,LIUZHOU I&S GROUP,"LIUZHOU-CITY, GUANGXI ",Operating,24.385393,109.380271,PlantFacts,Exact,4295864829,Liuzhou Iron & Steel Co Ltd,,,http://www.liuzhousteel.com/ggsjj.aspx,2020-04-08,5000047079.0,Guangxi Liuzhou Iron and Steel Group Co Ltd,,,,,http://www.liusteel.com
CHN,CHN0069,China,6.0,,720.0,0.0,FUJIAN FUXIN SPECIAL STEEL,"ZHANGZHOU, FUJIAN",Operating,24.472396,117.948692,PlantFacts,Exact,,,,,https://www.emis.com/php/company-profile/CN/Fujian_Fuxin_Special_Steel_Co_Ltd__%E7%A6%8F%E5%BB%BA%E7%A6%8F%E6%AC%A3%E7%89%B9%E6%AE%8A%E9%92%A2%E6%9C%89%E9%99%90%E5%85%AC%E5%8F%B8__en_5438475.html,,,,,,,,
CHN,CHN0070,China,35.0,8.0,18490.0,1.0,SHAOGUAN I&S GROUP CO,"QUJIANG, GUANGDONG",Operating,24.705898,113.63633300000001,PlantFacts,Exact,4297683841,Guangdong Shaoguan Iron & Steel Co Ltd,,,http://www.baosteel.com/group_en/contents/2763/36204.html,2020-07-23,5000039946.0,China Baowu Steel Group Corp Ltd,,,,,Address provided on website; plant nearby.
CHN,CHN0071,China,15.0,4.0,12320.0,1.0,SHAANXI LONGMEN I&S,"HANCHENG CITY, SHAANXI",Operating,24.953727999999998,102.378688,PlantFacts,Exact,5000225856,Shaanxi Longmen Iron & Steel Co Ltd,,,http://www.sxlmgt.com/info/2014011517/201409131413161381.shtml,2020-04-08,5046708432.0,Hummingbird Holdings Ltd,,,,,
CHN,CHN0072,China,11.0,3.0,4730.0,1.0,YONGCHANG I&S,"ANNING-CITY, YUNNAN",Operating,25.023954999999997,102.311894,PlantFacts,Exact,,,,,http://www.asianmetal.com/news/data/1371519/Yongchang%20Iron%20&%20Steel%20to%20resume%20production%20soon%20after%203-year%20suspension,,,,,,,,"company is Anning Yongchang Iron and Steel Co., Ltd."
CHN,CHN0073,China,2.0,,,0.0,FUJIAN WUHANG STAINLESS,"CHANGLE-CITY , FUJIAN",Operating,25.959119,119.44945700000001,PlantFacts,Exact,,,,,,,,,,,,,
CHN,CHN0074,China,18.0,5.0,9208.0,1.0,FUJIAN SANGANG I&S,"SANMING, FUJIAN",Operating,26.260714,117.61229399999999,PlantFacts,Exact,,,,,,,,,,,,,
CHN,CHN0075,China,29.0,4.0,21550.0,1.0,PANZHIHUA I&S GROUP CO,"DUKOU, SICHUAN",Operating,26.565119,101.67503599999999,PlantFacts,Exact,5000059681,Pangang Group Company Limited,,,http://www.pzhsteel.com.cn/index.php?s=/Home/Article/pg_jianjie/art_bm_id/126/fl/two/msg_id/559,2020-04-06,5037655487.0,Ansteel Group Corp Ltd,,,,,Address on the website is close to the plant ; plant shown on picture on website
CHN,CHN0076,China,19.0,4.0,13470.0,1.0,SHOUGANG SHUICHENG I&S CO,"LIUPANSHUI-CITY, GUIZHOU",Operating,26.595884,104.87791999999999,PlantFacts,Exact,5042952656,Shougang Shuicheng Iron & Steel Group Co Ltd,,,https://www.shougang.com.cn/en/ehtml/IronSteelIndustry/20170329/830.html,2020-04-08,5037118093.0,Shougang Group,,,,,
CHN,CHN0078,China,12.0,1.0,2980.0,1.0,HENGYANG VALIN STEEL TUBE CO LTD,"HENGYANG-CITY, HUNAN",Operating,26.879572999999997,112.585904,PlantFacts,Exact,,,,,,,,,,,,,
CHN,CHN0080,China,14.0,4.0,7880.0,1.0,DAZHOU I&S GROUP CO,"DAZHOU, SICHUAN",Operating,31.189673,107.45413700000002,PlantFacts,Exact,,,,,https://www.bloomberg.com/profile/company/8102266Z:CH,,,,,,,,
CHN,CHN0084,China,17.0,5.0,4350.0,1.0,HENAN JIYUAN I&S,"JIYUAN, HENAN",Operating,35.087539,112.55435700000001,PlantFacts,Exact,4298155240,Henan Jiyuan Iron & Steel (Group) Co Ltd,,,http://www.hnjg.com/Index.html,2020-04-08,4298155240.0,Henan Jiyuan Iron & Steel (Group) Co Ltd,,,,,
CHN,CHN0085,China,61.0,18.0,50678.0,1.0,RIZHAO IRON & STEEL,"RIZHAO, SHANDONG",Operating,35.158452000000004,119.363665,PlantFacts,Exact,4298435622,Rizhao Steel Holding Group Co Ltd,,,https://www.rizhaosteel.com/en/About_video.asp?YCL=85,2020-04-08,5000045132.0,Shandong Iron & Steel Group Co Ltd,,,,,owned by Shandong Iron and Steel Group
CHN,CHN0086,China,27.0,6.0,15850.0,1.0,SHANXI HAIXIN I&S CO LTD,"WENXI-COUNTY, SHANXI",Operating,35.413622,111.30368200000001,PlantFacts,Exact,4297044876,Shanxi Haixin Iron & Steel,,,http://www.ejianlong.com/d/jl001/steel/sxsteel.jsp,2020-04-08,4297143270.0,Jianlong Iron & Steel Group Co Ltd,,,,,
CHN,CHN0087,China,1.0,,,0.0,SHANDONG HENGXIN COKING,"JINING-CITY, SHANDONG",Operating,35.750602,116.758475,PlantFacts,Exact,,,,,,,,,,,,,
CHN,CHN0088,China,1.0,,,0.0,SHANDONG YANKUANG INT. COKING,"JINING-CITY, SHANDONG",Operating,35.503037,116.746788,PlantFacts,Exact,5000515514,Shandong Yankuang International Coking Co Ltd,2.0,,http://www.vale.com/EN/investors/information-market/Press-Releases/Pages/cvrd-associa-se-para-a-producao-de-coque-metalurgico-na-china.aspx ; http://www.vale.com/Documents/valehistorybook9.pdf,2020-04-29,5000006765.0,Yankuang Group Co Ltd,,,,,"Vale owns 25% in JV, Yankuang Group Co Ltd seems to own 75%. No info on Yankuang Group website available. "
CHN,CHN0089,China,15.0,5.0,4400.0,1.0,TAIYUAN LINFEN I&S CO,"LINFEN, SHANXI",Operating,36.066695,111.55108100000001,PlantFacts,Exact,,,,,https://www.bloomberg.com/profile/company/TAIGAZ:CH,,,,,,,,not sure if abondoned or not; company is Tisco Linfen Iron & Steel Co Ltd according to Bloomberg
CHN,CHN0090,China,40.0,8.0,30790.0,1.0,ANYANG I&S GROUP,"ANYANG, HENAN",Operating,36.124096,114.28661699999999,PlantFacts,Exact,5000017744,Anyang Iron & Steel Group Co Ltd,,,http://www.angang.com.cn/gsjj/index.shtml,2020-04-08,5000017744.0,Anyang Iron & Steel Group Co Ltd,,,,,http://www.aysteel.com.cn/gsjj/index.shtml
CHN,CHN0091,China,10.0,2.0,4700.0,1.0,SHAGANG ANYANG YONGXING I&S,"ANYANG, HENAN",Operating,36.141676000000004,114.14645300000001,PlantFacts,Exact,5000551917,Shagang Group Anyang Yongxing Iron & Steel Co Ltd,,,http://eng.shasteel.cn/doc/2015/06/23/4386.shtml,2020-03-27,5000051246.0,"Jiangsu Shagang Group Co., Ltd",,,,,"this is closest to the address on Bloomberg, and matches the address in Mandarin"
CHN,CHN0092,China,26.0,5.0,9460.0,1.0,QINGDAO I&S GROUP CO,"QINGDAO I, SHANDONG",Operating,36.221915,120.38459099999999,PlantFacts,Exact,4296935883,Qingdao Iron & Steel Group,,,http://www.hbisco.com/site/en/steelbusiness/index.html,2020-04-08,5000022648.0,HBIS Group,,,,,
CHN,CHN0093,China,12.0,6.0,5000.0,1.0,SHANDONG TAISHAN I&S,"LAIWU CITY, SHANDONG",Operating,36.219384999999996,117.62111000000002,PlantFacts,Exact,5050923126,Shandong Taishan Steel Co Ltd,,,https://www.bloomberg.com/profile/company/STSGZ:CH,2020-04-08,5000045132.0,Shandong Iron & Steel Group Co Ltd,,,,,
CHN,CHN0094,China,7.0,1.0,2850.0,1.0,Shandong Fulun Iron & Steel Co. Ltd.,"LAIWU CITY, SHANDONG",Operating,36.307437,117.537203,PlantFacts,Exact,,,,,https://www.bloomberg.com/profile/company/QRALMZ:CH,,,,,,,,
CHN,CHN0095,China,21.0,6.0,9320.0,1.0,SHOUGANG CHANGZHI I&S,"CHANGZHI, SHANXI",Operating,36.350491,113.06253899999999,PlantFacts,Exact,5036786696,Shougang Changzhi Steel Co Ltd,,,https://www.shougang.com.cn/en/ehtml/IronSteelIndustry/20170329/828.html,2020-04-08,5037118093.0,Shougang Group,,,,,
CHN,CHN0096,China,11.0,2.0,7220.0,1.0,WEIFANG I&S GROUP,"WEIFANG, SHANDONG",Operating,36.645482,119.238373,PlantFacts,Exact,,,,,,,,,,,,,
CHN,CHN0097,China,22.0,8.0,10530.0,1.0,"HEBEI PUYANG I&S CO, LTD","YANGYI TOWN-WUAN, HEBEI",Operating,36.71948,113.912838,PlantFacts,Exact,,,,,,,,,,,,,
CHN,CHN0100,China,15.0,3.0,6650.0,1.0,JIANGSU HUAIGANG SPEC. STEEL,"HUAIJIN-(BOF), JIANGSU",Operating,33.565103,118.98251699999999,PlantFacts,Exact,5000054758,"Jiangsu Shagang Group Huaigang Special Steel Co., Ltd",,,http://eng.shasteel.cn/doc/2015/06/23/4385.shtml,2020-03-27,5000051246.0,"Jiangsu Shagang Group Co., Ltd",,,,,There is only one plant but two entries in this database; both should refer to the same plant (if different facilities within that plant). 
CHN,CHN0101,China,8.0,3.0,3630.0,1.0,SHANXI ANTAI GROUP,"JIEXIU, SHANXI",Operating,37.077397,111.981381,PlantFacts,Exact,4295864372,Shanxi Antai Group Co Ltd,,,http://www.antaigroup.com/docc/home/main.asp,2020-04-08,4295864372.0,Shanxi Antai Group Co Ltd,,,,,not sure if this is the correct plant
CHN,CHN0102,China,10.0,,1800.0,1.0,WUYANG I&S CORP LTD,"PINGDINGSHANG, HENAN",Operating,33.28754,113.47975500000001,PlantFacts,Exact,4297970274,Wuyang Iron and Steel Co Ltd (WUSTEEL),,,http://www.hbisco.com/site/en/steelbusiness/index.html,2020-03-23,5000022648.0,HBIS Group Co Ltd,,,,,There is only one facility in this city
CHN,CHN0103,China,11.0,2.0,4800.0,1.0,HANZHONG I&S,"HANZHONG, SHAANXI",Operating,33.132678000000006,106.661454,PlantFacts,Exact,,,,,,,,,,,,,
CHN,CHN0104,China,28.0,2.0,11940.0,1.0,BAOSTEEL STAINLESS STEEL BRANCH,"SHANGHAI, SHANGHAI",Operating,31.354429,121.475482,PlantFacts,Exact,5037629013,Baosteel Stainless Steel Co Ltd,3.75,2012.0,http://www.baosteel.com/group_en/contents/2898/40047.html,2020-07-23,5000039946.0,China Baowu Steel Group Corp Ltd,,,,,Address of admin office close to the plant
CHN,CHN0105,China,73.0,4.0,55410.0,1.0,BAOSHAN I&S  CO LTD,"BAOSHAN, SHANGHAI",Operating,31.435431,121.436098,PlantFacts,Exact,4295864974,Baoshan Iron & Steel Co Ltd,,,http://www.baosteel.com/group_en/contents/2763/36201.html,2020-07-23,5000039946.0,China Baowu Steel Group Corp Ltd,,,,,Address of admin office close to the main plant (Baoshan base)
CHN,CHN0106,China,14.0,4.0,7840.0,1.0,CHANGZHOU ZHONGTIAN (ZENITH),"CHANGZHOU, JIANGSU",Operating,31.703164,120.075372,PlantFacts,Exact,,,,,,,,,,,,,
CHN,CHN0107,China,11.0,3.0,11820.0,1.0,ZENITH STEEL,"CHANGZHOU-CITY, JIANGSU",Operating,31.705757000000002,120.076674,PlantFacts,Exact,5042952736,Zenith Steel Group Co Ltd,,,http://www.zt.net.cn/index.php?m=content&c=index&a=show&catid=42&id=1026,2020-04-08,5042952736.0,Zenith Steel Group Co Ltd,,,,,
CHN,CHN0109,China,12.0,,40.0,0.0,CHANGCHENG SPEC. STEEL,"NO.3-JIANGYOU, SICHUAN",Operating,31.763469,104.76384,PlantFacts,Exact,,"Pangang Group Jiangyou Great Wall Special Steel Co., Ltd.",,,https://www.cssc.com.cn/Blurb,2020-04-06,5037655487.0,Ansteel Group Corp Ltd,,,,,Address on website close to the plant
CHN,CHN0114,China,36.0,3.0,9460.0,1.0,JIANGSU SHAGANG GROUP,"ZHANGJIAGANG I, JIANGSU",Operating,31.850953000000004,120.729196,PlantFacts,Exact,4295865268,Jiangsu Shagang Co Ltd,,,http://eng.shasteel.cn/doc/2018/03/10/4384.shtml,2020-03-27,5000051246.0,"Jiangsu Shagang Group Co., Ltd",,,,,"There are two distinct plants near ZHANGJIAGANG, one of which is the big plant in the North. Not sure which plant this refers to as it cannot be found on any website. It could be part of the big plant in the North (ZHANGJIAGANG II, JIANGSU), or the other plant in the East. The coordinates filled in refer to the most likely guess (plant in the East). We need to get the AR of the liste subsidiary Jiangsu Shagang Co Ltd to confirm."
CHN,CHN0115,China,29.0,3.0,28674.0,1.0,BAOSTEEL MEISHAN ,"NANJING, JIANGSU",Operating,31.904390999999997,118.611093,PlantFacts,Exact,4297103773,"Shanghai Meishan Iron & Steel Co., Ltd.",,,"http://www.baosteel.com/en/about/recom ; http://res.baowugroup.com/files/2019/10/24/d787d4f8411c4fad87b5fbdba974ace6.pdf, p. 3, 40 ; http://res.baowugroup.com/files/2019/07/02/5fdee415e3994b128ee0c48834d91464.pdf, p. 7",2020-07-23,5000039946.0,China Baowu Steel Group Corp Ltd,,,,,"No address or exact location provided, but city district in which is only this massive plant (Nanjing Meishan Steel Plant)"
CHN,CHN0116,China,14.0,1.0,2780.0,1.0,JIANGYIN XINGCHENG STEEL ,"JIANGYIN-CITY-I, JIANGSU",Operating,31.948763,120.328071,PlantFacts,Exact,5001097575,Jiangyin Xingcheng Special Steel Works Co Ltd,,,https://xctg.citicsteel.com/,2020-04-08,5036397450.0,Daye Special Steel Co Ltd,,,,,
CHN,CHN0118,China,46.0,4.0,48450.0,1.0,JIANGSU SHAGANG GROUP,"ZHANGJIAGANG II, JIANGSU",Operating,31.981374,120.63504099999999,PlantFacts,Exact,4295865268,Jiangsu Shagang Co Ltd,,,http://eng.shasteel.cn/doc/2018/03/10/4384.shtml,2020-03-27,5000051246.0,"Jiangsu Shagang Group Co., Ltd",,,,,"There are two distinct plants near ZHANGJIAGANG, one of which is the big plant in the North. There is only one large plant north of ZHANGJIAGANG in Jinfeng Town which is one of the largest plants in China, so it must be this one."
CHN,CHN0119,China,16.0,,800.0,0.0,ZHANGJIAGANG POHANG STAINL.,"ZHANGJIAGANG, JIANGSU",Operating,31.980084,120.65425900000001,PlantFacts,Exact,5000043720,Zhangjiagang Pohang Stainless Steel Co Ltd,,,http://www.posco.com/homepage/docs/eng6/jsp/company/family/foreign_02_02.jsp,2020-04-08,4295881204.0,POSCO,,,,,
CHN,CHN0120,China,41.0,8.0,21190.0,1.0,NANJING I&S CO LTD,"NANJING-CITY, JIANGSU",Operating,32.193796,118.745046,PlantFacts,Exact,4298499795,Nanjing Steel Group,,,http://www.njsteel.com.cn/En/Products?ccId=e8c97f6d-5231-49d8-aa46-4ecb64113f06,2020-04-08,5000675707.0,Nanjing Nangang Iron & Steel United Co Ltd,,,,,
CHN,CHN0121,China,10.0,1.0,5300.0,1.0,NANYANG HANYE SPECIAL STEEL CO LTD,"HUICHE-XIXIA, HENAN",Operating,33.269856,111.53246499999999,PlantFacts,Exact,,,,,,,,,,,,,
CHN,CHN0122,China,27.0,2.0,34448.0,1.0,BAOSTEEL ZHANJIANG I&S,"ZHANJIANG CITY, GUANGDONG",Operating,21.057353,110.501174,PlantFacts,Exact,5037438588,Baosteel Zhanjiang Iron & Steel Co Ltd,,,http://www.baosteel.com/en/about/product,2020-07-23,5000039946.0,China Baowu Steel Group Corp Ltd,,,,,"No address or exact location provided, but city district in which is only this massive plant (Zhanjiang Dongshan Steel Plant)"
CHN,CHN0144,China,6.0,,2100.0,1.0,SICHUAN CHUANWEI GROUP,SICHUAN,Operating,29.731359,104.501308,PlantFacts,Exact,,,,,,,,,,,,,
CHN,CHN0167,China,4.0,,2850.0,1.0,ZHUHAI YUE YUFENG I&S CO,"ZHUHAI, GUANGDONG",Operating,21.960449,113.20080300000001,PlantFacts,Exact,,,,,,,,,,,,,
CHN,CHN0174,China,15.0,,,0.0,NINGBO BAOXIN STAINLESS,"BEILUN, ZHEJIANG",Operating,29.897547999999997,121.873368,PlantFacts,Exact,5000010093,Ningbo Baoxin Stainless Steel Co. Ltd,,,http://www.baosteel.com/group_en/contents/2898/40047.html,2020-07-23,5000039946.0,China Baowu Steel Group Corp Ltd,,,,,"Address provided on website, but according to Gmaps it’s the Admin Office. This plant is nearby but includes the big Ningbo plant owned by Ningbo Iron & Steel Co., Ltd."
CHN,CHN0176,China,3.0,,,0.0,BAOSTEEL DESHENG STAINLESS STEEL,"LUOYUAN, FUJIAN",Operating,26.485812,119.65113400000001,PlantFacts,Exact,5037629018,Baosteel Desheng Stainless Steel Co. Ltd.,1.2,2012.0,http://www.baosteel.com/group_en/contents/2898/40047.html,2020-07-23,5000039946.0,China Baowu Steel Group Corp Ltd,,,,,"Address provided on website, but could not be found on Gmaps. This plant is nearby the postcode and seems to fit the description on the website."
CHN,CHN0178,China,4.0,,1000.0,0.0,BAOSTEEL SPECIAL STEEL BRUNCH,"SHANGHAI-SMP NO.3, SHANGHAI",Operating,31.388753,121.47561699999999,PlantFacts,Exact,5050312016,Baosteel Special Steel Co Ltd,,,http://www.baosteel.com/group_en/contents/2898/40048.html,2020-07-23,5000039946.0,China Baowu Steel Group Corp Ltd,,,,,"All company names (Baosteel Special Material Co Ltd, Baosteel Special Metals Co., Ltd, Shanghai Baosteel Special Metal Materials Co Ltd, Baowu Special Steel Co., Ltd.) refer to the same plant which is close to the address on the websites. There are several facilities, no idea which one refers to which entry in this database."
CHN,CHN0183,China,17.0,2.0,15380.0,1.0,MAANSHAN I&S CO,"MAANSHAN-II, ANHUI",Operating,31.740728999999998,118.48491899999999,PlantFacts,Exact,4295864332,Maanshan Iron & Steel Co Ltd,,,http://www.magang.com.cn/eportal/ui?pageId=371865,2020-04-08,5000039946.0,China Baowu Steel Group Corp Ltd,,,,,not sure if that's the correct facility; owned by Baowu Steel Group
CHN,CHN0187,China,23.0,3.0,9780.0,1.0,"KUNMING I&S CO, LTD","KUNMING-I, YUNNAN",Operating,24.907594,102.481921,PlantFacts,Exact,,,,,,,,,,,,,"plant is nearby in the east and west ;  no idea which plant this is, could also be the one of the other two in Kunming (Kunming-I, see below)"
CHN,CHN0202,China,1.0,,5000.0,1.0,ZHANJIANG LONGTENG ,"ZHANJIANG-PORT, GUANGDONG",Operating,21.056478,110.50200000000001,PlantFacts,Exact,,,,,,,,,,,,,"Must be close to the big plant of BAOSTEEL ZHANJIANG in ZHANJIANG CITY, GUANGDONG"
CHN,CHN0204,China,24.0,2.0,17600.0,1.0,WUHAN I&S CO,"FANGCHENGGANG, GUANGXI",Operating,21.68594,108.40913799999998,PlantFacts,Exact,4295864079,"Wuhan Iron & Steel Co., Ltd.",,,http://www.baosteel.com/en/about/product,2020-07-23,5000039946.0,China Baowu Steel Group Corp Ltd,,,,,not sure if that's the correct facility
CHN,CHN0208,China,3.0,,,0.0,LIANFENG STEEL CO,"Yonglian-Zhangjiagang, Jiangsu",Operating,31.851728,120.72913999999999,PlantFacts,Exact,,,,,,,,,,,,,
CHN,CHN0209,China,10.0,1.0,3350.0,1.0,TIANJIN PIPE CORP,"TIANJIN-CITY, TIANJIN ",Operating,39.030407000000004,117.499299,PlantFacts,Exact,4297987027,Tianjin Pipe Group Corp,,,http://www.tpco.com.cn/,2020-04-08,4297987027.0,Tianjin Pipe Group Corp,,,,,seems to be same location as TIANJIN IRON & STEEL in Tianjin
CHN,CHN0213,China,9.0,2.0,2820.0,1.0,TANGSHAN XINYI I&S,"TANGSHAN, HEBEI",Operating,39.80389,118.205891,PlantFacts,Exact,,,,,https://www.asiaoffice.biz/company-tangshan-xinyiyuan-iron-and-steel-hebei-43359,,,,,,,,not sure if this is the correct plant
CHN,CHN0215,China,14.0,4.0,8370.0,1.0,TANGSHAN SONGTING I&S LTD,"QIAN'AN, HEBEI",Operating,39.939468,118.57428600000001,PlantFacts,Exact,,,,,,,,,,,,,not sure if that's the correct facility; could be the other plant in this city
CHN,CHN0216,China,28.0,3.0,18600.0,1.0,SHOUGANG I&S GROUP,"QIAN'AN, HEBEI",Operating,39.976261,118.56026299999999,PlantFacts,Exact,4298152945,Hebei Shougang QianAn Iron & Steel Co Ltd,,,https://www.shougang.com.cn/en/ehtml/IronSteelIndustry/20170329/834.html,2020-04-08,5037118093.0,Shougang Group,,,,,not sure if that's the correct facility; couldnÕt identify company
CHN,CHN0217,China,7.0,,3100.0,1.0,TANGSHAN GANGLU IRON & STEEL,"ZUNHUA, HEBEI",Operating,40.167846999999995,117.967574,PlantFacts,Exact,4296126432,Tangshan Ganglu Iron & Steel,,,,2020-04-08,5000022648.0,Hesteel Group,,,,,not sure if that's the correct facility; could be the other plant in this city
CHN,CHN0224,China,15.0,,600.0,0.0,DONGBEI SPEC. STEEL GROUP,"QIQIHAR, HEILONGJIANG",Operating,47.194618,123.61544199999999,PlantFacts,Exact,5000457379,Dongbei Special Steel Group Beiman Special Steel Co Ltd,,,,2020-03-27,5000051246.0,"Jiangsu Shagang Group Co., Ltd",,,,,"Address on website is close to this plant, which seems bigger than the capacity reported in the PlatFacts database"
CHN,CHN0228,China,45.0,4.0,17540.0,1.0,TAIYUAN I&S CO,"TAIYUAN, SHANXI",Operating,37.928721,112.54134099999999,PlantFacts,Exact,5000006742,Taiyuan Iron & Steel Group Co Ltd,,,https://web.archive.org/web/20190827083325/http://www.tisco.com.cn/gongsijieshao/201608181548488171.html,2020-04-08,5000069899.0,State-owned Assets Supervision and Administration Commission of Shan Xi Provincial Government,,,,,not sure if that's the correct facility; could be the other plant by TAIYUAN I&S CO
CHN,CHN0232,China,4.0,,600.0,0.0,BAOSTEEL NANTONG,"NANTONG-CITY, JIANGSU",Operating,32.092772,120.76465400000001,PlantFacts,Exact,5036887624,Baosteel Group Nantong Wire Products Co Ltd,,,http://www.baosteel-wire.com/en/map.asp,2020-07-23,5000039946.0,China Baowu Steel Group Corp Ltd,,,,,"Address is on the website and on the map on the website, but still unclear which facility this is"
CHN,CHN0233,China,8.0,2.0,6000.0,1.0,LIANYUNGANG YAXIN STEEL,"LIANYUNGANG-CITY, JIANGSU",Operating,34.384031,119.785559,PlantFacts,Exact,,,,,,,,,,,,,not sure if that's the correct facility; could be the other plant in this region
CHN,CHN0235,China,16.0,2.0,24300.0,1.0,SHANDONG I&S GROUP RIZHAO,"RIZHAO-CTY, SHANDONG",Operating,35.193329,119.383117,PlantFacts,Exact,5044174307,Shandong Iron & Steel Group Rizhao Co Ltd,,,http://www.sdsteelrz.com/weblist1.jsp?pid=689,2020-04-08,5000045132.0,Shandong Iron & Steel Group Co Ltd,,,,,"relocated to rizhao-city and running, but no idea where it is, could be the one identified https://www.spglobal.com/platts/en/market-insights/latest-news/metals/053019-three-private-shandong-steel-mills-mull-consolidating-operations-in-rizhao"
CHN,CHN0236,China,13.0,3.0,10050.0,1.0,LAIWU I&S GROUP,"LAIWU-II, SHANDONG",Operating,36.089966,117.826471,PlantFacts,Exact,4297128295,Laiwu Iron & Steel Group Co Ltd Assets,,,http://www.chinaccm.com/member/03/laiyang/eindex.html,2020-04-08,5000045132.0,Shandong Iron & Steel Group Co Ltd,,,,,not sure if that's the correct facility; could be the other plant by Laiwu
CHN,CHN0239,China,42.0,5.0,24580.0,1.0,HANDAN I&S CO LTD,"HANDAN-I, HEBEI",Operating,36.600221000000005,114.421429,PlantFacts,Exact,4296979031,Handan Iron and Steel Group Co Ltd (HANSTEEL),,,http://www.hdgt.com.cn/templates/T_second/index.aspx?nodeid=121,2020-03-20,5000022648.0,HBIS Group Co Ltd,,,,,"Address on the buttom of the website is close to the facility in the East, but both facilities are right next to each other. "
CHN,CHN0240,China,21.0,9.0,16880.0,1.0,TIANJIN TIANTIE METALLURGICAL,"SHEXIAN-I, HEBEI",Operating,36.600331,113.749918,PlantFacts,Exact,5037055071,Tianjin Bohai Metallurgical Industry Co Ltd,,,https://www.bloomberg.com/profile/company/3569905Z:CH,2020-04-08,5040038758.0,Bohai Steel Group Co Ltd,,,,,"this is in She, Handan (SHEXIAN), Hebei, China ;  not sure if that's the correct facility; could be the other plant by TIANJIN TIANTIE METALLURGICAL"
CHN,CHN0241,China,7.0,,4000.0,1.0,TIANJIN TIANTIE METALLURGICAL,"SHEXIAN-II, HEBEI",Operating,36.600331,113.749918,PlantFacts,Exact,,,,,https://www.bloomberg.com/profile/company/3569905Z:CH,,,,,,,,"this is in She, Handan (SHEXIAN), Hebei, China ;  not sure if that's the correct facility; could be the other plant by TIANJIN TIANTIE METALLURGICAL"
CHN,CHN0242,China,18.0,2.0,17600.0,1.0,HANDAN I&S CO LTD,"HANDAN-II, HEBEI",Operating,36.603486,114.441978,PlantFacts,Exact,4296979031,Handan Iron and Steel Group Co Ltd (HANSTEEL),,,http://www.hdgt.com.cn/templates/T_second/index.aspx?nodeid=121,2020-03-20,5000022648.0,HBIS Group Co Ltd,,,,,"Address on the bottom of the website is close to the facility in the East, but both facilities are right next to each other. "
CHN,CHN0246,China,36.0,,4600.0,1.0,TAIYUAN I&S CO,"TAIYUAN-SMP NO.4, SHANXI",Operating,37.928721,112.54134099999999,PlantFacts,Exact,5000006742,Taiyuan Iron & Steel Group Co Ltd,,,https://web.archive.org/web/20190827083325/http://www.tisco.com.cn/gongsijieshao/201608181548488171.html,2020-04-08,5000069899.0,State-owned Assets Supervision and Administration Commission of Shan Xi Provincial Government,,,,,not sure if that's the correct facility; could be the other plant by TAIYUAN I&S CO
CHN,CHN0286,China,8.0,2.0,3900.0,1.0,LAIWU I&S GROUP,"YINSHAN-QIAN, SHANDONG",Operating,36.105995,117.825565,PlantFacts,Exact,4297128295,Laiwu Iron & Steel Group Co Ltd Assets,,,http://www.chinaccm.com/member/03/laiyang/eindex.html,2020-04-08,5000045132.0,Shandong Iron & Steel Group Co Ltd,,,,,not sure if that's the correct facility; could be the other plant by Laiwu
CHN,CHN0288,China,17.0,3.0,12900.0,1.0,SHOUGANG BAOYE CO LTD,"TANGSHAN, HEBEI",Operating,39.648571999999994,118.21516899999999,PlantFacts,Exact,,,,,https://www.shougang.com.cn/en/ewap/IronSteelIndustry/,,,,,,,,company couldn't be found; region has several plants
CHN,CHN0331,China,,,,0.0,,,Operating,30.197951,115.00408700000001,http://www.baosteel.com/en/about/product,Exact,5000569896,Baosteel Huangshi Coated and Galvanized Sheet Co Ltd,,,http://www.baosteel.com/en/about/product,2020-07-23,5000039946.0,China Baowu Steel Group Corp Ltd,,,,,
CHN,CHN0332,China,,,,0.0,,,Operating,37.516659999999995,121.19173,http://www.baosteel.com/en/about/product,Exact,5000010060,Yantai Baosteel Pipe Co Ltd,,,http://www.baosteel.com/en/about/product,2020-07-23,5000039946.0,China Baowu Steel Group Corp Ltd,,,,,
COL,COL0001a,Colombia,,,,0.0,,,Operating,10.838475,-74.76085,https://www.ternium.com/en/contact-us#our-offices,Exact,5000267997,Ternium Internacional De Colombia SA,,,https://www.ternium.com/en/contact-us#our-offices,2020-04-30,4295856130.0,Ternium SA,,,,,
COL,COL0001b,Colombia,,,,0.0,,,Operating,3.209787,-76.419882,https://www.ternium.com/en/contact-us#our-offices,Exact,5000267997,Ternium Internacional De Colombia SA,,,https://www.ternium.com/en/contact-us#our-offices,2020-04-30,4295856130.0,Ternium SA,,,,,
COL,COL0002,Colombia,5.0,,150.0,0.0,GERDAU DIACO,MEDELLIN,Operating,6.150601,-75.628639,PlantFacts,Exact,,Gerdau Diaco,,,https://www.gerdau.com.co/SOBREGERDAU/UnidadesenColombia.aspx,2020-05-22,5000004542.0,Gerdau SA,,,,,
COL,COL0003,Colombia,10.0,1.0,1090.0,1.0,ACERIAS PAZ DEL RIO SA,"BELENCITO, BOYACA",Operating,5.773999,-72.88247,PlantFacts,Exact,4295865680,Acerias Paz del Rio SA,,,http://www.pazdelrio.com.co/es-es/Institucional/Paginas/donde-estamos.aspx,2020-07-20,5000075361.0,Votorantim SA,,,,,
COL,COL0004,Colombia,5.0,,180.0,0.0,GERDAU DIACO,MUNA-SIBATE,Operating,4.537073,-74.250344,PlantFacts,Exact,,Gerdau Diaco,,,https://www.gerdau.com.co/SOBREGERDAU/UnidadesenColombia.aspx,2020-05-22,5000004542.0,Gerdau SA,,,,,
COL,COL0005,Colombia,3.0,,200.0,0.0,TERNIUM ACASA - AC. DE CALDAS,"MANIZALES, CALDAS",Operating,5.0272885,-75.44795859999999,PlantFacts,Exact,5000267997,Ternium Internacional De Colombia SA,,,https://www.ternium.com/en/contact-us#our-offices,2020-04-30,4295856130.0,Ternium SA,,,,,
COL,COL0006,Colombia,5.0,,,0.0,ACESCO - AC. DE COLOMBIA,"BARRANQUILLA, BOGOTA",Operating,10.835236,-74.769184,PlantFacts,Exact,5057475108,Acerias de Colombia Acesco SAS,,,https://www.acesco.com.co/contacto/,2020-07-20,5057475108.0,Acerias de Colombia Acesco SAS,,,,,
COL,COL0007,Colombia,1.0,,,0.0,HOYALATA Y LAMINADOS SA,MEDELLIN,Operating,6.220484,-75.572777,PlantFacts,Exact,5035500205,Hoyalata y Laminados SA,,,https://holasa.com.co/sitio/,2020-07-20,5035500205.0,Hoyalata y Laminados SA,,,,,
COL,COL0009,Colombia,4.0,,250.0,0.0,GERDAU DIACO,"BOYACA, BOGOTA",Operating,5.723429,-73.222665,PlantFacts,Exact,,Gerdau Diaco,,,https://www.gerdau.com.co/SOBREGERDAU/UnidadesenColombia.aspx,2020-05-22,5000004542.0,Gerdau SA,,,,,
COL,COL0011,Colombia,,,,0.0,,,Operating,3.496354,-76.51453599999999,https://www.gerdau.com.co/SOBREGERDAU/UnidadesenColombia.aspx,Exact,,Gerdau Diaco,,,https://www.gerdau.com.co/SOBREGERDAU/UnidadesenColombia.aspx,2020-05-22,5000004542.0,Gerdau SA,,,,,
HRV,HRV0002,Croatia,4.0,,350.0,0.0,DANIELI - ABS SISAK,SISAK,Operating,45.445978000000004,16.391655,PlantFacts,Exact,5000241208,ABS Sisak doo,,1954.0,http://www.absacciai.it/sisak/#/nav/Sito_Sisak_Page_85,2020-05-14,4295875649.0,Danieli & C Officine Meccaniche SpA,,,,,
CUB,CUB0001,Cuba,4.0,,500.0,0.0,ANTILLANA  DE ACERO (ACINOX),"COTORRO, HAVANA",Operating,23.041092000000003,-82.279955,PlantFacts,Exact,,,,,,,,,,,,,
CUB,CUB0002,Cuba,5.0,,170.0,0.0,ACINOX TUNAS,LAS TUNAS,Operating,20.977555,-76.96675,PlantFacts,Exact,,,,,,,,,,,,,
CZE,CZE0001,Czech Republic,18.0,4.0,10870.0,1.0,ARCELORMITTAL OSTRAVA,OSTRAVA,Operating,49.792789,18.322798000000002,PlantFacts,Exact,4297550930,Liberty Ostrava as,,,http://www.libertyhousegroup.com/our-businesses/liberty-steel/liberty-ostrava/,2020-05-15,5057811578.0,Gfg Alliance Ltd,,,,,
CZE,CZE0002,Czech Republic,1.0,,,0.0,TRINECKE ZELEZARNY,BOHUMIN,Operating,49.894616,18.355851,PlantFacts,Exact,4295865795,Trinecké Zelezárny A.S.,,,https://www.trz.cz/articles/88/dok142/view-the-locations-of-tz-plants-on-map,2020-05-13,4296105198.0,Moravia Steel A.S.,,,,,
CZE,CZE0003,Czech Republic,4.0,,150.0,0.0,ZELEZARNY HRADEK A.S.,HRADEK,Operating,49.718385999999995,13.646606,PlantFacts,Exact,,,,,,,,,,,,,
CZE,CZE0004,Czech Republic,1.0,,,0.0,ARCELORMITTAL OSTRAVA,FRYDEK-MISTEK,Operating,49.696651,18.331635000000002,PlantFacts,Exact,5056434755,GO Steel Frydek Mistek as,,,https://www.gosteel.cz/en/kontakty/,2020-05-15,4295886511.0,Stalprodukt SA,,,,,
CZE,CZE0005,Czech Republic,6.0,,40.0,0.0,ZDB GROUP  A.S.,BOHUMIN,Operating,49.894928,18.355573,PlantFacts,Exact,,,,,,,,,,,,,
CZE,CZE0006,Czech Republic,3.0,,150.0,0.0,PILSEN STEEL,PLZEN,Operating,49.744015999999995,13.357935999999999,PlantFacts,Exact,4296694429,Pilsen Steel sro,,,http://www.pilsensteel.cz/en/find_us/,2020-05-15,4296694429.0,Pilsen Steel sro,,,,,
CZE,CZE0007,Czech Republic,2.0,,,0.0,VITKOVICE STEEL,OSTRAVA,Operating,49.819813,18.251584,PlantFacts,Exact,4295865824,Vitkovice as,,,http://www.vitkovicesteel.com/en/forms/contact,2020-05-15,5043396907.0,KKCG SE,,,,,
CZE,CZE0008,Czech Republic,1.0,,,0.0,OKD OKK ,"SVERMA, OSTRAVA",Operating,49.860039,18.277060000000002,PlantFacts,Exact,5000697654,OKK Koksovny as,,,http://www.koksovny.cz/en/contact-us,2020-05-13,4298436875.0,MTX Group as,,,,,
CZE,CZE0009,Czech Republic,21.0,2.0,7246.0,1.0,TRINECKE ZELEZARNY,TRINEC,Operating,49.689538,18.652057,PlantFacts,Exact,4295865795,Trinecké Zelezárny A.S.,,,https://www.trz.cz/articles/88/dok142/view-the-locations-of-tz-plants-on-map,2020-05-13,4296105198.0,Moravia Steel A.S.,,,,,
CZE,CZE0010,Czech Republic,5.0,,200.0,0.0,VITKOVICE HEAVY MACHINERY A.S.,OSTRAVA,Operating,49.808766999999996,18.256807000000002,PlantFacts,Exact,5073136638,VItkovice Heavy Machinery A S,,,https://vhm.company/companys-profile-and-history,2020-05-15,5043396907.0,KKCG SE,,,,,
CZE,CZE0011,Czech Republic,3.0,,,0.0,KRALODVORSKE ZELEZ,KRALUV DVUR,Operating,49.941524,14.039655999999999,PlantFacts,Exact,,,,,,,,,,,,,
CZE,CZE0012,Czech Republic,1.0,,,0.0,TRINECKE ZELEZARNY,KLADNO,Operating,50.151990999999995,14.160298000000001,PlantFacts,Exact,4295865795,Trinecké Zelezárny A.S.,,,https://www.trz.cz/articles/88/dok142/view-the-locations-of-tz-plants-on-map,2020-05-13,4296105198.0,Moravia Steel A.S.,,,,,
CZE,CZE0013,Czech Republic,1.0,,,0.0,COMAX SPOL S.R.O.,VELVARY,Operating,50.282694,14.246910999999999,PlantFacts,Exact,,,,,,,,,,,,,
CZE,CZE0016,Czech Republic,3.0,,40.0,0.0,POLDI HÌÏTTE S.R.O.,KLADNO,Operating,50.152992,14.119960999999998,PlantFacts,Exact,,,,,,,,,,,,,
CZE,CZE0017,Czech Republic,,,,0.0,,,Operating,49.818993,18.273235999999997,https://www.trz.cz/articles/88/dok142/view-the-locations-of-tz-plants-on-map,Exact,4295865795,Trinecké Zelezárny A.S.,,,https://www.trz.cz/articles/88/dok142/view-the-locations-of-tz-plants-on-map,2020-05-13,4296105198.0,Moravia Steel A.S.,,,,,
CZE,CZE0018,Czech Republic,,,,0.0,,,Operating,49.08234,17.431134,https://www.trz.cz/articles/88/dok142/view-the-locations-of-tz-plants-on-map,Exact,4295865795,Trinecké Zelezárny A.S.,,,https://www.trz.cz/articles/88/dok142/view-the-locations-of-tz-plants-on-map,2020-05-13,4296105198.0,Moravia Steel A.S.,,,,,
DNK,DNK0001,Denmark,1.0,,,0.0,METALCOLOUR,NYKOBING FALSTER,Operating,54.758832,11.826348,PlantFacts,Exact,4298371452,Metalcolour A/S,,,https://www.metalcolour.com/contact-us/,2020-05-13,4298371452.0,Metalcolour A/S,,,,,
DNK,DNK0002,Denmark,1.0,,,0.0,NLMK DANSTEEL A/S,FREDERIKSVAERK,Operating,55.962153,12.009066,PlantFacts,Exact,4297210169,NLMK Dansteel A/S,,,https://eu.nlmk.com/en/plate/dansteel/,2020-04-08,4295887048.0,Novolipetsk Steel PAO,,,,,
DNK,DNK0003,Denmark,1.0,,,0.0,DUFERCO DANISH STEEL A/S,FREDERIKSVAERK,Operating,55.959404000000006,12.014319,PlantFacts,Exact,4298263671,Duferco Danish Steel A/S,,,https://www.dufercodanishsteel.dk/history-and-location/,2020-05-13,4298263671.0,Duferco Danish Steel A/S,,,,,
DOM,DOM0001,Dominican Republic,3.0,,,0.0,GERDAU METALDOM,SANTO DOMINGO,Operating,18.437103,-69.945926,PlantFacts,Exact,,,,,,,,,,,,,
ECU,ECU0002,Ecuador,5.0,,220.0,0.0,ANDEC,GUAYAQUIL,Operating,-2.26024,-79.869022,PlantFacts,Exact,,,,,,,,,,,,,
EGY,EGY0001,Egypt,4.0,,2850.0,1.0,AL EZZ STEEL REBARS,"SOKHNA, SUEZ",Operating,29.688676,32.327448,PlantFacts,Exact,4295866291,Ezz Steel Co SAE,1.3,2002.0,http://www.ezzsteel.com/main.asp?pageID=3,2020-07-30,4295866291.0,Ezz Steel Co SAE,,,,,
EGY,EGY0004,Egypt,24.0,4.0,6620.0,1.0,EGYPTIAN IRON & STEEL,HELWAN,Operating,29.7705196,31.307134299999998,PlantFacts,Exact,,,,,,,,,,,,,
EGY,EGY0005,Egypt,4.0,,350.0,0.0,EL MARAKBY STEEL,GIZEH,Operating,29.905173100000003,30.882544899999996,PlantFacts,Exact,,,,,,,,,,,,,
EGY,EGY0006,Egypt,11.0,,3830.0,1.0,SUEZ STEEL CO,"Attaqa Ind. Zone, Suez-City",Operating,29.923196,32.466045,PlantFacts,Exact,,,,,,,,,,,,,
EGY,EGY0007,Egypt,7.0,,200.0,0.0,DELTA STEEL MILL CO,MOSTOROD,Operating,30.118429499999998,31.2812635,PlantFacts,Exact,,,,,,,,,,,,,
EGY,EGY0008,Egypt,7.0,,,0.0,KANDIL STEEL,RAMADAN CITY,Operating,30.187145,31.452111,PlantFacts,Exact,,,,,,,,,,,,,
EGY,EGY0009,Egypt,5.0,,800.0,0.0,AL EZZ STEEL REBARS,SADAT,Operating,30.381627,30.563931,PlantFacts,Exact,4295866291,Ezz Steel Co SAE,1.0,1996.0,http://www.ezzsteel.com/main.asp?pageID=3,2020-07-30,4295866291.0,Ezz Steel Co SAE,,,,,
EGY,EGY0010,Egypt,6.0,,1250.0,1.0,E.A.S.R.CO (BESHAY STEEL),SADAT CITY,Operating,30.391202000000003,30.574572999999997,PlantFacts,Exact,5074202081,Egyptian American Steel Rolling Co,1.2,1998.0,https://www.beshaysteel.com/subsidiaries-and-capacities/,2020-08-04,5040954607.0,Beshay Steel,,,,,
EGY,EGY0011,Egypt,6.0,,140.0,0.0,ARCOSTEEL,SADAT CITY,Operating,30.386260999999998,30.568788,PlantFacts,Exact,,,,,,,,,,,,,
EGY,EGY0012,Egypt,5.0,,3060.0,1.0,E.S.I.S.CO (BESHAY STEEL),SADAT CITY,Operating,30.39371,30.588284,PlantFacts,Exact,5040955029,Egyptian Sponge Iron & Steel Co,2.0,,https://www.beshaysteel.com/subsidiaries-and-capacities/,2020-08-04,5040954607.0,Beshay Steel,,,,,
EGY,EGY0013,Egypt,1.0,,,0.0,INTERN. ST. ROLLING M. (BESHAY STEEL),SADAT CITY,Operating,30.369871999999997,30.550269,PlantFacts,Exact,5074205355,International Steel Rolling Mills Co,0.7,1989.0,https://www.beshaysteel.com/subsidiaries-and-capacities/,2020-08-04,5040954607.0,Beshay Steel,,,,,
EGY,EGY0014,Egypt,21.0,,5320.0,1.0,AL EZZ DIKHEILA,"EL-DIKHEILA, ALEXANDRIA",Operating,31.119601,29.806663,PlantFacts,Exact,4295866291,Ezz Steel Co SAE,3.0,1986.0,http://www.ezzsteel.com/main.asp?pageID=3,2020-07-30,4295866291.0,Ezz Steel Co SAE,,,,,
EGY,EGY0016,Egypt,4.0,,,0.0,GALVA METAL,OBOUR CITY,Operating,30.187463,31.451105,PlantFacts,Exact,,,,,,,,,,,,,
EGY,EGY0022,Egypt,,,,0.0,,,Operating,30.247939000000002,31.740240999999997,http://www.ezzsteel.com/main.asp?pageID=3,Exact,4295866291,Ezz Steel Co SAE,0.5,1993.0,http://www.ezzsteel.com/main.asp?pageID=3,2020-07-30,4295866291.0,Ezz Steel Co SAE,,,,,
SLV,SLV0001,El Salvador,3.0,,140.0,0.0,CORINCA SA de CV,SAN SALVADOR,Operating,13.825315,-89.265449,PlantFacts,Exact,,,,,,,,,,,,,
FIN,FIN0002,Finland,7.0,,,0.0,SSAB EUROPE,HAEMEENLINNA,Operating,60.9713389,24.5332355,PlantFacts,Exact,5038079296,SSAB Europe Oy,,1972.0,https://www.ssab.com/company/about-ssab/our-business/sites-all-over-the-world,2020-03-04,4295889873.0,SSAB AB,,,,,
FIN,FIN0003,Finland,6.0,,360.0,0.0,OY OVAKO AB,IMATRA,Operating,61.149466000000004,28.798773999999998,PlantFacts,Exact,5039192473,Ovako Group AB,,,https://www.ovako.com/en/contact/,2020-04-08,4295877313.0,Nippon Steel Corp,,,,,
FIN,FIN0004,Finland,13.0,2.0,5000.0,1.0,SSAB EUROPE ,RAAHE,Operating,64.652975,24.434086999999998,PlantFacts,Exact,5038079296,SSAB Europe Oy,,1960.0,https://www.ssab.com/company/about-ssab/our-business/sites-all-over-the-world,2020-03-04,4295889873.0,SSAB AB,,,,,
FIN,FIN0005,Finland,22.0,,1570.0,1.0,OUTOKUMPU OY,TORNIO,Operating,65.768904,24.182166,PlantFacts,Exact,5037032874,Outokumpu Stainless Oy,,,https://www.outokumpu.com/locations/torniostainless-steel,2020-03-04,4295866315.0,Outokumpu Oyj,,,,,
FIN,FIN0006,Finland,1.0,,,0.0,SSAB EUROPE,KANKAANPÌãÌã,Operating,61.816538,22.387871,PlantFacts,Exact,5038079296,SSAB Europe Oy,,,https://ssabwebsitecdn.azureedge.net/-/media/files/company/investors/annual-reports/2018/ssab_annual_report_2018_en.pdf?m=20190318091218,2020-03-04,4295889873.0,SSAB AB,,,,,
FRA,FRA0001,France,5.0,,25.0,0.0,AUBERT & DUVAL TECPHY,FIRMINY,Operating,45.393547,4.282999,PlantFacts,Exact,4297369942,Aubert & Duval Fortech,,,https://www.aubertduval.com/our-locations/,2020-05-13,4295867525.0,Eramet SA,,,,,
FRA,FRA0002,France,4.0,,720.0,0.0,S A M (RIVA),MONTEREAU,Operating,48.387211,2.981091,PlantFacts,Exact,4297213583,Sam Montereau SAS,,1975.0,https://www.rivagroup.com/en/production_sites/sam_montereau,2020-05-13,5039934846.0,Riva Forni Elettrici SpA,,,,,
FRA,FRA0004,France,3.0,3.0,1110.0,1.0,SAINT-GOBAIN PAM,PONT-A-MOUSSON,Operating,48.892609,6.054115,PlantFacts,Exact,,,,,,,,,,,,,
FRA,FRA0005,France,3.0,,,0.0,TATA STEEL MAUBEUGE SAS,LOUVROIL,Operating,50.268383,3.958079,PlantFacts,Exact,4296745717,Tata Steel Maubeuge SAS,,,https://www.tatasteeleurope.com/en/about%E2%80%93us/operations,2020-04-08,4295872420.0,Tata Steel Ltd,,,,,
FRA,FRA0006,France,8.0,,,0.0,THYSSENKRUPP ELECTRICAL STEEL UGO,ISBERGUES,Operating,50.624067,2.46952,PlantFacts,Exact,4297471292,Thyssenkrupp Electrical Steel Ugo SAS,,,https://www.thyssenkrupp-steel.com/en/company/locations/thyssenkrupp-electrical-steel-gmbh/,2020-04-08,4295869754.0,Thyssenkrupp AG,,,,,
FRA,FRA0007,France,4.0,,730.0,0.0,VALLOUREC,ST.SAULVE,Operating,50.398171000000005,3.5617120000000004,PlantFacts,Exact,5052540433,British Steel Ltd,,,https://www.ascoval.fr/know-us/ ; https://uk.reuters.com/article/uk-france-ascoval/british-steel-seals-deal-to-buy-ascoval-plant-in-france-idUKKCN1S814V ; https://britishsteel.co.uk/news/jingye-completes-acquisition-of-british-steel/,2020-03-09,5071576433.0,Jingye Group Co Ltd,,,,,Former Vallourec asset sold to British Steel in May 2019. Jingye Group bought British Steel in Mar 2020.
FRA,FRA0008,France,6.0,,,0.0,APERAM STAINLESS EUROPE,ISBERGUES,Operating,50.620868,2.4770937,PlantFacts,Exact,5000020152,Aperam Stainless France SA,,,https://www.aperam.com/france,2020-05-13,5001428593.0,Aperam SA,,,,,
