iso3,uid,country,pf_number_plants,pf_number_blast_furnace,pf_total_raw_production_capacity,Unnamed: 6,pf_owner,pf_location,status,latitude,longitude,source,accuracy,owner_permid,owner_name,reported_capacity,reported_production_start,owner_source,date_accessed,parent_permid,parent_name,ownership_stake,parent_permid.1,parent_name.1,ownership_stake.1,comment_ownership
DZA,DZA0001,Algeria,22.0,2.0,7050.0,1.0,ARCELORMITTAL ALGERIA,"EL HADJAR, ANNABA",Operating,36.792072,7.701535000000001,PlantFacts,Exact,,,,,,,,,,,,,
DZA,DZA0002,Algeria,10.0,,5100.0,1.0,ALGERIAN QATARI STEEL,"BELLARA, JIJEL",Operating,36.747137,6.250612,PlantFacts,Exact,,Algerian Qatari Steel Company,,,https://aqs.dz/about/,2020-07-22,5000010731.0,Qatar Steel Company QPSC,,,,,
DZA,DZA0003,Algeria,2.0,,6500.0,1.0,TOSYALI ALGERIA,BETHIOUA,Operating,35.7702333,-0.2646662,PlantFacts,Exact,5074196906,Tosyali Ironsteel Industry Algerie SPA,,,https://www.tosyaliholding.com.tr/en/our-scope-of-activity/group-companies/international-subsidiaries/tosyali-iron-steel-industry-algerie,2020-07-22,5000866267.0,Tosyali Holding AS,,,,,
AGO,AGO0001,Angola,5.0,,,0.0,ACERIA DE ANGOLA SA,"BARRA DO DANDE, BENGO PROV.",Operating,-8.5824,13.405270999999999,PlantFacts,Exact,,,,,,,,,,,,,
ARG,ARG0001,Argentina,12.0,1.0,360.0,0.0,ACEROS ZAPLA SA,"PALPALA, JUJUY",Operating,-24.244239999999998,-65.19809599999999,PlantFacts,Exact,,,,,,,,,,,,,
ARG,ARG0002,Argentina,,,,0.0,,,Operating,-32.926684,-60.714138,https://www.ternium.com/en/contact-us#our-offices,Exact,4295856067,Ternium Argentina SA,,,https://www.ternium.com/en/contact-us#our-offices,2020-04-30,4295856130.0,Ternium SA,,,,,
ARG,ARG0003,Argentina,1.0,,,0.0,LAMINADOS INDUSTRIALES (BELTRAME),"VILLA CONSTITUCION, SANTA FE",Operating,-33.26958,-60.282830000000004,PlantFacts,Exact,,,,,,,,,,,,,
ARG,ARG0004,Argentina,11.0,,2600.0,1.0,ARCELORMITTAL ACINDAR SA,"VILLA CONSTITUCION, SANTA FE",Operating,-33.25696,-60.286649,PlantFacts,Exact,4295856032,Acindar Industria Argentina de Aceros SA,,,https://www.acindar.com.ar/wp-content/uploads/2018/11/reporte-sustentabilidad-2011.pdf,2020-04-08,5000030092.0,Arcelormittal SA,,,,,
ARG,ARG0005,Argentina,1.0,,,0.0,ARCELORMITTAL ACINDAR SA,"SAN NICOLAS, BA",Operating,-33.346459,-60.257842000000004,PlantFacts,Exact,4295856032,Acindar Industria Argentina de Aceros SA,,,https://www.acindar.com.ar/wp-content/uploads/2018/11/reporte-sustentabilidad-2011.pdf,2020-04-08,5000030092.0,Arcelormittal SA,,,,,
ARG,ARG0006,Argentina,18.0,2.0,8630.0,1.0,TERNIUM SIDERAR,"RAMALLO-SAN NICOLAS, BA",Operating,-33.36772,-60.149568,PlantFacts,Exact,4295856067,Ternium Argentina SA,,,https://www.ternium.com/en/contact-us#our-offices,2020-04-30,4295856130.0,Ternium SA,,,,,
ARG,ARG0007,Argentina,1.0,,,0.0,TERNIUM SIDERAR,"HAEDO, BA",Operating,-34.638826,-58.611764,PlantFacts,Exact,4295856067,Ternium Argentina SA,,,https://www.ternium.com/en/contact-us#our-offices,2020-04-30,4295856130.0,Ternium SA,,,,,
ARG,ARG0008,Argentina,1.0,,,0.0,OSTRILION SA,BUENOS AIRES,Operating,-34.653667999999996,-58.372772999999995,PlantFacts,Exact,,,,,,,,,,,,,
ARG,ARG0009,Argentina,2.0,,,0.0,TERNIUM SIDERAR,"FLORENCIO VARELA, BA",Operating,-34.819972,-58.199373,PlantFacts,Exact,4295856067,Ternium Argentina SA,,,https://www.ternium.com/en/contact-us#our-offices,2020-04-30,4295856130.0,Ternium SA,,,,,
ARG,ARG0010,Argentina,5.0,,,0.0,TERNIUM SIDERAR,"ENSENADA, BA",Operating,-34.854633,-57.941098,PlantFacts,Exact,4295856067,Ternium Argentina SA,,,https://www.ternium.com/en/contact-us#our-offices,2020-04-30,4295856130.0,Ternium SA,,,,,
ARG,ARG0011,Argentina,2.0,,,0.0,TERNIUM SIDERAR,"CANNING, BA",Operating,-34.877925,-58.511103000000006,PlantFacts,Exact,4295856067,Ternium Argentina SA,,,https://www.ternium.com/en/contact-us#our-offices,2020-04-30,4295856130.0,Ternium SA,,,,,
ARG,ARG0012,Argentina,5.0,,300.0,0.0,VOTORANTIM ACERBRAG SA,"BRAGADO, BA",Operating,-35.140246999999995,-60.44965,PlantFacts,Exact,,,,,,,,,,,,,
ARG,ARG0013,Argentina,5.0,,650.0,0.0,GERDAU SA,"PEREZ, SANTA FE",Operating,-32.991766,-60.755798,PlantFacts,Exact,,,,,,,,,,,,,
ARG,ARG0014,Argentina,7.0,,1300.0,1.0,TENARIS SIDERCA,"CAMPANA, BA",Operating,-34.155515,-58.975955000000006,PlantFacts,Exact,4298123650,Siderca SAIC,,,https://www.tenaris.com/en/contact/tenaris-around-the-world/,2020-05-15,4295883040.0,Tenaris SA,,,,,
ARG,ARG0015,Argentina,,,,0.0,,,Operating,-34.687596,-58.539625,https://www.acindar.com.ar/wp-content/uploads/2018/11/reporte-sustentabilidad-2011.pdf,Exact,4295856032,Acindar Industria Argentina de Aceros SA,,,https://www.acindar.com.ar/wp-content/uploads/2018/11/reporte-sustentabilidad-2011.pdf,2020-07-24,5000030092.0,Arcelormittal SA,,,,,
ARG,ARG0016,Argentina,,,,0.0,,,Operating,-32.974327,-60.728177,https://www.acindar.com.ar/wp-content/uploads/2018/11/reporte-sustentabilidad-2011.pdf,Exact,4295856032,Acindar Industria Argentina de Aceros SA,,,https://www.acindar.com.ar/wp-content/uploads/2018/11/reporte-sustentabilidad-2011.pdf,2020-07-24,5000030092.0,Arcelormittal SA,,,,,
AUS,AUS0001,Australia,2.0,,,0.0,ONESTEEL,"NEWCASTLE, NSW",Operating,-32.887895,151.744629,PlantFacts,Exact,5071167707,Infrabuild Australia Pty Ltd,,,https://www.infrabuild.com/en-au/branch-locator/branches/infrabuild-steel-centre-newcastle/,2020-05-19,5057811578.0,Gfg Alliance Ltd,,,,,
AUS,AUS0002,Australia,8.0,1.0,4000.0,1.0,ONESTEEL,"WHYALLA, SA",Operating,-33.009381,137.587836,PlantFacts,Exact,5071167707,Infrabuild Australia Pty Ltd,,,https://www.libertygfg.com/liberty-primary-steel/,2020-05-19,5057811578.0,Gfg Alliance Ltd,,,,,
AUS,AUS0003,Australia,4.0,,660.0,0.0,ONESTEEL,"SYDNEY WEST-ROOTY HILL , NSW",Operating,-33.766009999999994,150.849819,PlantFacts,Exact,5071167707,Infrabuild Australia Pty Ltd,,,https://www.infrabuild.com/en-au/branch-locator/branches/infrabuild-steel-rooty-hill/,2020-05-19,5057811578.0,Gfg Alliance Ltd,,,,,
AUS,AUS0005,Australia,,,,0.0,,,Operating,-34.457668,150.874433,https://www.bluescope.com/about-us/where-we-are/,Exact,4295858761,BlueScope Steel Ltd,,,https://www.bluescope.com/about-us/where-we-are/,2020-04-30,4295858761.0,BlueScope Steel Ltd,,,,,
AUS,AUS0006,Australia,19.0,1.0,10900.0,1.0,BLUESCOPE STEEL,"PORT KEMBLA, NSW",Operating,-34.463834000000006,150.886191,PlantFacts,Exact,4295858761,BlueScope Steel Ltd,2.6,,https://www.bluescope.com/about-us/where-we-are/,2020-04-30,4295858761.0,BlueScope Steel Ltd,,,,,
AUS,AUS0007,Australia,5.0,,710.0,0.0,ONESTEEL ,"LAVERTON, VIC",Operating,-37.831379,144.78816899999998,PlantFacts,Exact,5071167707,Infrabuild Australia Pty Ltd,,,https://www.infrabuild.com/en-au/branch-locator/branches/infrabuild-steel-laverton/,2020-05-19,5057811578.0,Gfg Alliance Ltd,,,,,
AUS,AUS0008,Australia,9.0,,,0.0,BLUESCOPE STEEL,"WESTERN PORT-HASTINGS, VIC",Operating,-38.283196000000004,145.20503,PlantFacts,Exact,4295858761,BlueScope Steel Ltd,,,https://www.bluescope.com/about-us/where-we-are/,2020-04-30,4295858761.0,BlueScope Steel Ltd,,,,,
AUS,AUS0009,Australia,1.0,,,0.0,BLUESCOPE STEEL,"BRISBANE, QLD",Operating,-27.582695,153.032028,PlantFacts,Exact,4295858761,BlueScope Steel Ltd,,,https://www.bluescope.com/about-us/where-we-are/,2020-04-30,4295858761.0,BlueScope Steel Ltd,,,,,
AUT,AUT0001,Austria,3.0,,,0.0,VOESTALPINE WIRE ROD AUSTRIA GMBH,DONAWITZ,Operating,47.3907944,15.041311300000002,PlantFacts,Exact,5000038424,voestalpine Stahl Donawitz GmbH,,,https://www.voestalpine.com/stahldonawitz/en/,2020-03-09,4295858976.0,voestalpine AG,,,,,
AUT,AUT0002,Austria,4.0,,,0.0,VOESTALPINE PRECISION STRIP ,KEMATEN,Operating,48.064267,14.792859,PlantFacts,Exact,4298049361,voestalpine Precision Strip GmbH,,,https://www.voestalpine.com/precision-strip/company/locations-worldwide/austria/locations,2020-03-09,4295858976.0,voestalpine AG,,,,,
AUT,AUT0003,Austria,40.0,4.0,13780.0,1.0,VOESTALPINE STAHL,LINZ,Operating,48.280419,14.332767,PlantFacts,Exact,5035949909,voestalpine Stahl GmbH,,,https://www.voestalpine.com/search/en/#?category=locations&format=list&ccontinent=europe&ccountry=austria,2020-03-09,4295858976.0,voestalpine AG,,,,,
AUT,AUT0004,Austria,1.0,,,0.0,STAHL JUDENBURG GMBH,JUDENBURG,Operating,47.174085,14.667944,PlantFacts,Exact,5039934273,Stahl Judenburg GmbH,,,https://www.gmh-gruppe.de/de-en/gmh-gruppe/units.html,2020-05-13,4296801706.0,Georgsmarienhuette Holding GmbH,,,,,
AUT,AUT0005,Austria,10.0,2.0,4340.0,1.0,VA STAHL DONAWITZ GMBH,DONAWITZ,Operating,47.381778000000004,15.061917000000001,PlantFacts,Exact,5000038424,voestalpine Stahl Donawitz GmbH,,,https://www.voestalpine.com/stahldonawitz/en/company/location/,2020-05-13,4295858976.0,voestalpine AG,,,,,
AUT,AUT0006,Austria,1.0,,,0.0,VA SCHIENEN GMBH,DONAWITZ,Operating,47.385683,15.054246,PlantFacts,Exact,4297238556,voestalpine Schienen GmbH,,,https://www.voestalpine.com/railway-systems/en/locations/voestalpine-schienen/,2020-05-13,4295858976.0,voestalpine AG,,,,,
AUT,AUT0007,Austria,1.0,,,0.0,WUPPERMANN AUSTRIA,JUDENBURG,Operating,47.173627,14.656863000000001,PlantFacts,Exact,5035951450,Wuppermann Austria GmbH,,,https://www.wuppermann.com/locations/business-unit-tube/wuppermann-austria-gmbh,2020-05-14,4297659527.0,Wuppermann AG,,,,,
AUT,AUT0008,Austria,22.0,,180.0,0.0,BÌÐHLER EDELSTAHL GMBH,KAPFENBERG,Operating,47.444064399999995,15.2830786,PlantFacts,Exact,5061187413,Voestalpine Boehler Edelstahl Co GmbH & KG,,,https://www.bohler-edelstahl.com/en/voestalpine-boehler-edelstahl/,2020-05-13,4295858976.0,voestalpine AG,,,,,
AUT,AUT0009,Austria,9.0,,300.0,0.0,BREITENFELD EDELSTAHL,MITTERDORF,Operating,47.5345049,15.5006443,PlantFacts,Exact,4297142027,Breitenfeld Edelstahl AG,,1942.0,https://breitenfeld.at/en/how-to-find-us/,2020-05-13,4297142027.0,Breitenfeld Edelstahl AG,,,,,
AUT,AUT0010,Austria,4.0,,,0.0,VOESTALPINE PRECISION STRIP ,BOEHLERWERK,Operating,47.989746000000004,14.739820000000002,PlantFacts,Exact,4298049361,voestalpine Precision Strip GmbH,,,https://www.voestalpine.com/precision-strip/company/locations-worldwide/austria/locations,2020-03-09,4295858976.0,voestalpine AG,,,,,
AUT,AUT0011,Austria,4.0,,365.0,0.0,ST.+WW. MARIENHÌÏTTE,GRAZ,Operating,47.063927,15.418404,PlantFacts,Exact,5000898379,Stahl- und Walzwerk Marienhütte GmbH,,,https://www.marienhuette.at/kontakt,2020-05-15,,M + S Maschinen und Stahl Holding GmbH,,,,,
AUT,AUT0012,Austria,2.0,,,0.0,BÌÐHLER BLECHE GMBH,MÌÏRZZUSCHLAG,Operating,47.601473,15.666271,PlantFacts,Exact,,Voestalpine BÖHLER Bleche GmbH,,,https://www.voestalpine.com/search/en/#?category=locations&format=list&ccontinent=europe&ccountry=austria,2020-05-13,4295858976.0,voestalpine AG,,,,,
AUT,AUT0013,Austria,,,,0.0,,,Operating,47.547881,15.546945000000001,https://www.gmh-gruppe.de/de-en/gmh-gruppe/units/vtk-krieglach-gmbh.html,Exact,5057961576,VTK Veredelungstechnik Krieglach GmbH,,,https://www.gmh-gruppe.de/de-en/gmh-gruppe/units/vtk-krieglach-gmbh.html,2020-05-13,4296801706.0,Georgsmarienhuette Holding GmbH,,,,,
BLR,BLR0001,Belarus,16.0,,2700.0,1.0,BYELORUSSIAN STEEL  WORKS (BMZ),ZHLOBIN,Operating,52.85154300000001,29.992252,PlantFacts,Exact,,,,,,,,,,,,,
BEL,BEL0001,Belgium,1.0,,,0.0,ARCELORMITTAL LIEGE,MARCHIN,Operating,50.493935,5.235437,PlantFacts,Exact,5000060650,Arcelormittal Belgium SA,,,https://belgium.arcelormittal.com/en/inauguration-world-first-steel-industry-jet-vapor-deposition/,2020-04-08,5000030092.0,Arcelormittal SA,,,,,
BEL,BEL0002,Belgium,1.0,,,0.0,ARCELORMITTAL GENT ,GEEL,Operating,51.143648,4.9251879999999995,PlantFacts,Exact,5000060650,Arcelormittal Belgium SA,,,https://flateurope.arcelormittal.com/ourmills/be/geel,2020-04-08,5000030092.0,Arcelormittal SA,,,,,
BEL,BEL0003,Belgium,2.0,,,0.0,EUROPICKLING NV,EVERGEM,Operating,51.097947,3.6929309999999997,PlantFacts,Exact,5057778962,Europickling SA NV,,,http://www.europickling.com/en/,2020-05-14,5057778962.0,Europickling SA NV,,,,,
BEL,BEL0004,Belgium,1.0,,,0.0,ARCELORMITTAL GENT (SIKEL),GENK,Operating,50.940834,5.47968,PlantFacts,Exact,5000060650,Arcelormittal Belgium SA,,,https://flateurope.arcelormittal.com/ourmills/be/genk,2020-04-08,5000030092.0,Arcelormittal SA,,,,,
BEL,BEL0005,Belgium,17.0,,1200.0,1.0,APERAM STAINLESS EUROPE,GENK,Operating,50.935668,5.509796,PlantFacts,Exact,5000047720,Aperam Stainless Belgium NV,,,https://www.aperam.com/belgium,2020-05-13,5001428593.0,Aperam SA,,,,,
BEL,BEL0008,Belgium,27.0,2.0,16630.0,1.0,ARCELORMITTAL GENT ,GHENT,Operating,51.170703,3.8076879999999997,PlantFacts,Exact,5000060650,Arcelormittal Belgium SA,,,https://flateurope.arcelormittal.com/ourmills/be/gent,2020-04-08,5000030092.0,Arcelormittal SA,,,,,
BEL,BEL0009,Belgium,5.0,,,0.0,ARCELORMITTAL LIEGE,LIEGE-KESSALES,Operating,50.613572999999995,5.494676,PlantFacts,Exact,5000060650,Arcelormittal Belgium SA,,,https://belgium.arcelormittal.com/en/inauguration-world-first-steel-industry-jet-vapor-deposition/,2020-04-08,5000030092.0,Arcelormittal SA,,,,,
BEL,BEL0010,Belgium,7.0,,,0.0,NLMK LA LOUVIERE,LA LOUVIERE,Operating,50.488137,4.189103,PlantFacts,Exact,4296772966,NLMK la Louviere SA,,,https://eu.nlmk.com/en/strip/la-louviere/,2020-04-08,4295887048.0,Novolipetsk Steel PAO,,,,,
BEL,BEL0011,Belgium,5.0,,,0.0,ARCELORMITTAL LIEGE,FLEMALLE,Operating,50.594707,5.466776,PlantFacts,Exact,5000060650,Arcelormittal Belgium SA,,,https://flateurope.arcelormittal.com/ourmills/be/liege,2020-04-08,5000030092.0,Arcelormittal SA,,,,,
BEL,BEL0013,Belgium,1.0,,,0.0,TATA STEEL SEGAL,IVOZ-RAMET,Operating,50.585014,5.437697,PlantFacts,Exact,,Segal Le galvaniseur de pointe pour l'automobile,0.6,1986.0,http://www.segal.be/fr/segal.html,2020-04-08,4295872420.0,Tata Steel Ltd,,,,,
BEL,BEL0015,Belgium,7.0,,1000.0,0.0,APERAM STAINLESS EUROPE,CHATELET,Operating,50.414695,4.531989,PlantFacts,Exact,5000047720,Aperam Stainless Belgium NV,,,https://www.aperam.com/belgium,2020-05-13,5001428593.0,Aperam SA,,,,,
BEL,BEL0016,Belgium,5.0,,850.0,0.0,THY MARCINELLE S.A.,CHARLEROI,Operating,50.410334999999996,4.429693,PlantFacts,Exact,4296671968,Thy Marcinelle S.A.,,,https://www.rivagroup.com/en/production_sites/thy_marcinelle_charleroi,2020-05-13,5039934846.0,Riva Forni Elettrici SpA,,,,,
BEL,BEL0017,Belgium,5.0,,450.0,0.0,ARCELORMITTAL INDUSTEEL BELGIUM,CHARLEROI-MARCHIENNE,Operating,50.409828999999995,4.412782,PlantFacts,Exact,4296306422,Industeel Belgium SA,,,https://industeel.arcelormittal.com/industeel/where-we-are/,2020-04-08,5000030092.0,Arcelormittal SA,,,,,storage
BEL,BEL0018,Belgium,1.0,,,0.0,NLMK CLABECQ ,ITTRE,Operating,50.6757,4.227263,PlantFacts,Exact,5000738417,NLMK Clabecq SA,,,https://eu.nlmk.com/en/plate/clabecq/production-process/,2020-04-08,4295887048.0,Novolipetsk Steel PAO,,,,,
BEL,BEL0019,Belgium,2.0,,,0.0,ARCELORMITTAL LIEGE,LIEGE-TILLEUR,Operating,50.615642,5.517478,PlantFacts,Exact,5039930036,Arcelormittal Ringmill SA,,,https://arcelormittalringmill.com/en/,2020-04-08,5000030092.0,Arcelormittal SA,,,,,
BEL,BEL0022,Belgium,,,,0.0,,,Operating,48.577504,7.795942999999999,https://eu.nlmk.com/en/strip/strasbourg/,Exact,5000737650,NLMK Strasbourg SA,,,https://eu.nlmk.com/en/strip/strasbourg/,2020-05-13,4295887048.0,Novolipetsk Steel PAO,,,,,
BEL,BEL0023,Belgium,,,,0.0,,,Operating,50.412708,4.3334660000000005,https://www.rivagroup.com/en/production_sites/tfe_fontaine_l_eveque,Exact,,Tréfileries de Fontaine l'Eveque,,,https://www.rivagroup.com/en/production_sites/tfe_fontaine_l_eveque,2020-05-13,5039934846.0,Riva Forni Elettrici SpA,,,,,
BIH,BIH0001,Bosnia and Herzegovina,9.0,1.0,5000.0,1.0,ARCELORMITTAL ZENICA,ZENICA,Operating,44.227639,17.898785,PlantFacts,Exact,5000032006,Arcelormittal Zenica doo Zenica,,,https://barsandrods.arcelormittal.com/mills/zenica,2020-07-27,5000030092.0,Arcelormittal SA,,,,,
BIH,BIH0002,Bosnia and Herzegovina,1.0,,,0.0,GIKIL,LUKAVAC,Operating,44.549915000000006,18.505602,PlantFacts,Exact,,,,,,,,,,,,,
BIH,BIH0003,Bosnia and Herzegovina,,,,0.0,,,Operating,44.550961,18.504728,0,Exact,,,,,,,,,,,,,
BRA,BRA0001,Brazil,6.0,,870.0,0.0,GERDAU USIBA ,"SIMOES FILHO, BA",Operating,-12.84938,-38.433312,PlantFacts,Exact,4297571558,Gerdau Acos Longos Sa,,,https://www2.gerdau.com.br/sites/default/files/downloadable_files/LO-USB-080722.pdf,2020-07-20,5000004542.0,Gerdau SA,,,,,
BRA,BRA0002,Brazil,2.0,2.0,500.0,0.0,COSIPAR,"BARCARENA CITY, PARA",Operating,-5.413941,-49.089814000000004,PlantFacts,Exact,,,,,,,,,,,,,
BRA,BRA0003,Brazil,4.0,,,0.0,CIA. SIDERURGICA DE SUAPE,"SUAPE, PERNAMBUCO",Operating,-8.342767,-35.006253,PlantFacts,Exact,,,,,,,,,,,,,
BRA,BRA0004,Brazil,8.0,,250.0,0.0,GERDAU ACONORTE,"RECIFE, PE",Operating,-8.071809,-34.977168,PlantFacts,Exact,4297571558,Gerdau Acos Longos Sa,,,https://www2.gerdau.com.br/sites/default/files/downloadable_files/14001-Aconorte-010122.pdf,2020-07-20,5000004542.0,Gerdau SA,,,,,
BRA,BRA0005,Brazil,6.0,1.0,610.0,0.0,SID. NORTE BRASIL SA,"MARABA, PARA",Operating,-5.413785,-49.079903,PlantFacts,Exact,,,,,,,,,,,,,
BRA,BRA0006,Brazil,6.0,3.0,780.0,0.0,GUSA NORDESTE SA,"ACAILANDIA, MARANHAO",Operating,-4.893147,-47.387118,PlantFacts,Exact,,,,,,,,,,,,,
BRA,BRA0007,Brazil,4.0,4.0,340.0,0.0,VIENA SIDERURGICA SA,"ACAILANDIA, MARANHAO",Operating,-4.889582,-47.392827000000004,PlantFacts,Exact,,,,,,,,,,,,,
BRA,BRA0008,Brazil,3.0,,190.0,0.0,GERDAU CEARENSE ,"MARACANAU, CE",Operating,-3.856478,-38.607259,PlantFacts,Exact,4297571558,Gerdau Acos Longos Sa,,,https://www2.gerdau.com.br/sites/default/files/downloadable_files/14001-Cearense-010122.pdf,2020-07-20,5000004542.0,Gerdau SA,,,,,
BRA,BRA0009,Brazil,2.0,,,0.0,SIDERURGICA LATINO-AMERICANA SA,"CAUCAIA, CEARA",Operating,-3.7164370000000004,-38.839304999999996,PlantFacts,Exact,,,,,,,,,,,,,
BRA,BRA0010,Brazil,6.0,1.0,10460.0,1.0,CIA. SID. DO PECEM (CSP),"PORTUARIO DO PECEM, CE",Operating,-3.581128,-38.858662,PlantFacts,Exact,5036161673,CSP Companhia Siderurgica do Pecem,,,https://www.cspecem.com/en/about-us/pecem-industry-and-port-complex/,2020-08-03,4295859761.0,Vale SA,,,,,
BRA,BRA0011,Brazil,1.0,,7000.0,1.0,VALE,"SAO LUIS, MARANHAO",Operating,-2.565241,-44.346453000000004,PlantFacts,Exact,,,,,,,,,,,,,
BRA,BRA0012,Brazil,30.0,3.0,14355.0,1.0,USIMINAS,"IPATINGA, MG",Operating,-19.48595,-42.543737,PlantFacts,Exact,4295859856,Usinas Siderurgicas de Minas Gerais SA (USIMINAS),,,http://ri.usiminas.com/enu/geographical-presence,2020-03-09,5000808305.0,Techint Group,,,,,
BRA,BRA0013,Brazil,2.0,,,0.0,UNIGAL,"IPATINGA, MG",Operating,-19.492494,-42.552628999999996,PlantFacts,Exact,4298262119,UNIGAL,,,https://www.nipponsteel.com/en/company/bases/north-central-and-south-america/,2020-04-08,4295877313.0,Nippon Steel Corp,,,,,"seems to be part of the big Usiminas plant in IPATINGA, MG"
BRA,BRA0014,Brazil,2.0,,510.0,0.0,GERDAU GUAIRA,"ARAUCARIA, PR",Operating,-25.564045999999998,-49.421696999999995,PlantFacts,Exact,4297571558,Gerdau Acos Longos Sa,,,https://www2.gerdau.com.br/sites/default/files/downloadable_files/LO-UAR-100817.pdf,2020-07-20,5000004542.0,Gerdau SA,,,,,
BRA,BRA0015,Brazil,21.0,2.0,940.0,0.0,APERAM SOUTH AMERICA,"TIMOTEO, MG",Operating,-19.530304,-42.643162,PlantFacts,Exact,4295859711,Aperam Inox America do Sul SA,,,https://www.aperam.com/brazil,2020-05-13,5001428593.0,Aperam SA,,,,,
BRA,BRA0016,Brazil,13.0,,140.0,0.0,VILLARES METALS SA,"SUMARE, SP",Operating,-22.802429999999998,-47.205493,PlantFacts,Exact,,,,,,,,,,,,,
BRA,BRA0017,Brazil,10.0,,600.0,0.0,GERDAU ACOS ESPECIAIS,"PINDAMONHANGABA,SP",Operating,-22.899036,-45.351304,PlantFacts,Exact,4298258054,Gerdau Acos Especiais SA,,,https://www2.gerdau.com.br/blog-acos-especiais,2020-05-22,5000004542.0,Gerdau SA,,,,,
BRA,BRA0018,Brazil,10.0,,1200.0,1.0,GERDAU COSIGUA,"SANTA CRUZ, RJ",Operating,-22.911284,-43.740853,PlantFacts,Exact,4297571558,Gerdau Acos Longos Sa,,,https://www2.gerdau.com.br/sites/default/files/downloadable_files/38002_16_Certificado_01_01_22_Correcao_Escopo.pdf,2020-07-20,5000004542.0,Gerdau SA,,,,,
BRA,BRA0020,Brazil,,,,0.0,,,Operating,-22.909515,-43.735625,https://www.ternium.com/en/contact-us#our-offices,Exact,5072816151,Ternium Brasil Ltda,,,https://www.ternium.com/en/contact-us#our-offices,2020-04-30,4295856130.0,Ternium SA,,,,,
BRA,BRA0021a,Brazil,,,,0.0,,,Operating,-22.920129,-45.413562,https://www.gsimec.com.mx/locations.php,Exact,4295884304,Grupo Simec SAB de CV,,,https://www.gsimec.com.mx/locations.php,2020-04-30,4295884304.0,Grupo Simec SAB de CV,,,,,
BRA,BRA0021b,Brazil,,,,0.0,,,Operating,-20.348094,-40.360882000000004,https://www.gsimec.com.mx/locations.php,Exact,4295884304,Grupo Simec SAB de CV,,,https://www.gsimec.com.mx/locations.php,2020-04-30,4295884304.0,Grupo Simec SAB de CV,,,,,
BRA,BRA0021c,Brazil,,,,0.0,,,Operating,-20.067539,-44.590902,https://www.gsimec.com.mx/locations.php,Exact,4295884304,Grupo Simec SAB de CV,,,https://www.gsimec.com.mx/locations.php,2020-04-30,4295884304.0,Grupo Simec SAB de CV,,,,,
BRA,BRA0022,Brazil,5.0,,520.0,0.0,GV DO BRASIL (SIMEC),"PINDAMONHANGABA, SP",Operating,-22.920462,-45.413671,PlantFacts,Exact,,,,,,,,,,,,,
BRA,BRA0023,Brazil,1.0,,,0.0,TEKNO SA,"GUARATINGUETA, SP",Operating,-22.781060999999998,-45.161643,PlantFacts,Exact,,,,,,,,,,,,,
BRA,BRA0024,Brazil,2.0,,0.0,0.0,MWL BRASIL MANUFACTURERS,"CACAPAVA, SP",Operating,-23.099299,-45.690689,PlantFacts,Exact,,,,,,,,,,,,,
BRA,BRA0025,Brazil,5.0,,360.0,0.0,GERDAU ACOS VILLARES SA,"MOGI DAS CRUZES,SP",Operating,-23.526669000000002,-46.155653,PlantFacts,Exact,4298258054,Gerdau Acos Especiais SA,,,https://www2.gerdau.com.br/blog-acos-especiais,2020-05-22,5000004542.0,Gerdau SA,,,,,
BRA,BRA0026,Brazil,26.0,2.0,14100.0,1.0,USIMINAS,"CUBATAO, SP",Operating,-23.864354000000002,-46.375453,PlantFacts,Exact,4295859856,Usinas Siderurgicas de Minas Gerais SA (USIMINAS),,,http://ri.usiminas.com/enu/geographical-presence,2020-03-09,5000808305.0,Techint Group,,,,,
BRA,BRA0028,Brazil,4.0,,,0.0,CSN-PARANA,"ARAUCARIA, PARANA",Operating,-25.571562,-49.379677,PlantFacts,Exact,,,,,,,,,,,,,
BRA,BRA0029,Brazil,5.0,,,0.0,ARCELORMITTAL VEGA,"SAO  FRANCISCO  DO SUL, SC",Operating,-26.293549,-48.632341,PlantFacts,Exact,,Arcelormittal Vega,,,https://brasil.arcelormittal.com/a-arcelormittal/unidades,2020-07-24,5000030092.0,Arcelormittal SA,,,,,
BRA,BRA0030,Brazil,7.0,,300.0,0.0,GERDAU RIOGRANDENSE,"SAPUCAIA do SUL, RS",Operating,-29.814758,-51.174543,PlantFacts,Exact,4297571558,Gerdau Acos Longos Sa,,,https://www2.gerdau.com.br/sites/default/files/downloadable_files/licenca-de-operacao-riograndense.pdf,2020-07-20,5000004542.0,Gerdau SA,,,,,
BRA,BRA0031,Brazil,7.0,,440.0,0.0,GERDAU ACOS ESPECIAIS,"PIRATINI, CHARQUEADAS, RS",Operating,-29.955796999999997,-51.615722,PlantFacts,Exact,4298258054,Gerdau Acos Especiais SA,,,https://www2.gerdau.com.br/blog-acos-especiais,2020-05-22,5000004542.0,Gerdau SA,,,,,
BRA,BRA0032,Brazil,4.0,,800.0,0.0,GERDAU SAO PAULO,"ARACARIGUAMA, SP",Operating,-23.438837,-47.088448,PlantFacts,Exact,4297571558,Gerdau Acos Longos Sa,,,https://www2.gerdau.com.br/sites/default/files/downloadable_files/LO-GSP-310719.pdf,2020-07-20,5000004542.0,Gerdau SA,,,,,
BRA,BRA0033,Brazil,5.0,,1100.0,1.0,ARCELORMITTAL ACOS LONGOS,"PIRACICABA, SP",Operating,-22.697006,-47.657576,PlantFacts,Exact,4297613419,Arcelormittal Acos Longos,,,https://brasil.arcelormittal.com/a-arcelormittal/unidades,2020-07-24,5000030092.0,Arcelormittal SA,,,,,
BRA,BRA0034,Brazil,8.0,2.0,16200.0,1.0,THYSSENKRUPP CSA ,"SANTA CRUZ, RJ",Operating,-22.910398999999998,-43.738842,PlantFacts,Exact,5047640306,Thyssenkrupp Companhia Siderurgica do Atlantico,,,https://www.thyssenkrupp-brazil.com/en/locations/,2020-04-08,4295869754.0,Thyssenkrupp AG,,,,,Sold to Ternium https://www.reuters.com/article/us-csa-m-a-ternium/thyssenkrupp-ends-costly-americas-venture-with-csa-sale-to-ternium-idUSKBN1610Y2
BRA,BRA0035,Brazil,44.0,3.0,17520.0,1.0,CIA.SID. NACIONAL,"VOLTA REDONDA, RJ",Operating,-22.51241,-44.111205,PlantFacts,Exact,,,,,,,,,,,,,
BRA,BRA0036,Brazil,9.0,1.0,4400.0,1.0,ARCELORMITTAL ACOS LONGOS,"MONLEVADE, MG",Operating,-19.832517000000003,-43.1306,PlantFacts,Exact,4297613419,Arcelormittal Acos Longos,,,https://brasil.arcelormittal.com/a-arcelormittal/unidades,2020-07-24,5000030092.0,Arcelormittal SA,,,,,
BRA,BRA0037,Brazil,5.0,2.0,680.0,0.0,GERDAU BARAO DE COCAIS,"BARAO DE COCAIS, MG",Operating,-19.937757,-43.479802,PlantFacts,Exact,4297571558,Gerdau Acos Longos Sa,,,https://www2.gerdau.com.br/sites/default/files/downloadable_files/14001-BCOC-010122.pdf,2020-07-20,5000004542.0,Gerdau SA,,,,,
BRA,BRA0038,Brazil,6.0,2.0,1150.0,1.0,VALLOUREC TUBOS DO BRASIL,"BELO HORIZONTE, MG",Operating,-19.967326,-44.010111,PlantFacts,Exact,5050269481 & 5001083353,Vallourec Soluções Tubulares do Brasil S.A. VSB,,,https://www.vallourec.com/en/brazil/about-us,2020-03-09,4295867374.0,Vallourec SA,,,,,"Website: ""Vallourec Soluções Tubulares do Brasil, established in October 2016, is the result of the merging between Vallourec Tubos do Brasil and Vallourec & Sumitomo Tubos do Brasil. The company has two plants for the production of seamless steel pipes, one in Belo Horizonte (MG) in the district of Barreiro, and the other in Jeceaba (MG)."" PermID from the new company NA. Thus added permIDs from both former companies.  Registration doc 2018 states: ""close the blast furnace and steel mill in Belo Horizonte, which
was launched in 2017 and completed, as planned, in July 2018;"" (p. 56)"
BRA,BRA0039,Brazil,7.0,,700.0,0.0,VOTORANTIM SIDERURGIA,"BARRA MANSA, RJ",Operating,-22.525002,-44.192582,PlantFacts,Exact,4295859712,Arcelormittal Brasil SA,,,https://brasil.arcelormittal.com/a-arcelormittal/unidades,2020-07-27,5000030092.0,ArcelorMittal SA,,,,,Company is now owned by ArcelorMittal Brasil
BRA,BRA0040,Brazil,7.0,3.0,790.0,0.0,GERDAU DIVINOPOLIS,"DIVINOPOLIS, MG",Operating,-20.154319,-44.879284999999996,PlantFacts,Exact,4297571558,Gerdau Acos Longos Sa,,,https://www2.gerdau.com.br/sites/default/files/downloadable_files/14001_Divinopolis_010122.pdf,2020-07-20,5000004542.0,Gerdau SA,,,,,
BRA,BRA0041,Brazil,1.0,,7000.0,1.0,VALE,"VARGEM GRANDE, MG",Operating,-20.177001,-43.877478,PlantFacts,Exact,,,,,,,,,,,,,
BRA,BRA0042,Brazil,14.0,3.0,21390.0,1.0,ARCELORMITTAL TUBARAO,"VITORIA, ES",Operating,-20.252175,-40.235543,PlantFacts,Exact,4295860088,Arcelormittal Tubarao Comercial SA,,,https://brasil.arcelormittal.com/a-arcelormittal/unidades,2020-07-24,5000030092.0,Arcelormittal SA,,,,,
BRA,BRA0043,Brazil,1.0,1.0,75.0,0.0,SIDERSUL,RIBAS DO RIO PARDO,Operating,-20.443545999999998,-53.774032999999996,PlantFacts,Exact,,,,,http://www.vetorial.ind.br/pt/negocios/siderurgia,,,,,,,,Owned by Vetorial 
BRA,BRA0044,Brazil,22.0,2.0,15460.0,1.0,GERDAU ACOMINAS SA,"OURO BRANCO, MG",Operating,-20.545246,-43.751022999999996,PlantFacts,Exact,4296998615,Gerdau Acominas SA,,,https://www2.gerdau.com.br/sites/default/files/downloadable_files/14001-OuroBranco-010122.pdf,2020-07-20,5000004542.0,Gerdau SA,,,,,
BRA,BRA0045,Brazil,6.0,2.0,1650.0,1.0,VALLOUREC & SUMITOMO TUBOS DO BRAZIL,"JECEABA CITY, MG",Operating,-20.584536,-43.962919,PlantFacts,Exact,5050269481 & 5001083353,Vallourec Soluções Tubulares do Brasil S.A. VSB,,,https://www.vallourec.com/en/brazil/about-us,2020-03-09,4295867374.0,Vallourec SA,,,,,"Website: ""Vallourec Soluções Tubulares do Brasil, established in October 2016, is the result of the merging between Vallourec Tubos do Brasil and Vallourec & Sumitomo Tubos do Brasil. The company has two plants for the production of seamless steel pipes, one in Belo Horizonte (MG) in the district of Barreiro, and the other in Jeceaba (MG)."" PermID from the new company NA. Thus added permIDs from both former companies."
BRA,BRA0046,Brazil,4.0,,30500.0,1.0,SAMARCO MINERACAO,"PONTA UBU, ES",Operating,-20.779552,-40.582788,PlantFacts,Exact,,,,,https://www.samarco.com/en?s=ubu,,,,,,,,This is a port; company owned by Vale & BHP (50/50)
BRA,BRA0047,Brazil,6.0,2.0,1110.0,1.0,ARCELORMITTAL ACOS LONGOS,"JUIZ DE FORA, MG",Operating,-21.626262,-43.465857,PlantFacts,Exact,4297613419,Arcelormittal Acos Longos,,,https://brasil.arcelormittal.com/a-arcelormittal/unidades,2020-07-24,5000030092.0,Arcelormittal SA,,,,,
BRA,BRA0048,Brazil,1.0,,,0.0,GALVASUD S.A.,"PORTO REAL, RJ",Operating,-22.432299,-44.346012,PlantFacts,Exact,,,,,,,,,,,,,
BRA,BRA0049,Brazil,5.0,,1000.0,0.0,VOTORANTIM SIDERURGIA,"RESENDE, RJ",Operating,-22.493036,-44.511737,PlantFacts,Exact,4295859712,Arcelormittal Brasil SA,,,https://brasil.arcelormittal.com/a-arcelormittal/unidades,2020-07-27,5000030092.0,ArcelorMittal SA,,,,,Company is now owned by ArcelorMittal Brasil
BRA,BRA0050,Brazil,1.0,,4600.0,1.0,VALE,"FABRICA, MG.",Operating,-20.418922,-43.877319,PlantFacts,Exact,,,,,,,,,,,,,
BRA,BRA0053,Brazil,2.0,,5200.0,1.0,VALE,"TUBARAO, VITORIA, ES",Operating,-20.273529999999997,-40.244719,PlantFacts,Exact,,,,,,,,,,,,,No idea which facility in the area this one refers to
BRA,BRA0059,Brazil,2.0,2.0,230.0,0.0,GERDAU COSIGUA,"CONTAGEM, MG",Operating,-19.961966,-44.024426,PlantFacts,Exact,4297571558,Gerdau Acos Longos Sa,,,https://www2.gerdau.com.br/sites/default/files/downloadable_files/Declaracao_Ambiental_CED_Contagem_jun_2020.pdf,2020-07-20,5000004542.0,Gerdau SA,,,,,No idea which facility in the area this one refers to
BRA,BRA0064,Brazil,,,,0.0,,,Operating,-22.524566,-44.192888,https://brasil.arcelormittal.com/a-arcelormittal/unidades,Exact,4297613419,Arcelormittal Acos Longos,,,https://brasil.arcelormittal.com/a-arcelormittal/unidades,2020-07-24,5000030092.0,Arcelormittal SA,,,,,
BRA,BRA0065,Brazil,,,,0.0,,,Operating,-22.493336,-44.512854,https://brasil.arcelormittal.com/a-arcelormittal/unidades,Exact,4297613419,Arcelormittal Acos Longos,,,https://brasil.arcelormittal.com/a-arcelormittal/unidades,2020-07-24,5000030092.0,Arcelormittal SA,,,,,
BRA,BRA0066,Brazil,,,,0.0,,,Operating,-23.526901000000002,-46.155852,https://www2.gerdau.com.br/sites/default/files/downloadable_files/LO-MOGI-050417.pdf,Exact,4297571558,Gerdau Acos Longos Sa,,,https://www2.gerdau.com.br/sites/default/files/downloadable_files/LO-MOGI-050417.pdf,2020-07-20,5000004542.0,Gerdau SA,,,,,
BRA,BRA0067,Brazil,,,,0.0,,,Operating,-23.257903,-45.920223,https://www2.gerdau.com.br/sites/default/files/downloadable_files/14001-SJC-150922.pdf,Exact,4297571558,Gerdau Acos Longos Sa,,,https://www2.gerdau.com.br/sites/default/files/downloadable_files/14001-SJC-150922.pdf,2020-07-20,5000004542.0,Gerdau SA,,,,,
BRA,BRA0068,Brazil,,,,0.0,,,Operating,-23.598177,-46.882013,https://www2.gerdau.com.br/sites/default/files/downloadable_files/LO-COT-270819.pdf,Exact,4297571558,Gerdau Acos Longos Sa,,,https://www2.gerdau.com.br/sites/default/files/downloadable_files/LO-COT-270819.pdf,2020-07-20,5000004542.0,Gerdau SA,,,,,
BGR,BGR0001,Bulgaria,10.0,,1000.0,0.0,STOMANA INDUSTRY SA,PERNIK,Operating,42.598509,23.099229,PlantFacts,Exact,,Stomana Industry S.A.,,,https://sidenor.gr/en/start/production-facilities/,2020-05-13,5040438569.0,Viohalco SA,,,,,
BGR,BGR0002,Bulgaria,1.0,,,0.0,PROMET STEEL JSC,BOURGAS,Operating,42.381594,27.295882000000002,PlantFacts,Exact,5036178411,Promet Steel JSC,,,https://promet.metinvestholding.com/en/about/structure,2020-05-15,5037839870.0,SCM Holdings Ltd,,,,,
BGR,BGR0003,Bulgaria,6.0,,0.0,0.0,RADOMIR METAL IND. JSC,RADOMIR,Operating,42.522861999999996,22.989212,PlantFacts,Exact,,Radomir Metal Industries Ad,,,http://www.radomir-metal-industries.com/en/index.php,2020-05-15,,Radomir Metal Industries Ad,,,,,
CAN,CAN0001,Canada,4.0,,330.0,0.0,GERDAU,"SELKIRK, MANITOBA",Operating,50.129954,-96.899991,PlantFacts,Exact,5035931883,Gerdau Steel North America Inc,,,https://www2.gerdau.com/gerdau-locations,2020-04-08,5000004542.0,Gerdau SA,,,,,
CAN,CAN0002,Canada,1.0,,5700.0,1.0,WABUSH MINES,"POINTE NOIRE-Septlies, QC",Operating,50.159447,-66.491004,PlantFacts,Exact,,,,,,,,,,,,,
CAN,CAN0003,Canada,1.0,,6000.0,1.0,IRON ORE CO OF CANADA,"SEPT-IIES, QC",Operating,50.194727,-66.357231,PlantFacts,Exact,4296654348,Iron Ore Company of Canada,,,http://www.ironore.ca/en/what-we-do/our-operations,2020-05-22,4295894786.0,Rio Tinto PLC,,,,,
CAN,CAN0004,Canada,6.0,,950.0,0.0,EVRAZ REGINA STEEL,"REGINA, SK",Operating,50.516767,-104.630721,PlantFacts,Exact,5044009886,Evraz North America PLC,,,https://www.evraz.com/en/company/assets/evraz-regina/,2020-04-08,5036227579.0,EVRAZ plc,,,,,
CAN,CAN0005,Canada,3.0,,290.0,0.0,ALBERTA STEEL (SCAW METALS GROUP),"EDMONTON, ALBERTA",Operating,53.530393999999994,-113.38673100000001,PlantFacts,Exact,5073667894,AltaSteel Inc,,,https://www.altasteel.com/contact,2020-08-04,4295875990.0,Kyoei Steel Ltd,,,,,
CAN,CAN0006,Canada,14.0,2.0,6060.0,1.0,ESSAR STEEL ALGOMA INC,"SAULT-STE.MARIE, ONT",Operating,46.522246,-84.368822,PlantFacts,Exact,4295860713,Algoma Steel Inc,2.8,,https://www.algoma.com/about-algoma/visitor-information/,2020-08-04,4295860713.0,Algoma Steel Inc,,,,,
CAN,CAN0007,Canada,2.0,,10000.0,1.0,IRON ORE CO OF CANADA,"LABRADOR-CITY, NL",Operating,52.958006999999995,-66.891681,PlantFacts,Exact,4296654348,Iron Ore Company of Canada,,,http://www.ironore.ca/en/what-we-do/our-operations,2020-05-22,4295894786.0,Rio Tinto PLC,,,,,
CAN,CAN0008,Canada,3.0,,72.0,0.0,FINKL STEEL,"SOREL, QC",Operating,46.045904,-73.123999,PlantFacts,Exact,4297029961,Sorel Forge Inc,,,http://www.sorelforge.com/en/contact-us.aspx,2020-08-05,4295890566.0,Schmolz+Bickenbach AG,,,,,
CAN,CAN0009,Canada,2.0,,140.0,0.0,QUEBEC METAL POWDERS,"SOREL-TRACY, QC",Operating,46.040936,-73.14579300000001,PlantFacts,Exact,,,,,,,,,,,,,
CAN,CAN0010,Canada,3.0,,400.0,0.0,"RIO TINTO, FER ET TITANE","SOREL-TRACY, QC",Operating,46.044984,-73.138363,PlantFacts,Exact,,,,,,,,,,,,,
CAN,CAN0011,Canada,1.0,,,0.0,ARCELORMITTAL DOFASCO WINDSOR,"WINDSOR, ONT",Operating,42.261466,-83.095251,PlantFacts,Exact,,,,,,,,,,,,,
CAN,CAN0012,Canada,6.0,1.0,4390.0,1.0,U.S. STEEL CANDA INC,"NANTICOKE, ONT",Operating,42.810542,-80.096124,PlantFacts,Exact,4295861119,Stelco Inc,,,https://www.stelco.com/about/contact-us,2020-04-30,4295903049.0,United States Steel Corp,,,,,
CAN,CAN0013,Canada,6.0,,330.0,0.0,ASW STEEL INC.,"WELLAND, ONT",Operating,42.999368,-79.23555400000001,PlantFacts,Exact,,Valbruna ASW Inc,,,https://www.asw-steel.com/about-us/,2020-08-04,4298375291.0,Acciaierie Valbruna SpA,,,,,
CAN,CAN0014,Canada,3.0,,,0.0,NELSON STEEL,"STONEY-CREEK, ONT",Operating,43.223098,-79.675475,PlantFacts,Exact,,,,,,,,,,,,,
CAN,CAN0015,Canada,3.0,,,0.0,BAYCOAT,"HAMILTON, ONT",Operating,43.241624,-79.749057,PlantFacts,Exact,4297637377,Baycoat Ltd,0.2,,http://www.baycoat.com/about.html,2020-08-04,4295861119.0,Stelco Inc,,,,,
CAN,CAN0016,Canada,,,,0.0,,,Operating,43.25631,-79.89665600000001,https://www.gsimec.com.mx/locations.php,Exact,4298219370,Republic Steel,,,https://www.gsimec.com.mx/locations.php,2020-04-30,4295884304.0,Grupo Simec SAB de CV,,,,,
CAN,CAN0017,Canada,31.0,3.0,7208.0,1.0,ARCELORMITTAL DOFASCO,"HAMILTON, ONT",Operating,43.270861,-79.80421700000001,PlantFacts,Exact,5044365193,ArcelorMittal Dofasco Inc,,,https://dofasco.arcelormittal.com/who-we-are/at-a-glance/about-dofasco.aspx,2020-04-08,5000030092.0,Arcelormittal SA,,,,,
CAN,CAN0019,Canada,15.0,,3050.0,1.0,ARCELORMITTAL MONTREAL,"CONTRECOEUR-EAST, QC",Operating,45.834665,-73.252253,PlantFacts,Exact,5000047717,ArcelorMittal Montreal Inc,,,https://long-canada.arcelormittal.com/en/our-locations/,2020-04-08,5000030092.0,Arcelormittal SA,,,,,
CAN,CAN0020,Canada,4.0,,500.0,0.0,IVACO ROLLING MILLS LTD,"L'ORIGNAL, ONT",Operating,45.613941,-74.704608,PlantFacts,Exact,,,,,,,,,,,,,
CAN,CAN0021,Canada,1.0,,,0.0,ARCELORMITTAL MONTREAL,"LONGUEUIL, QC",Operating,45.567953,-73.456647,PlantFacts,Exact,5000047717,ArcelorMittal Montreal Inc,,,https://long-canada.arcelormittal.com/en/our-locations/,2020-04-08,5000030092.0,Arcelormittal SA,,,,,
CAN,CAN0022,Canada,1.0,,,0.0,ARCELORMITTAL COTEAU-DU-LAC INC,"COTEAU-DU-LAC, QC",Operating,45.300868,-74.202862,PlantFacts,Exact,5057800518,ArcelorMittal Coteau-du-Lac LP,,,https://dofasco.arcelormittal.com/~/media/Files/A/Arcelormittal-Canada/documents/corporate-publications/solution-in-steel-141015.pdf,2020-04-08,5000030092.0,Arcelormittal SA,,,,,
CAN,CAN0023,Canada,3.0,,,0.0,MAX AICHER NORTH AMERICA,"HAMILTON, ONT",Operating,43.266553,-79.823015,PlantFacts,Exact,,,,,,,,,,,,,
CAN,CAN0024,Canada,1.0,,,0.0,GERDAU,"CAMBRIDGE, ONT",Operating,43.371349,-80.27930400000001,PlantFacts,Exact,5035931883,Gerdau Steel North America Inc,,,https://www2.gerdau.com/gerdau-locations,2020-04-08,5000004542.0,Gerdau SA,,,,,
CAN,CAN0025,Canada,4.0,,910.0,0.0,GERDAU,"WHITBY, ONT",Operating,43.859169,-78.910219,PlantFacts,Exact,5035931883,Gerdau Steel North America Inc,,,https://www2.gerdau.com/gerdau-locations,2020-04-08,5000004542.0,Gerdau SA,,,,,
CAN,CAN0026,Canada,5.0,,,0.0,U.S. STEEL CANDA INC,"HAMILTON, ONT",Operating,43.269220000000004,-79.824398,PlantFacts,Exact,4295861119,Stelco Inc,,,https://www.stelco.com/about/contact-us,2020-04-30,4295903049.0,United States Steel Corp,,,,,
CAN,CAN0029,Canada,4.0,,600.0,0.0,ARCELORMITTAL MONTREAL,"CONTRECOEUR-WEST, QC",Operating,45.820803000000005,-73.26465,PlantFacts,Exact,5000047717,ArcelorMittal Montreal Inc,,,https://long-canada.arcelormittal.com/en/our-locations/,2020-04-08,5000030092.0,Arcelormittal SA,,,,,
CAN,CAN0031,Canada,2.0,,6000.0,1.0,ARCELORMITTAL MINES CANADA,"PORT CARTIER, QC",Operating,50.032736,-66.795524,PlantFacts,Exact,5056442020,ArcelorMittal Mining Canada GP,,,https://www.transformerlavenir.com/en/facilities/,2020-04-08,5000030092.0,Arcelormittal SA,,,,,
CAN,CAN0032,Canada,,,,0.0,,,Operating,45.458752000000004,-73.60628100000001,https://long-canada.arcelormittal.com/en/our-locations/,Exact,5000047717,ArcelorMittal Montreal Inc,,,https://long-canada.arcelormittal.com/en/our-locations/,2020-04-08,5000030092.0,Arcelormittal SA,,,,,
CAN,CAN0033,Canada,,,,0.0,,,Operating,43.2625,-79.78609,https://long-canada.arcelormittal.com/en/our-locations/,Exact,5000047717,ArcelorMittal Montreal Inc,,,https://long-canada.arcelormittal.com/en/our-locations/,2020-04-08,5000030092.0,Arcelormittal SA,,,,,
CHL,CHL0001,Chile,19.0,2.0,2600.0,1.0,CIA. SID.HUACHIPATO SA,TALCAHUANO,Operating,-36.750028,-73.129171,PlantFacts,Exact,,,,,,,,,,,,,
CHL,CHL0002,Chile,1.0,,3800.0,1.0,CIA MINERA DEL PACIFICO SA,HUASCO,Operating,-28.481533000000002,-71.247411,PlantFacts,Exact,,,,,,,,,,,,,
COL,COL0001a,Colombia,,,,0.0,,,Operating,10.838475,-74.76085,https://www.ternium.com/en/contact-us#our-offices,Exact,5000267997,Ternium Internacional De Colombia SA,,,https://www.ternium.com/en/contact-us#our-offices,2020-04-30,4295856130.0,Ternium SA,,,,,
COL,COL0001b,Colombia,,,,0.0,,,Operating,3.209787,-76.419882,https://www.ternium.com/en/contact-us#our-offices,Exact,5000267997,Ternium Internacional De Colombia SA,,,https://www.ternium.com/en/contact-us#our-offices,2020-04-30,4295856130.0,Ternium SA,,,,,
COL,COL0002,Colombia,5.0,,150.0,0.0,GERDAU DIACO,MEDELLIN,Operating,6.150601,-75.628639,PlantFacts,Exact,,Gerdau Diaco,,,https://www.gerdau.com.co/SOBREGERDAU/UnidadesenColombia.aspx,2020-05-22,5000004542.0,Gerdau SA,,,,,
COL,COL0003,Colombia,10.0,1.0,1090.0,1.0,ACERIAS PAZ DEL RIO SA,"BELENCITO, BOYACA",Operating,5.773999,-72.88247,PlantFacts,Exact,4295865680,Acerias Paz del Rio SA,,,http://www.pazdelrio.com.co/es-es/Institucional/Paginas/donde-estamos.aspx,2020-07-20,5000075361.0,Votorantim SA,,,,,
COL,COL0004,Colombia,5.0,,180.0,0.0,GERDAU DIACO,MUNA-SIBATE,Operating,4.537073,-74.250344,PlantFacts,Exact,,Gerdau Diaco,,,https://www.gerdau.com.co/SOBREGERDAU/UnidadesenColombia.aspx,2020-05-22,5000004542.0,Gerdau SA,,,,,
COL,COL0005,Colombia,3.0,,200.0,0.0,TERNIUM ACASA - AC. DE CALDAS,"MANIZALES, CALDAS",Operating,5.0272885,-75.44795859999999,PlantFacts,Exact,5000267997,Ternium Internacional De Colombia SA,,,https://www.ternium.com/en/contact-us#our-offices,2020-04-30,4295856130.0,Ternium SA,,,,,
COL,COL0006,Colombia,5.0,,,0.0,ACESCO - AC. DE COLOMBIA,"BARRANQUILLA, BOGOTA",Operating,10.835236,-74.769184,PlantFacts,Exact,5057475108,Acerias de Colombia Acesco SAS,,,https://www.acesco.com.co/contacto/,2020-07-20,5057475108.0,Acerias de Colombia Acesco SAS,,,,,
COL,COL0007,Colombia,1.0,,,0.0,HOYALATA Y LAMINADOS SA,MEDELLIN,Operating,6.220484,-75.572777,PlantFacts,Exact,5035500205,Hoyalata y Laminados SA,,,https://holasa.com.co/sitio/,2020-07-20,5035500205.0,Hoyalata y Laminados SA,,,,,
COL,COL0009,Colombia,4.0,,250.0,0.0,GERDAU DIACO,"BOYACA, BOGOTA",Operating,5.723429,-73.222665,PlantFacts,Exact,,Gerdau Diaco,,,https://www.gerdau.com.co/SOBREGERDAU/UnidadesenColombia.aspx,2020-05-22,5000004542.0,Gerdau SA,,,,,
COL,COL0011,Colombia,,,,0.0,,,Operating,3.496354,-76.51453599999999,https://www.gerdau.com.co/SOBREGERDAU/UnidadesenColombia.aspx,Exact,,Gerdau Diaco,,,https://www.gerdau.com.co/SOBREGERDAU/UnidadesenColombia.aspx,2020-05-22,5000004542.0,Gerdau SA,,,,,
HRV,HRV0002,Croatia,4.0,,350.0,0.0,DANIELI - ABS SISAK,SISAK,Operating,45.445978000000004,16.391655,PlantFacts,Exact,5000241208,ABS Sisak doo,,1954.0,http://www.absacciai.it/sisak/#/nav/Sito_Sisak_Page_85,2020-05-14,4295875649.0,Danieli & C Officine Meccaniche SpA,,,,,
CUB,CUB0001,Cuba,4.0,,500.0,0.0,ANTILLANA  DE ACERO (ACINOX),"COTORRO, HAVANA",Operating,23.041092000000003,-82.279955,PlantFacts,Exact,,,,,,,,,,,,,
CUB,CUB0002,Cuba,5.0,,170.0,0.0,ACINOX TUNAS,LAS TUNAS,Operating,20.977555,-76.96675,PlantFacts,Exact,,,,,,,,,,,,,
CZE,CZE0001,Czech Republic,18.0,4.0,10870.0,1.0,ARCELORMITTAL OSTRAVA,OSTRAVA,Operating,49.792789,18.322798000000002,PlantFacts,Exact,4297550930,Liberty Ostrava as,,,http://www.libertyhousegroup.com/our-businesses/liberty-steel/liberty-ostrava/,2020-05-15,5057811578.0,Gfg Alliance Ltd,,,,,
CZE,CZE0002,Czech Republic,1.0,,,0.0,TRINECKE ZELEZARNY,BOHUMIN,Operating,49.894616,18.355851,PlantFacts,Exact,4295865795,Trinecké Zelezárny A.S.,,,https://www.trz.cz/articles/88/dok142/view-the-locations-of-tz-plants-on-map,2020-05-13,4296105198.0,Moravia Steel A.S.,,,,,
CZE,CZE0003,Czech Republic,4.0,,150.0,0.0,ZELEZARNY HRADEK A.S.,HRADEK,Operating,49.718385999999995,13.646606,PlantFacts,Exact,,,,,,,,,,,,,
CZE,CZE0004,Czech Republic,1.0,,,0.0,ARCELORMITTAL OSTRAVA,FRYDEK-MISTEK,Operating,49.696651,18.331635000000002,PlantFacts,Exact,5056434755,GO Steel Frydek Mistek as,,,https://www.gosteel.cz/en/kontakty/,2020-05-15,4295886511.0,Stalprodukt SA,,,,,
CZE,CZE0005,Czech Republic,6.0,,40.0,0.0,ZDB GROUP  A.S.,BOHUMIN,Operating,49.894928,18.355573,PlantFacts,Exact,,,,,,,,,,,,,
CZE,CZE0006,Czech Republic,3.0,,150.0,0.0,PILSEN STEEL,PLZEN,Operating,49.744015999999995,13.357935999999999,PlantFacts,Exact,4296694429,Pilsen Steel sro,,,http://www.pilsensteel.cz/en/find_us/,2020-05-15,4296694429.0,Pilsen Steel sro,,,,,
CZE,CZE0007,Czech Republic,2.0,,,0.0,VITKOVICE STEEL,OSTRAVA,Operating,49.819813,18.251584,PlantFacts,Exact,4295865824,Vitkovice as,,,http://www.vitkovicesteel.com/en/forms/contact,2020-05-15,5043396907.0,KKCG SE,,,,,
CZE,CZE0008,Czech Republic,1.0,,,0.0,OKD OKK ,"SVERMA, OSTRAVA",Operating,49.860039,18.277060000000002,PlantFacts,Exact,5000697654,OKK Koksovny as,,,http://www.koksovny.cz/en/contact-us,2020-05-13,4298436875.0,MTX Group as,,,,,
CZE,CZE0009,Czech Republic,21.0,2.0,7246.0,1.0,TRINECKE ZELEZARNY,TRINEC,Operating,49.689538,18.652057,PlantFacts,Exact,4295865795,Trinecké Zelezárny A.S.,,,https://www.trz.cz/articles/88/dok142/view-the-locations-of-tz-plants-on-map,2020-05-13,4296105198.0,Moravia Steel A.S.,,,,,
CZE,CZE0010,Czech Republic,5.0,,200.0,0.0,VITKOVICE HEAVY MACHINERY A.S.,OSTRAVA,Operating,49.808766999999996,18.256807000000002,PlantFacts,Exact,5073136638,VItkovice Heavy Machinery A S,,,https://vhm.company/companys-profile-and-history,2020-05-15,5043396907.0,KKCG SE,,,,,
CZE,CZE0011,Czech Republic,3.0,,,0.0,KRALODVORSKE ZELEZ,KRALUV DVUR,Operating,49.941524,14.039655999999999,PlantFacts,Exact,,,,,,,,,,,,,
CZE,CZE0012,Czech Republic,1.0,,,0.0,TRINECKE ZELEZARNY,KLADNO,Operating,50.151990999999995,14.160298000000001,PlantFacts,Exact,4295865795,Trinecké Zelezárny A.S.,,,https://www.trz.cz/articles/88/dok142/view-the-locations-of-tz-plants-on-map,2020-05-13,4296105198.0,Moravia Steel A.S.,,,,,
CZE,CZE0013,Czech Republic,1.0,,,0.0,COMAX SPOL S.R.O.,VELVARY,Operating,50.282694,14.246910999999999,PlantFacts,Exact,,,,,,,,,,,,,
CZE,CZE0016,Czech Republic,3.0,,40.0,0.0,POLDI HÌÏTTE S.R.O.,KLADNO,Operating,50.152992,14.119960999999998,PlantFacts,Exact,,,,,,,,,,,,,
CZE,CZE0017,Czech Republic,,,,0.0,,,Operating,49.818993,18.273235999999997,https://www.trz.cz/articles/88/dok142/view-the-locations-of-tz-plants-on-map,Exact,4295865795,Trinecké Zelezárny A.S.,,,https://www.trz.cz/articles/88/dok142/view-the-locations-of-tz-plants-on-map,2020-05-13,4296105198.0,Moravia Steel A.S.,,,,,
CZE,CZE0018,Czech Republic,,,,0.0,,,Operating,49.08234,17.431134,https://www.trz.cz/articles/88/dok142/view-the-locations-of-tz-plants-on-map,Exact,4295865795,Trinecké Zelezárny A.S.,,,https://www.trz.cz/articles/88/dok142/view-the-locations-of-tz-plants-on-map,2020-05-13,4296105198.0,Moravia Steel A.S.,,,,,
DNK,DNK0001,Denmark,1.0,,,0.0,METALCOLOUR,NYKOBING FALSTER,Operating,54.758832,11.826348,PlantFacts,Exact,4298371452,Metalcolour A/S,,,https://www.metalcolour.com/contact-us/,2020-05-13,4298371452.0,Metalcolour A/S,,,,,
DNK,DNK0002,Denmark,1.0,,,0.0,NLMK DANSTEEL A/S,FREDERIKSVAERK,Operating,55.962153,12.009066,PlantFacts,Exact,4297210169,NLMK Dansteel A/S,,,https://eu.nlmk.com/en/plate/dansteel/,2020-04-08,4295887048.0,Novolipetsk Steel PAO,,,,,
DNK,DNK0003,Denmark,1.0,,,0.0,DUFERCO DANISH STEEL A/S,FREDERIKSVAERK,Operating,55.959404000000006,12.014319,PlantFacts,Exact,4298263671,Duferco Danish Steel A/S,,,https://www.dufercodanishsteel.dk/history-and-location/,2020-05-13,4298263671.0,Duferco Danish Steel A/S,,,,,
DOM,DOM0001,Dominican Republic,3.0,,,0.0,GERDAU METALDOM,SANTO DOMINGO,Operating,18.437103,-69.945926,PlantFacts,Exact,,,,,,,,,,,,,
ECU,ECU0002,Ecuador,5.0,,220.0,0.0,ANDEC,GUAYAQUIL,Operating,-2.26024,-79.869022,PlantFacts,Exact,,,,,,,,,,,,,
EGY,EGY0001,Egypt,4.0,,2850.0,1.0,AL EZZ STEEL REBARS,"SOKHNA, SUEZ",Operating,29.688676,32.327448,PlantFacts,Exact,4295866291,Ezz Steel Co SAE,1.3,2002.0,http://www.ezzsteel.com/main.asp?pageID=3,2020-07-30,4295866291.0,Ezz Steel Co SAE,,,,,
EGY,EGY0004,Egypt,24.0,4.0,6620.0,1.0,EGYPTIAN IRON & STEEL,HELWAN,Operating,29.7705196,31.307134299999998,PlantFacts,Exact,,,,,,,,,,,,,
EGY,EGY0005,Egypt,4.0,,350.0,0.0,EL MARAKBY STEEL,GIZEH,Operating,29.905173100000003,30.882544899999996,PlantFacts,Exact,,,,,,,,,,,,,
EGY,EGY0006,Egypt,11.0,,3830.0,1.0,SUEZ STEEL CO,"Attaqa Ind. Zone, Suez-City",Operating,29.923196,32.466045,PlantFacts,Exact,,,,,,,,,,,,,
EGY,EGY0007,Egypt,7.0,,200.0,0.0,DELTA STEEL MILL CO,MOSTOROD,Operating,30.118429499999998,31.2812635,PlantFacts,Exact,,,,,,,,,,,,,
EGY,EGY0008,Egypt,7.0,,,0.0,KANDIL STEEL,RAMADAN CITY,Operating,30.187145,31.452111,PlantFacts,Exact,,,,,,,,,,,,,
EGY,EGY0009,Egypt,5.0,,800.0,0.0,AL EZZ STEEL REBARS,SADAT,Operating,30.381627,30.563931,PlantFacts,Exact,4295866291,Ezz Steel Co SAE,1.0,1996.0,http://www.ezzsteel.com/main.asp?pageID=3,2020-07-30,4295866291.0,Ezz Steel Co SAE,,,,,
EGY,EGY0010,Egypt,6.0,,1250.0,1.0,E.A.S.R.CO (BESHAY STEEL),SADAT CITY,Operating,30.391202000000003,30.574572999999997,PlantFacts,Exact,5074202081,Egyptian American Steel Rolling Co,1.2,1998.0,https://www.beshaysteel.com/subsidiaries-and-capacities/,2020-08-04,5040954607.0,Beshay Steel,,,,,
EGY,EGY0011,Egypt,6.0,,140.0,0.0,ARCOSTEEL,SADAT CITY,Operating,30.386260999999998,30.568788,PlantFacts,Exact,,,,,,,,,,,,,
EGY,EGY0012,Egypt,5.0,,3060.0,1.0,E.S.I.S.CO (BESHAY STEEL),SADAT CITY,Operating,30.39371,30.588284,PlantFacts,Exact,5040955029,Egyptian Sponge Iron & Steel Co,2.0,,https://www.beshaysteel.com/subsidiaries-and-capacities/,2020-08-04,5040954607.0,Beshay Steel,,,,,
EGY,EGY0013,Egypt,1.0,,,0.0,INTERN. ST. ROLLING M. (BESHAY STEEL),SADAT CITY,Operating,30.369871999999997,30.550269,PlantFacts,Exact,5074205355,International Steel Rolling Mills Co,0.7,1989.0,https://www.beshaysteel.com/subsidiaries-and-capacities/,2020-08-04,5040954607.0,Beshay Steel,,,,,
EGY,EGY0014,Egypt,21.0,,5320.0,1.0,AL EZZ DIKHEILA,"EL-DIKHEILA, ALEXANDRIA",Operating,31.119601,29.806663,PlantFacts,Exact,4295866291,Ezz Steel Co SAE,3.0,1986.0,http://www.ezzsteel.com/main.asp?pageID=3,2020-07-30,4295866291.0,Ezz Steel Co SAE,,,,,
EGY,EGY0016,Egypt,4.0,,,0.0,GALVA METAL,OBOUR CITY,Operating,30.187463,31.451105,PlantFacts,Exact,,,,,,,,,,,,,
EGY,EGY0022,Egypt,,,,0.0,,,Operating,30.247939000000002,31.740240999999997,http://www.ezzsteel.com/main.asp?pageID=3,Exact,4295866291,Ezz Steel Co SAE,0.5,1993.0,http://www.ezzsteel.com/main.asp?pageID=3,2020-07-30,4295866291.0,Ezz Steel Co SAE,,,,,
SLV,SLV0001,El Salvador,3.0,,140.0,0.0,CORINCA SA de CV,SAN SALVADOR,Operating,13.825315,-89.265449,PlantFacts,Exact,,,,,,,,,,,,,
FIN,FIN0002,Finland,7.0,,,0.0,SSAB EUROPE,HAEMEENLINNA,Operating,60.9713389,24.5332355,PlantFacts,Exact,5038079296,SSAB Europe Oy,,1972.0,https://www.ssab.com/company/about-ssab/our-business/sites-all-over-the-world,2020-03-04,4295889873.0,SSAB AB,,,,,
FIN,FIN0003,Finland,6.0,,360.0,0.0,OY OVAKO AB,IMATRA,Operating,61.149466000000004,28.798773999999998,PlantFacts,Exact,5039192473,Ovako Group AB,,,https://www.ovako.com/en/contact/,2020-04-08,4295877313.0,Nippon Steel Corp,,,,,
FIN,FIN0004,Finland,13.0,2.0,5000.0,1.0,SSAB EUROPE ,RAAHE,Operating,64.652975,24.434086999999998,PlantFacts,Exact,5038079296,SSAB Europe Oy,,1960.0,https://www.ssab.com/company/about-ssab/our-business/sites-all-over-the-world,2020-03-04,4295889873.0,SSAB AB,,,,,
FIN,FIN0005,Finland,22.0,,1570.0,1.0,OUTOKUMPU OY,TORNIO,Operating,65.768904,24.182166,PlantFacts,Exact,5037032874,Outokumpu Stainless Oy,,,https://www.outokumpu.com/locations/torniostainless-steel,2020-03-04,4295866315.0,Outokumpu Oyj,,,,,
FIN,FIN0006,Finland,1.0,,,0.0,SSAB EUROPE,KANKAANPÌãÌã,Operating,61.816538,22.387871,PlantFacts,Exact,5038079296,SSAB Europe Oy,,,https://ssabwebsitecdn.azureedge.net/-/media/files/company/investors/annual-reports/2018/ssab_annual_report_2018_en.pdf?m=20190318091218,2020-03-04,4295889873.0,SSAB AB,,,,,
FRA,FRA0001,France,5.0,,25.0,0.0,AUBERT & DUVAL TECPHY,FIRMINY,Operating,45.393547,4.282999,PlantFacts,Exact,4297369942,Aubert & Duval Fortech,,,https://www.aubertduval.com/our-locations/,2020-05-13,4295867525.0,Eramet SA,,,,,
FRA,FRA0002,France,4.0,,720.0,0.0,S A M (RIVA),MONTEREAU,Operating,48.387211,2.981091,PlantFacts,Exact,4297213583,Sam Montereau SAS,,1975.0,https://www.rivagroup.com/en/production_sites/sam_montereau,2020-05-13,5039934846.0,Riva Forni Elettrici SpA,,,,,
FRA,FRA0004,France,3.0,3.0,1110.0,1.0,SAINT-GOBAIN PAM,PONT-A-MOUSSON,Operating,48.892609,6.054115,PlantFacts,Exact,,,,,,,,,,,,,
FRA,FRA0005,France,3.0,,,0.0,TATA STEEL MAUBEUGE SAS,LOUVROIL,Operating,50.268383,3.958079,PlantFacts,Exact,4296745717,Tata Steel Maubeuge SAS,,,https://www.tatasteeleurope.com/en/about%E2%80%93us/operations,2020-04-08,4295872420.0,Tata Steel Ltd,,,,,
FRA,FRA0006,France,8.0,,,0.0,THYSSENKRUPP ELECTRICAL STEEL UGO,ISBERGUES,Operating,50.624067,2.46952,PlantFacts,Exact,4297471292,Thyssenkrupp Electrical Steel Ugo SAS,,,https://www.thyssenkrupp-steel.com/en/company/locations/thyssenkrupp-electrical-steel-gmbh/,2020-04-08,4295869754.0,Thyssenkrupp AG,,,,,
FRA,FRA0007,France,4.0,,730.0,0.0,VALLOUREC,ST.SAULVE,Operating,50.398171000000005,3.5617120000000004,PlantFacts,Exact,5052540433,British Steel Ltd,,,https://www.ascoval.fr/know-us/ ; https://uk.reuters.com/article/uk-france-ascoval/british-steel-seals-deal-to-buy-ascoval-plant-in-france-idUKKCN1S814V ; https://britishsteel.co.uk/news/jingye-completes-acquisition-of-british-steel/,2020-03-09,5071576433.0,Jingye Group Co Ltd,,,,,Former Vallourec asset sold to British Steel in May 2019. Jingye Group bought British Steel in Mar 2020.
FRA,FRA0008,France,6.0,,,0.0,APERAM STAINLESS EUROPE,ISBERGUES,Operating,50.620868,2.4770937,PlantFacts,Exact,5000020152,Aperam Stainless France SA,,,https://www.aperam.com/france,2020-05-13,5001428593.0,Aperam SA,,,,,
FRA,FRA0009,France,2.0,,,0.0,NLMK COATING SA,SORRAL,Operating,48.58102,7.796473,PlantFacts,Exact,4298162207,NLMK Coating SA,0.52,,https://eu.nlmk.com/en/strip/strasbourg/,2020-04-08,4295887048.0,Novolipetsk Steel PAO,,,,,
FRA,FRA0010,France,1.0,,,0.0,ARCELORMITTAL ATLANTIQUE ,DESVRES,Operating,50.66105,1.840007,PlantFacts,Exact,4298163524,Arcelormittal Atlantique et Lorraine SASU,,,https://flateurope.arcelormittal.com/ourmills/704/desvres,2020-04-08,5000030092.0,Arcelormittal SA,,,,,
FRA,FRA0011,France,5.0,,800.0,0.0,LAMINES MARCHANDS EUROPEENS,TRITH ST LEGER,Operating,50.3292,3.490913,PlantFacts,Exact,4297020249,Lamines Marchands Europeens SA,,,https://siprostahl.ch/en/steel-producers-afv-beltrame-group/,2020-05-14,5055422112.0,AFV Accaierie Beltrame SpA,,,,,
FRA,FRA0012,France,4.0,,800.0,0.0,S A M (RIVA),NEUVES MAISONS,Operating,48.611482,6.111864,PlantFacts,Exact,,Sam Nueves-Maisons,,1872.0,https://www.rivagroup.com/en/production_sites/sam_neuves_maisons,2020-05-13,5039934846.0,Riva Forni Elettrici SpA,,,,,
FRA,FRA0013,France,3.0,,550.0,0.0,ITON-SEINE SA (RIVA),BONNIERES-SUR-SEINE,Operating,49.033678,1.561022,PlantFacts,Exact,4298163471,Iton Seine SAS,,1916.0,https://www.rivagroup.com/en/production_sites/iton_seine_bonnieres_sur_seine,2020-05-13,5039934846.0,Riva Forni Elettrici SpA,,,,,
FRA,FRA0014,France,4.0,,700.0,0.0,ALPA (RIVA),GARGENVILLE,Operating,48.983515000000004,1.76245,PlantFacts,Exact,4297626020,Alpa SAS,,,https://www.rivagroup.com/en/production_sites/alpa_gargenville,2020-05-13,5039934846.0,Riva Forni Elettrici SpA,,,,,
FRA,FRA0016,France,1.0,,1500.0,1.0,SAINT-GOBAIN PAM,DIEULOUARD,Operating,48.828373,6.077375,PlantFacts,Exact,,,,,,,,,,,,,
FRA,FRA0017,France,5.0,,460.0,0.0,ASCOMETAL,HAGONDANGE,Operating,49.240941,6.153573000000001,PlantFacts,Exact,4297202912,Ascometal SAS,,,https://www.ascometal.com/en/ascometal-au-service-de-vos-performances/outil-industriel/hagondange/,2020-05-13,4297202912.0,Ascometal SAS,,,,,
FRA,FRA0018,France,4.0,,,0.0,ARCELORMITTAL ATLANTIQUE ,MONTATAIRE,Operating,49.249365000000004,2.4472650000000002,PlantFacts,Exact,4298163524,Arcelormittal Atlantique et Lorraine SASU,,,https://flateurope.arcelormittal.com/ourmills/704/montataire,2020-04-08,5000030092.0,Arcelormittal SA,,,,,
FRA,FRA0019,France,2.0,,,0.0,ARCELORMITTAL GANDRANGE,GANDRANGE,Operating,49.264868,6.126414,PlantFacts,Exact,5057813708,ArcelorMittal Gandrange SA,,,https://barsandrods.arcelormittal.com/mills/gandrange,2020-04-08,5000030092.0,Arcelormittal SA,,,,,
FRA,FRA0020,France,2.0,,,0.0,ARCELORMITTAL LORRAINE,MOUZON,Operating,49.608383,5.071475,PlantFacts,Exact,4298163524,Arcelormittal Atlantique et Lorraine SASU,,,https://flateurope.arcelormittal.com/ourmills/704/mouzon,2020-04-08,5000030092.0,Arcelormittal SA,,,,,
FRA,FRA0021,France,1.0,,,0.0,HAYANGE RAIL MILL,HAYANGE,Operating,49.336388,6.050612999999999,PlantFacts,Exact,5000830754,British Steel France Rail SAS,0.36,,https://france-rail-industry.business.site/,2020-05-16,5071576433.0,Jingye Group Co Ltd,,,,,rail
FRA,FRA0023,France,9.0,,,0.0,ARCELORMITTAL PACKAGING,FLORANGE,Operating,49.325295000000004,6.085273,PlantFacts,Exact,4298163524,Arcelormittal Atlantique et Lorraine SASU,,,https://flateurope.arcelormittal.com/ourmills/704/176,2020-04-08,5000030092.0,Arcelormittal SA,,,,,PACKAGING
FRA,FRA0025,France,6.0,,,0.0,ARCELORMITTAL ATLANTIQUE ,MARDYCK,Operating,50.989406,2.286849,PlantFacts,Exact,4298163524,Arcelormittal Atlantique et Lorraine SASU,,,https://flateurope.arcelormittal.com/ourmills/704/mardyck,2020-04-08,5000030092.0,Arcelormittal SA,,,,,
FRA,FRA0026,France,5.0,,440.0,0.0,ASCOMETAL,DUNKERQUE,Operating,51.054575,2.466351,PlantFacts,Exact,4297202912,Ascometal SAS,,,https://www.ascometal.com/en/ascometal-au-service-de-vos-performances/outil-industriel/les-dunes/,2020-05-13,4297202912.0,Ascometal SAS,,,,,
FRA,FRA0027,France,4.0,,30.0,0.0,AUBERT & DUVAL FORTECH,PAMIERS,Operating,43.116724,1.60467,PlantFacts,Exact,4297369942,Aubert & Duval Fortech,,,https://www.aubertduval.com/our-locations/,2020-05-13,4295867525.0,Eramet SA,,,,,
FRA,FRA0028,France,11.0,2.0,16800.0,1.0,ARCELORMITTAL FOS-SUR-MER,FOS-SUR-MER,Operating,43.434652500000006,4.8845711,PlantFacts,Exact,,ArcelorMittal Fos-sur-Mer,,,https://flateurope.arcelormittal.com/ourmills/704/fos,2020-04-08,5000030092.0,Arcelormittal SA,,,,,
FRA,FRA0029,France,6.0,,480.0,0.0,ASCOMETAL,FOS-SUR-MER,Operating,43.445263,4.845525,PlantFacts,Exact,4297202912,Ascometal SAS,,,https://www.ascometal.com/en/ascometal-au-service-de-vos-performances/outil-industriel/fos-sur-mer/,2020-05-13,4297202912.0,Ascometal SAS,,,,,
FRA,FRA0030,France,3.0,,1100.0,1.0,CELSA FRANCE,BAYONNE,Operating,43.529548,-1.500397,PlantFacts,Exact,4296807624,Celsa France Sas,,,http://www.celsafrance.com/Contacto.mvc/DondeEstamos,2020-05-13,4298432596.0,Barna Steel SA,,,,,
FRA,FRA0031,France,1.0,,,0.0,ACIERS  DU TARN ,ST.JUERY,Operating,43.952438,2.215672,PlantFacts,Exact,,VOL-Stahl France SAS,,,https://vol-stahl.com/en/ueber-uns.html,2020-05-16,,VOL-Stahl GmbH,,,,,
FRA,FRA0032,France,6.0,,,0.0,ARCELORMITTAL ST. CHELY D' APCHER,SAINT CHELY D' APCHER,Operating,44.795238,3.274179,PlantFacts,Exact,,ArcelorMittal St. Chély d'Apcher,,,https://flateurope.arcelormittal.com/ourmills/704/stchely,2020-04-08,5000030092.0,Arcelormittal SA,,,,,
FRA,FRA0033,France,3.0,,,0.0,AC.+LAM. DE RIVES,RIVES SUR FURE,Operating,45.360574,5.490697,PlantFacts,Exact,4296246440,Aciéries et Laminoirs de Rives,0.05,,https://www.alr.fr/en/content/contact-us,2020-05-16,4296246440.0,Aciéries et Laminoirs de Rives,,,,,
FRA,FRA0035,France,1.0,,,0.0,PATURLE  ACIERS SA (THEIS),SAINT LAURENT DU PONT,Operating,45.395307,5.7368483,PlantFacts,Exact,4296764622,Paturle Aciers SA,,,http://www.paturle-aciers.fr/,2020-05-16,5046391709.0,Mendritzki Holding GmbH & Co KG,,,,,
FRA,FRA0036,France,3.0,,,0.0,AC. DE BONPERTUIS,BONPERTUIS,Operating,45.39674,5.529043,PlantFacts,Exact,5000969961,Acieries De Bonpertuis,,,https://www.bonpertuis-steel.com/en/node/76,2020-05-16,5000969961.0,Acieries De Bonpertuis,,,,,
FRA,FRA0038,France,4.0,,100.0,0.0,ARCELORMITTAL INDUSTEEL FRANCE,"CHATEAUNEUF,R. DE GIERS",Operating,45.535425,4.636961,PlantFacts,Exact,4298448934,Industeel France SA,,,https://industeel.arcelormittal.com/industeel/where-we-are/,2020-04-08,5000030092.0,Arcelormittal SA,,,,,
FRA,FRA0039,France,8.0,,250.0,0.0,UGITECH,UGINE,Operating,45.744715,6.427143,PlantFacts,Exact,4296708074,Ugitech SA,,,http://ugitech.fr/,2020-05-15,4295890566.0,Schmolz+Bickenbach AG,,,,,
FRA,FRA0040,France,15.0,,100.0,0.0,AUBERT & DUVAL ALLIAGES,LES ANCIZES,Operating,45.926105,2.842048,PlantFacts,Exact,4297369942,Aubert & Duval Fortech,,,https://www.aubertduval.com/our-locations/,2020-05-13,4295867525.0,Eramet SA,,,,,
FRA,FRA0041,France,7.0,,32.0,0.0,ERASTEEL ,COMMENTRY,Operating,46.287734,2.747261,PlantFacts,Exact,4296824548,Erasteel Commentry Sas,,,https://www.erasteel.com/our-location/,2020-05-13,4296173214.0,Erasteel SAS,,,,,
FRA,FRA0042,France,14.0,,,0.0,APERAM STAINLESS EUROPE,GUEUGNON,Operating,46.6036385,4.064207700000001,PlantFacts,Exact,5000020152,Aperam Stainless France SA,,,https://www.aperam.com/france,2020-05-13,5001428593.0,Aperam SA,,,,,
FRA,FRA0043,France,7.0,,150.0,0.0,ARCELORMITTAL INDUSTEEL FRANCE,LE CREUSOT,Operating,46.80291,4.43255,PlantFacts,Exact,4298448934,Industeel France SA,,,https://industeel.arcelormittal.com/industeel/where-we-are/,2020-04-08,5000030092.0,Arcelormittal SA,,,,,
FRA,FRA0044,France,13.0,,90.0,0.0,APERAM ALLOYS,IMPHY,Operating,46.9320816,3.2556092999999997,PlantFacts,Exact,5000020152,Aperam Stainless France SA,,,https://www.aperam.com/france,2020-05-13,5001428593.0,Aperam SA,,,,,
FRA,FRA0045,France,5.0,,,0.0,AUBERT & DUVAL TECPHY,IMPHY,Operating,46.933587,3.2576959999999997,PlantFacts,Exact,4297369942,Aubert & Duval Fortech,,,https://www.aubertduval.com/our-locations/,2020-05-13,4295867525.0,Eramet SA,,,,,
FRA,FRA0046,France,7.0,,,0.0,ARCELORMITTAL PACKAGING,BASSE-INDRE,Operating,47.203904,-1.679987,PlantFacts,Exact,5000307145,Arcelormittal France SA,,,https://flateurope.arcelormittal.com/ourmills/704/199,2020-04-08,5000030092.0,Arcelormittal SA,,,,,PACKAGING
FRA,FRA0047,France,5.0,,,0.0,APERAM ALLOYS,PONT DE ROIDE,Operating,47.3794756,6.767912400000001,PlantFacts,Exact,5000020152,Aperam Stainless France SA,,,https://www.aperam.com/france,2020-05-13,5001428593.0,Aperam SA,,,,,
FRA,FRA0049,France,16.0,3.0,23150.0,1.0,ARCELORMITTAL ATLANTIQUE ,DUNKERQUE,Operating,51.041738,2.2965430000000002,PlantFacts,Exact,4298163524,Arcelormittal Atlantique et Lorraine SASU,,,https://flateurope.arcelormittal.com/ourmills/704/dunkerque,2020-04-08,5000030092.0,Arcelormittal SA,,,,,
FRA,FRA0052,France,1.0,,,0.0,ERASTEEL ,CHAMPAGNOLE,Operating,46.744921000000005,5.914719,PlantFacts,Exact,5001285810,Erasteel Champagnole,,,https://www.erasteel.com/our-location/,2020-05-13,4296173214.0,Erasteel SAS,,,,,
FRA,FRA0053,France,,,,0.0,,,Operating,49.263372,2.4649520000000003,https://www.rivagroup.com/en/production_sites/acor_creil,Exact,,Acor,,,https://www.rivagroup.com/en/production_sites/acor_creil,2020-05-13,5039934846.0,Riva Forni Elettrici SpA,,,,,
FRA,FRA0054,France,,,,0.0,,,Operating,43.705725,4.281274,https://www.rivagroup.com/en/production_sites/acor_vauvert,Exact,,Acor,,,https://www.rivagroup.com/en/production_sites/acor_vauvert,2020-05-13,5039934846.0,Riva Forni Elettrici SpA,,,,,
FRA,FRA0055,France,,,,0.0,,,Operating,45.511561,4.265466,https://www.rivagroup.com/en/production_sites/acor_st_just_st_rambert,Exact,,Acor,,,https://www.rivagroup.com/en/production_sites/acor_st_just_st_rambert,2020-05-13,5039934846.0,Riva Forni Elettrici SpA,,,,,
FRA,FRA0056,France,,,,0.0,,,Operating,48.786544,6.132465,https://www.ascometal.com/en/ascometal-au-service-de-vos-performances/outil-industriel/custines/,Exact,4297202912,Ascometal SAS,,,https://www.ascometal.com/en/ascometal-au-service-de-vos-performances/outil-industriel/custines/,2020-05-13,4297202912.0,Ascometal SAS,,,,,
FRA,FRA0057,France,,,,0.0,,,Operating,48.959727,1.8242779999999998,https://www.aperam.com/france,Exact,5000020152,Aperam Stainless France SA,,,https://www.aperam.com/france,2020-05-13,5001428593.0,Aperam SA,,,,,
FRA,FRA0058,France,,,,0.0,,,Operating,47.974038,2.778396,https://www.aperam.com/france,Exact,5000020152,Aperam Stainless France SA,,,https://www.aperam.com/france,2020-05-13,5001428593.0,Aperam SA,,,,,
DEU,DEU0002,Germany,1.0,,,0.0,DEUTSCHE EDELSTAHLW. GMBH,HAGEN-WEHRINGHAUSEN,Operating,51.359728999999994,7.4574679999999995,PlantFacts,Exact,4296112461,Deutsche Edelstahlwerke GmbH,,,https://www.dew-stahl.com/en/contact-location/how-to-find-us/?companyuid=690&cHash=af42139e6b09f01c9f7d130fce0f4058,2020-05-13,4295890566.0,Schmolz+Bickenbach AG,,,,,
DEU,DEU0003,Germany,2.0,,,0.0,GIEBEL KALTWALWERK GMBH,ISERLOHN,Operating,51.365116,7.5903220000000005,PlantFacts,Exact,,Giebel Kaltwalzwerk GmbH,,,https://www.knauf-interfer.de/standorte/,2020-05-16,5000715682.0,Knauf Interfer Se,,,,,
DEU,DEU0004,Germany,13.0,2.0,16800.0,1.0,HW. KRUPP MANNESMANN,DUISBURG-HUCKINGEN,Operating,51.369878,6.7166369999999995,PlantFacts,Exact,4296098874,Huettenwerke Krupp Mannesmann GmbH,,,https://www.hkm.de/unternehmen/ueber-uns/,2020-02-19,4295869754.0,Thyssenkrupp AG,,,,,permID of Thyssenkrupp AG 
DEU,DEU0006,Germany,3.0,,,0.0,"HUGO VOGELSANG GMBH & CO, KG",HAGEN,Operating,51.367546000000004,7.552846000000001,PlantFacts,Exact,4298523156,HUGO VOGELSANG GmbH & Co. KG,,,https://www.bilstein-gruppe.de/en/hugo_vogelsang_seite/,2020-05-16,4298468861.0,BILSTEIN GmbH & Co. KG,,,,,
DEU,DEU0007,Germany,4.0,,,0.0,ZAPP PRECISION METALS GMBH,SCHWERTE,Operating,51.425959000000006,7.576828,PlantFacts,Exact,5000459735,Zapp Precision Metals GmbH,,,https://www.zapp.com/us/how-to-get-there/schwerte-ger.html,2020-05-15,4297278062.0,Zapp AG,,,,,
DEU,DEU0008,Germany,3.0,2.0,1030.0,1.0,DK RECYCL.+ ROHEISEN,DUISBURG,Operating,51.424335,6.739744,PlantFacts,Exact,4296646253,Dk Recycling Und Roheisen GmbH,,,https://www.dk-duisburg.de//en/kontakt/kontakt.html,2020-05-15,4295899123.0,Hargreaves Services PLC,,,,,
DEU,DEU0009,Germany,4.0,,100.0,0.0,ELEKTROSTAHLWERK  GRÌÐDITZ GMBH,GRÌÐDITZ,Operating,51.407427,13.44316,PlantFacts,Exact,5056433409,Schmiedewerke Groditz GmbH,,,https://www.gmh-gruppe.de/de-en/gmh-gruppe/units/schmiedewerke-groeditz-gmbh.html,2020-05-13,4296801706.0,Georgsmarienhuette Holding GmbH,,,,,
DEU,DEU0010,Germany,2.0,,,0.0,VULKAN INOX GMBH,HATTINGEN,Operating,51.399471999999996,7.168685000000001,PlantFacts,Exact,,,,,,,,,,,,,
DEU,DEU0011,Germany,3.0,,,0.0,RISSE + WILKE KALTBAND,ISERLOHN-LETMATHE,Operating,51.357585,7.637405,PlantFacts,Exact,4298172447,Risse + Wilke Kaltband GmbH & Co KG,,,https://www.risse-wilke.de/index.php/en,2020-05-14,4298172447.0,Risse + Wilke Kaltband GmbH & Co KG,,,,,
DEU,DEU0012,Germany,6.0,,,0.0,C.D. WÌãLZHOLZ GMBH,HAGEN,Operating,51.392388000000004,7.500756,PlantFacts,Exact,4298168184,CD Waelzholz GmbH,,,https://www.waelzholz.com/en/company/international/germany/hagen.html,2020-05-14,4298168184.0,CD Waelzholz GmbH,,,,,
DEU,DEU0013,Germany,6.0,,,0.0,GUSTAV THEIS KALTWALZWERKE GMBH,HAGEN,Operating,51.38563,7.509172,PlantFacts,Exact,,,,,,,,,,,,,
DEU,DEU0015,Germany,8.0,,,0.0,VACUUMSCHMELZE GMBH,HANAU,Operating,50.130571,8.929149,PlantFacts,Exact,5000683403,Vacuumschmelze GmbH & Co KG,,,https://vacuumschmelze.com/en/contact,2020-05-16,5000683403.0,Vacuumschmelze GmbH & Co KG,,,,,
DEU,DEU0016,Germany,4.0,,,0.0,THYSSENKRUPP HOHENLIMBURG,HAGEN,Operating,51.345,7.591919,PlantFacts,Exact,,Thyssenkrupp Hohenlimburg GmbH,,,https://www.thyssenkrupp-steel.com/en/company/locations/location-overview.html,2020-04-08,4295869754.0,Thyssenkrupp AG,,,,,
DEU,DEU0017,Germany,2.0,,,0.0,WALZWERKE EINSAL,ALTENA,Operating,51.32315,7.645134,PlantFacts,Exact,4296822013,Walzwerke Einsal GmbH,,,https://einsal.com/en/about-us/our-business#-,2020-05-16,4296822013.0,Walzwerke Einsal GmbH,,,,,
DEU,DEU0018,Germany,5.0,,900.0,0.0,ELBE STW FERALPI GMBH,RIESA,Operating,51.3128,13.280385999999998,PlantFacts,Exact,4298429125,ESF Elbe Stahlwerke Feralpi GmbH,,,https://www.feralpi.de/en/contact.html,2020-05-15,4298452820.0,Feralpi Holding SpA,,,,,example
DEU,DEU0019,Germany,2.0,,,0.0,VDM METALS GMBH,ALTENA,Operating,51.308137,7.665967,PlantFacts,Exact,4297363487,VDM Metals GmbH,,,https://www.vdm-metals.com/en/company/about-vdm-metals/locations/,2020-05-13,4297363487.0,VDM Metals GmbH,,,,,
DEU,DEU0020,Germany,14.0,,,0.0,OUTOKUMPU NIROSTA GMBH,KREFELD,Operating,51.301513,6.547949,PlantFacts,Exact,4298173501,Outokumpu Nirosta GmbH,,,https://www.outokumpu.com/locations/krefeld,2020-03-04,4295866315.0,Outokumpu Oyj,,,,,
DEU,DEU0021,Germany,2.0,,,0.0,HUEHOCO,WUPPERTAL,Operating,51.294422999999995,7.253539999999999,PlantFacts,Exact,,Huehoco GmbH,,,https://www.huehoco.com/en/company/huehoco-germany,2020-05-16,5055942173.0,Huehoco Group Holding & GmbH Co KG,,,,,
DEU,DEU0022,Germany,4.0,,,0.0,OUTOKUMPU NIROSTA GMBH,DAHLERBRÌÏCK,Operating,51.261314,7.517507000000001,PlantFacts,Exact,4298173501,Outokumpu Nirosta GmbH,,,https://www.outokumpu.com/locations/dahlerbruck,2020-03-04,4295866315.0,Outokumpu Oyj,,,,,
DEU,DEU0023,Germany,10.0,,,0.0,VDM METALS GMBH,WERDOHL,Operating,51.254638,7.769417,PlantFacts,Exact,4297363487,VDM Metals GmbH,,,https://www.vdm-metals.com/en/company/about-vdm-metals/locations/,2020-05-13,4297363487.0,VDM Metals GmbH,,,,,
DEU,DEU0024,Germany,2.0,,6.0,0.0,FRIEDR. WILHELMS-HUETTE,MUELHEIM/RUHR,Operating,51.433648,6.87511,PlantFacts,Exact,4297033989,Friedrich Wilhelms Huette GmbH,,,https://www.fwh-eisenguss.de/en/contact/how-to-find-us/,2020-05-13,4296801706.0,Georgsmarienhuette Holding GmbH,,,,,
DEU,DEU0025,Germany,5.0,,,0.0,C.D. WÌãLZHOLZ GMBH,PLETTENBERG,Operating,51.231909,7.863574000000001,PlantFacts,Exact,4298168184,CD Waelzholz GmbH,,,https://www.waelzholz.com/en/company/international/germany/plettenberg.html,2020-05-14,4298168184.0,CD Waelzholz GmbH,,,,,
DEU,DEU0026,Germany,4.0,,,0.0,BGH EDELST. LIPPENDORF,LIPPENDORF,Operating,51.17221,12.378116,PlantFacts,Exact,4298167854,BGH Edelstahl Lippendorf GmbH,,,https://www.bgh.de/en/standort-lippendorf.html,2020-05-15,4298167855.0,BGH Edelstahlwerke GmbH,,,,,
DEU,DEU0027,Germany,3.0,,,0.0,THYSSENKRUPP STEEL EUROPE AG,KREUZTAL-FERNDORF,Operating,50.957217,8.019377,PlantFacts,Exact,4297366394,Thyssenkrupp Steel Europe AG,,,https://www.thyssenkrupp-steel.com/en/company/locations/location-overview.html,2020-04-08,4295869754.0,Thyssenkrupp AG,,,,,
DEU,DEU0028,Germany,4.0,,,0.0,HILLE & MÌÏLLER,DÌÏSSELDORF,Operating,51.166915,6.842961999999999,PlantFacts,Exact,5057512576,Hille & Muller GmbH,,1905.0,https://www.tatasteeleurope.com/en/about-us/operations/plating/production-sites/hille-und-mueller,2020-05-16,4295872420.0,Tata Steel Ltd,,,,,
DEU,DEU0029,Germany,6.0,,,0.0,BILSTEIN GMBH & CO KG,HAGEN,Operating,51.35432,7.560716,PlantFacts,Exact,4298468861,BILSTEIN GmbH & Co. KG,,,https://www.bilstein-gruppe.de/en/bilstein-2/,2020-05-16,4298468861.0,BILSTEIN GmbH & Co. KG,,,,,
DEU,DEU0030,Germany,7.0,,600.0,0.0,DEUTSCHE EDELSTAHLW. GMBH,WITTEN ,Operating,51.434095,7.325057000000001,PlantFacts,Exact,4296112461,Deutsche Edelstahlwerke GmbH,,,https://www.dew-stahl.com/en/contact-location/how-to-find-us/?companyuid=688&cHash=360e557e708ada952bfda65c0243cf35,2020-05-13,4295890566.0,Schmolz+Bickenbach AG,,,,,
DEU,DEU0031,Germany,2.0,,0.0,0.0,PLEISSNER GUSS GMBH,HERZBERG AM HARZ,Operating,51.641062,10.334003,PlantFacts,Exact,,,,,,,,,,,,,
DEU,DEU0032,Germany,1.0,,,0.0,SALZGITTER MANNESMANN GROBBLECH,MÌÏLHEIM/RUHR,Operating,51.443573,6.875271000000001,PlantFacts,Exact,5035546375,Salzgitter Mannesmann Grobblech GmbH,,,https://www.salzgitter-ag.com/en/company/business-units/platesection-steel.html,2020-02-19,4295869182.0,Salzgitter AG,,,,,
DEU,DEU0033,Germany,2.0,,0.0,0.0,SANDE STAHLGUSS,SANDE (OLDENBURG),Operating,53.496384,8.038164,PlantFacts,Exact,,Sande Stahlguss GmbH,,,http://www.sande-stahlguss.de/en/contact/location_map/index.html,2020-05-16,,Sande Stahlguss GmbH,,,,,
DEU,DEU0034,Germany,14.0,2.0,10460.0,1.0,ARCELORMITTAL BREMEN GMBH,BREMEN,Operating,53.135904000000004,8.68769,PlantFacts,Exact,5000040557,ArcelorMittal Bremen GmbH,,,https://germany.arcelormittal.com/Our-sites/ArcelorMittal-Europe-Flat-Products/Bremen/,2020-04-08,5000030092.0,Arcelormittal SA,,,,,
DEU,DEU0035,Germany,8.0,,1000.0,0.0,H.E.S GMBH (RIVA),HENNIGSDORF,Operating,52.65554399999999,13.214004999999998,PlantFacts,Exact,,Hennigsdorfer Elektrostahlwerke GmbH,,1917.0,https://www.rivagroup.com/en/production_sites/hes_hennigsdorf,2020-05-13,5039934846.0,Riva Forni Elettrici SpA,,,,,
DEU,DEU0036,Germany,3.0,,620.0,0.0,BENTELER STAHL/ROHR GMBH,LINGEN,Operating,52.467622,7.317169,PlantFacts,Exact,5039602393,Benteler Steel/Tube GmbH,,,https://www.benteler-steeltube.com/en/locations/,2020-05-15,5034847060.0,Benteler International AG,,,,,
DEU,DEU0037,Germany,6.0,,1600.0,1.0,B.E.S GMBH (RIVA),BRANDENBURG,Operating,52.402708000000004,12.501078999999999,PlantFacts,Exact,4296949224,Bes Brandenburger Elektrostahlwerke GmbH,,,https://www.rivagroup.com/en/production_sites/bes_brandenburg,2020-05-13,5039934846.0,Riva Forni Elettrici SpA,,,,,
DEU,DEU0038,Germany,12.0,,1900.0,1.0,PEINER TRÌãGER GMBH,PEINE,Operating,52.316666,10.244138000000001,PlantFacts,Exact,4298172015,Peiner Träger GmbH,,,https://www.peiner-traeger.de/en/index.html,2020-05-15,4295869182.0,Salzgitter AG,,,,,
DEU,DEU0039,Germany,6.0,,1000.0,0.0,GEORGSMARIENH. GMBH,GEORGSMARIENHÌÏTTE,Operating,52.208677,8.050165,PlantFacts,Exact,5000471039,Georgsmarienhuette GmbH,,,https://www.gmh-gruppe.de/de-en/gmh-gruppe/units/georgsmarienhuette-gmbh.html,2020-05-13,4296801706.0,Georgsmarienhuette Holding GmbH,,,,,
DEU,DEU0040,Germany,18.0,2.0,7380.0,1.0,ARCELORMITTAL EISENHÌÏTTENSTADT GMBH,EISENHÌÏTTENSTADT,Operating,52.166664000000004,14.616156,PlantFacts,Exact,4298356410,ArcelorMittal Eisenhuettenstadt GmbH,,,https://germany.arcelormittal.com/Our-sites/ArcelorMittal-Europe-Flat-Products/Eisenhuettenstadt/,2020-04-08,5000030092.0,Arcelormittal SA,,,,,
DEU,DEU0041,Germany,28.0,3.0,12500.0,1.0,SALZGITTER FLACHSTAHL GMBH,SALZGITTER,Operating,52.157553,10.405855,PlantFacts,Exact,4298547550,Salzgitter Flachstahl GmbH,,,https://www.salzgitter-flachstahl.de/en/about-us.html,2020-02-19,4295869182.0,Salzgitter AG,,,,,
DEU,DEU0042,Germany,1.0,,,0.0,R.TWEER GMBH,BIELEFELD,Operating,51.942966,8.558564,PlantFacts,Exact,4298172362,Reinhard Tweer GmbH,,,https://www.tweer.de/defaulteng.php?action=startseiteeng&nav2=startseite2eng,2020-05-16,4298172362.0,Reinhard Tweer GmbH,,,,,
DEU,DEU0043,Germany,1.0,,,0.0,ILSENBURGER GROBBLECH,ILSENBURG,Operating,51.873111,10.696349,PlantFacts,Exact,4298170309,Ilsenburger Grobblech GmbH,,,https://www.ilsenburger-grobblech.de/en/index.html,2020-02-19,4295869182.0,Salzgitter AG,,,,,
DEU,DEU0044,Germany,1.0,,,0.0,BENTELER STAHL/ROHR GMBH,PADERBORN,Operating,51.744388,8.717124,PlantFacts,Exact,5039602393,Benteler Steel/Tube GmbH,,,https://www.benteler-steeltube.com/en/locations/,2020-05-15,5034847060.0,Benteler International AG,,,,,
DEU,DEU0046,Germany,12.0,,50.0,0.0,VDM METALS GMBH,UNNA,Operating,51.564025,7.6966529999999995,PlantFacts,Exact,4297363487,VDM Metals GmbH,,,https://www.vdm-metals.com/en/company/about-vdm-metals/locations/,2020-05-13,4297363487.0,VDM Metals GmbH,,,,,
DEU,DEU0047,Germany,1.0,,,0.0,ZAPP PRECISION METALS GMBH,UNNA,Operating,51.540406,7.669391,PlantFacts,Exact,5000459735,Zapp Precision Metals GmbH,,,https://www.zapp.com/us/how-to-get-there/unna-ger.html,2020-05-15,4297278062.0,Zapp AG,,,,,
DEU,DEU0048,Germany,8.0,,,0.0,THYSSENKRUPP STEEL EUROPE AG,DORTMUND,Operating,51.538199,7.501302000000001,PlantFacts,Exact,4297366394,Thyssenkrupp Steel Europe AG,,,https://www.thyssenkrupp-steel.com/en/company/locations/location-overview.html,2020-04-08,4295869754.0,Thyssenkrupp AG,,,,,
DEU,DEU0049,Germany,3.0,,,0.0,THYSSENKRUPP ELECTRICAL STEEL,GELSENKIRCHEN,Operating,51.524198,7.0849210000000005,PlantFacts,Exact,4297363318,Thyssenkrupp Electrical Steel GmbH,,,https://www.thyssenkrupp-steel.com/en/company/locations/thyssenkrupp-electrical-steel-gmbh/,2020-04-08,4295869754.0,Thyssenkrupp AG,,,,,
DEU,DEU0050,Germany,1.0,,,0.0,ARCELORMITTAL BREMEN GMBH,BOTTROP,Operating,51.519988,6.9718990000000005,PlantFacts,Exact,5042253661,Arcelormittal Bottrop GmbH,,,http://server.arcelor-bremen.de/699.html?&L=1,2020-04-08,5000030092.0,Arcelormittal SA,,,,,
DEU,DEU0051,Germany,6.0,2.0,20175.0,1.0,THYSSENKRUPP STEEL EUROPE AG,DUISBURG-SCHWELGERN,Operating,51.492177000000005,6.726978999999999,PlantFacts,Exact,4297366394,Thyssenkrupp Steel Europe AG,,,https://www.thyssenkrupp-steel.com/en/company/locations/location-overview.html,2020-04-08,4295869754.0,Thyssenkrupp AG,,,,,example
DEU,DEU0053,Germany,4.0,,,0.0,WICKEDER WESTFALENSTAHL,WICKEDE,Operating,51.492427,7.871432,PlantFacts,Exact,4298129077,Wickeder Westfalenstahl GmbH,,,https://www.wickeder-group.de/en/wickeder-group/wickeder-westfalenstahl.html,2020-05-16,4298129077.0,Wickeder Westfalenstahl GmbH,,,,,
DEU,DEU0054,Germany,10.0,,,0.0,THYSSENKRUPP STEEL EUROPE AG,"ELEKTROBAND, BOCHUM ",Operating,51.489378,7.249117999999999,PlantFacts,Exact,4297366394,Thyssenkrupp Steel Europe AG,,,https://www.thyssenkrupp-steel.com/en/company/locations/location-overview.html,2020-04-08,4295869754.0,Thyssenkrupp AG,,,,,
DEU,DEU0057,Germany,8.0,,,0.0,THYSSENKRUPP STEEL EUROPE AG,BOCHUM,Operating,51.476422,7.168042999999999,PlantFacts,Exact,4297366394,Thyssenkrupp Steel Europe AG,,,https://www.thyssenkrupp-steel.com/en/company/locations/location-overview.html,2020-04-08,4295869754.0,Thyssenkrupp AG,,,,,
DEU,DEU0058,Germany,8.0,,2300.0,1.0,ARCELORMITTAL RUHRORT GMBH,DUISBURG,Operating,51.462865,6.74378,PlantFacts,Exact,5040949378,Arcelormittal Duisburg GmbH,,,https://germany.arcelormittal.com/Our-sites/ArcelorMittal-Europe-Long-Products/Duisburg/,2020-04-08,5000030092.0,Arcelormittal SA,,,,,
DEU,DEU0059,Germany,2.0,,,0.0,ENERGIETECHNIK ESSEN GMBH,ESSEN,Operating,51.45661,6.991986,PlantFacts,Exact,4298168924,Energietechnik Essen GmbH,,,https://www.gmh-gruppe.de/de-en/gmh-gruppe/units/energietechnik-essen-gmbh.html,2020-05-13,4296801706.0,Georgsmarienhuette Holding GmbH,,,,,
DEU,DEU0060,Germany,1.0,,,0.0,HOESCH SCHWERTER PROFILE GMBH,SCHWERTE,Operating,51.437869,7.558155,PlantFacts,Exact,4296289525,Hoesch Schwerter Profile GmbH,,,https://www.hoesch-profile.de/en/,2020-05-16,5060592767.0,Calvi Holding SpA,,,,,
DEU,DEU0062,Germany,11.0,,90.0,0.0,BGH EDELST. FREITAL,FREITAL,Operating,50.995915000000004,13.640463,PlantFacts,Exact,4296830010,BGH Edelstahl Freital GmbH,,,https://www.bgh.de/en/standort-freital.html,2020-05-15,4298167855.0,BGH Edelstahlwerke GmbH,,,,,
DEU,DEU0063,Germany,2.0,,12.0,0.0,DUERRENBERG EDELSTAHL,ROENDEROTH,Operating,50.998059999999995,7.471082000000001,PlantFacts,Exact,4296681507,Dörrenberg Edelstahl GmbH,,,https://www.doerrenberg.de/en/about-us/,2020-05-15,4295869462.0,Gesco AG,,,,,
DEU,DEU0064,Germany,1.0,,,0.0,STAHLWERK ANNAHÌÏTTE,HAMMERAU,Operating,47.794182,12.951630999999999,PlantFacts,Exact,4298428165,Stahlwerk Annahuette Max Aicher GmbH & Co KG,,,https://www.annahuette.com/en/home/contact,2020-05-16,4296647109.0,Max Aicher GmbH & Co KG,,,,,
DEU,DEU0065,Germany,9.0,,1100.0,1.0,LECH-STAHLWERKE GMBH,HERBERTSHOFEN,Operating,48.512051,10.855292,PlantFacts,Exact,4296657183,Lech Stahlwerke GmbH,,,https://www.lech-stahlwerke.de/en/company/lech-stahlwerke.html,2020-05-15,4296647109.0,Max Aicher GmbH & Co KG,,,,,
DEU,DEU0066,Germany,8.0,,2300.0,1.0,BADISCHE STAHLWERKE GMBH,KEHL,Operating,48.597640999999996,7.822093,PlantFacts,Exact,4296443547,Badische Stahlwerke GmbH,,,https://www.bsw-kehl.de/kontakt/,2020-05-15,4296443547.0,Badische Stahlwerke GmbH,,,,,
DEU,DEU0067,Germany,1.0,,,0.0,SAARSTAHL AG,BURBACH,Operating,49.237026,6.952299000000001,PlantFacts,Exact,4296258509,Saarstahl AG,,1856.0,https://www.saarstahl.com/sag/en/group/sag/history/index.shtml,2020-05-13,5039602334.0,Montan Stiftung Saar,,,,,
DEU,DEU0068,Germany,11.0,,300.0,0.0,SAARSCHMIEDE GMBH,VÌÐLKLINGEN,Operating,49.253257,6.846589,PlantFacts,Exact,4298172602,Saarschmiede Freiformschmiede GmbH,,,https://www.saarschmiede.com/ssf/en/contacts/general-contact/index.shtml,2020-05-16,5039602334.0,Montan Stiftung Saar,,,,,
DEU,DEU0069,Germany,9.0,,3240.0,1.0,SAARSTAHL AG,VÌÐLKLINGEN,Operating,49.253759,6.846152,PlantFacts,Exact,4296258509,Saarstahl AG,,1873.0,https://www.saarstahl.com/sag/en/group/sag/history/index.shtml,2020-05-13,5039602334.0,Montan Stiftung Saar,,,,,
DEU,DEU0070,Germany,4.0,,350.0,0.0,STAHLWERK BOUS GMBH,BOUS/SAAR,Operating,49.276824,6.786291,PlantFacts,Exact,4298173194,Stahlwerk Bous GmbH,,,https://www.gmh-gruppe.de/de-en/gmh-gruppe/units/stahlwerk-bous-gmbh.html,2020-05-13,4296801706.0,Georgsmarienhuette Holding GmbH,,,,,
DEU,DEU0073,Germany,5.0,3.0,10350.0,1.0,ROGESA ROHEISENGES. SAAR,DILLINGEN,Operating,49.352634,6.745642,PlantFacts,Exact,5000074757,Aktien-Gesellschaft der Dillinger Hüttenwerke,,,https://www.dillinger.de/d/en/corporate/dillinger/production/index.shtml,2020-05-15,5000017865.0,DHS Dillinger Huette Saarstahl AG,,,,,
DEU,DEU0074,Germany,3.0,,,0.0,SAARSTAHL AG,NEUNKIRCHEN,Operating,49.358864000000004,7.172019000000001,PlantFacts,Exact,4296258509,Saarstahl AG,,,https://www.saarstahl.com/sag/en/group/sag/history/index.shtml,2020-05-13,5039602334.0,Montan Stiftung Saar,,,,,
DEU,DEU0075,Germany,1.0,,,0.0,MSW MOSELSTAHLWERK GMBH,TRIER,Operating,49.791529,6.692310000000001,PlantFacts,Exact,,,,,,,,,,,,,
DEU,DEU0076,Germany,6.0,,1600.0,1.0,ARCELORMITTAL HAMBURG GMBH,HAMBURG,Operating,53.523602000000004,9.898978,PlantFacts,Exact,5000072758,ArcelorMittal Hamburg GmbH,,,https://germany.arcelormittal.com/Our-sites/ArcelorMittal-Europe-Long-Products/Hamburg/,2020-04-08,5000030092.0,Arcelormittal SA,,,,,
DEU,DEU0078,Germany,17.0,,,0.0,THYSSENKRUPP RASSELSTEIN GMBH,ANDERNACH,Operating,50.436236,7.429371000000001,PlantFacts,Exact,4298123360,Thyssenkrupp Rasselstein GmbH,,,https://www.thyssenkrupp-steel.com/en/company/locations/location-overview.html,2020-04-08,4295869754.0,Thyssenkrupp AG,,,,,
DEU,DEU0079,Germany,1.0,,,0.0,AGOZAL GMBH,NEUWIED,Operating,50.432266999999996,7.475391,PlantFacts,Exact,,,,,,,,,,,,,This is owned by AGO Stahlbau Neuwied GmbH
DEU,DEU0080,Germany,5.0,,,0.0,"KIND & CO, EDELSTAHLW.",WIEHL,Operating,50.964975,7.494152000000001,PlantFacts,Exact,5001323992,Kind & Edelstahlwerk & Co GmbH KG,,,https://www.kind-co.de/en/contact/headquarter.html,2020-05-16,5001323992.0,Kind & Edelstahlwerk & Co GmbH KG,,,,,
DEU,DEU0081,Germany,2.0,,,0.0,VDM METALS GMBH,SIEGEN,Operating,50.918192,8.01631,PlantFacts,Exact,4297363487,VDM Metals GmbH,,,https://www.vdm-metals.com/en/company/about-vdm-metals/locations/,2020-05-13,4297363487.0,VDM Metals GmbH,,,,,
DEU,DEU0082,Germany,12.0,,600.0,0.0,DEUTSCHE EDELSTAHLW. GMBH,SIEGEN,Operating,50.915619,8.016511999999999,PlantFacts,Exact,4296112461,Deutsche Edelstahlwerke GmbH,,,https://www.dew-stahl.com/en/contact-location/how-to-find-us/?companyuid=691&cHash=b05af4d3bca9efc95cf1ad171dce9758,2020-05-13,4295890566.0,Schmolz+Bickenbach AG,,,,,
DEU,DEU0083,Germany,4.0,,0.0,0.0,GONTERMANN PEIPERS,SIEGEN,Operating,50.872857,8.050359,PlantFacts,Exact,4296158808,Gontermann Peipers GmbH,,,https://www.gontermann-peipers.de/en/company/plants/,2020-05-16,4296158808.0,Gontermann Peipers GmbH,,,,,
DEU,DEU0084,Germany,4.0,,150.0,0.0,BGH EDELST. SIEGEN,SIEGEN ,Operating,50.864979,8.008638000000001,PlantFacts,Exact,5000974526,BGH Edelstahl Siegen GmbH,,,https://www.bgh.de/en/location-siegen.html,2020-05-15,4298167855.0,BGH Edelstahlwerke GmbH,,,,,
DEU,DEU0085,Germany,2.0,,,0.0,THYSSENKRUPP STEEL EUROPE AG,KREUZTAL-EICHEN,Operating,50.970285,7.978086,PlantFacts,Exact,4297366394,Thyssenkrupp Steel Europe AG,,,https://www.thyssenkrupp-steel.com/en/company/locations/location-overview.html,2020-04-08,4295869754.0,Thyssenkrupp AG,,,,,
DEU,DEU0086,Germany,2.0,,,0.0,MANNSTAEDT-WERKE GMBH & CO. KG,TROISDORF,Operating,50.801982,7.169253,PlantFacts,Exact,4296088529,Mannstaedt Werke GmbH & Co KG,,,https://www.gmh-gruppe.de/de-en/gmh-gruppe/units/mannstaedt-gmbh.html,2020-05-13,4296801706.0,Georgsmarienhuette Holding GmbH,,,,,
DEU,DEU0087,Germany,9.0,,,0.0,OUTOKUMPU NIROSTA GMBH,DILLENBURG,Operating,50.757705,8.280888000000001,PlantFacts,Exact,4298173501,Outokumpu Nirosta GmbH,,,https://www.outokumpu.com/locations/dillenburg,2020-03-04,4295866315.0,Outokumpu Oyj,,,,,
DEU,DEU0088,Germany,1.0,,,0.0,WW-K WARMWALZWERK KOENIGSWINTER,KOENIGSWINTER,Operating,50.687185,7.187815,PlantFacts,Exact,5037818203,WW-K Warmwalzwerk Koenigswinter GmbH,,,https://www.ww-k.net/en/company,2020-05-16,5037818203.0,WW-K Warmwalzwerk Koenigswinter GmbH,,,,,
DEU,DEU0089,Germany,4.0,,1100.0,1.0,STAHLWERK THÌÏRINGEN GMBH,UNTERWELLENBORN,Operating,50.654693,11.437339,PlantFacts,Exact,4296860384,Stahlwerk Thueringen GmbH,1.1,,http://www.mzweb.com.br/csn2016inst/web/conteudo_eni.asp?idioma=1&conta=46&tipo=59563,2020-05-14,4297320527.0,Companhia Siderurgica Nacional,,,,,
DEU,DEU0090,Germany,10.0,,400.0,0.0,BUDERUS EDELSTAHL GMBH,WETZLAR,Operating,50.57377,8.484671,PlantFacts,Exact,4298337774,Buderus Edelstahl GmbH,,,https://www.voestalpine.com/search/en/#?category=locations&format=list&ccontinent=europe&ccountry=germany,2020-05-14,4295858976.0,voestalpine AG,,,,,
DEU,DEU0091,Germany,4.0,,,0.0,HFP BANDSTAHL GMBH,BAD SALZUNGEN,Operating,50.813361,10.223381,PlantFacts,Exact,,HFP Bandstahl GmbH & Co. KG,,,https://www.huehoco.com/en/company/hfp-bandstahl,2020-05-16,5055942173.0,Huehoco Group Holding & GmbH Co KG,,,,,
DEU,DEU0092,Germany,6.0,,,0.0,DEUTSCHE EDELSTAHLW. GMBH,KREFELD,Operating,51.304291,6.542608,PlantFacts,Exact,4296112461,Deutsche Edelstahlwerke GmbH,,,https://www.dew-stahl.com/en/contact-location/how-to-find-us/?companyuid=689&cHash=88e108bfcd10424500200bdf5ca4f52c,2020-05-13,4295890566.0,Schmolz+Bickenbach AG,,,,,
DEU,DEU0093,Germany,,,,0.0,,,Operating,51.513894,6.948457,https://www.benteler-steeltube.com/en/locations/,Exact,5039602393,Benteler Steel/Tube GmbH,,,https://www.benteler-steeltube.com/en/locations/,2020-05-15,5034847060.0,Benteler International AG,,,,,
DEU,DEU0094,Germany,,,,0.0,,,Operating,51.572074,6.740367999999999,https://www.benteler-steeltube.com/en/locations/,Exact,5039602393,Benteler Steel/Tube GmbH,,,https://www.benteler-steeltube.com/en/locations/,2020-05-15,5034847060.0,Benteler International AG,,,,,
DEU,DEU0095,Germany,,,,0.0,,,Operating,51.712311,8.741073,https://www.benteler-steeltube.com/en/locations/,Exact,5039602393,Benteler Steel/Tube GmbH,,,https://www.benteler-steeltube.com/en/locations/,2020-05-15,5034847060.0,Benteler International AG,,,,,
DEU,DEU0096,Germany,,,,0.0,,,Operating,49.61446,8.430014,https://www.rivagroup.com/en/production_sites/bsl_lampertheim,Exact,,Betonstahl Lampertheim GmbH,,,https://www.rivagroup.com/en/production_sites/bsl_lampertheim,2020-05-13,5039934846.0,Riva Forni Elettrici SpA,,,,,
DEU,DEU0097,Germany,,,,0.0,,,Operating,51.463434,7.348896000000001,https://www.gmh-gruppe.de/de-en/gmh-gruppe/units/geisslerwista-gmbh.html,Exact,5072815691,GeisslerWista GmbH,,,https://www.gmh-gruppe.de/de-en/gmh-gruppe/units/geisslerwista-gmbh.html,2020-05-13,4296801706.0,Georgsmarienhuette Holding GmbH,,,,,
DEU,DEU0098,Germany,,,,0.0,,,Operating,50.872145,8.033583,https://www.gontermann-peipers.de/en/company/plants/,Exact,4296158808,Gontermann Peipers GmbH,,,https://www.gontermann-peipers.de/en/company/plants/,2020-05-16,4296158808.0,Gontermann Peipers GmbH,,,,,
DEU,DEU0099,Germany,,,,0.0,,,Operating,49.805275,7.1342929999999996,https://www.rivagroup.com/en/production_sites/hes_horath,Exact,,Hennigsdorfer Elektrostahlwerke GmbH,,,https://www.rivagroup.com/en/production_sites/hes_horath,2020-05-13,5039934846.0,Riva Forni Elettrici SpA,,,,,
DEU,DEU0100,Germany,,,,0.0,,,Operating,49.796745,6.692886,https://www.rivagroup.com/en/production_sites/hes_trier,Exact,,Hennigsdorfer Elektrostahlwerke GmbH,,,https://www.rivagroup.com/en/production_sites/hes_trier,2020-05-13,5039934846.0,Riva Forni Elettrici SpA,,,,,
DEU,DEU0101,Germany,,,,0.0,,,Operating,51.168791999999996,7.967782000000001,https://www.thyssenkrupp-steel.com/en/company/locations/location-overview.html,Exact,4297366394,Thyssenkrupp Steel Europe AG,,,https://www.thyssenkrupp-steel.com/en/company/locations/location-overview.html,2020-04-08,4295869754.0,Thyssenkrupp AG,,,,,
GHA,GHA0001,Ghana,3.0,,25.0,0.0,TEMA STEEL CO LTD,TEMA ,Operating,5.691421,-0.001024,PlantFacts,Exact,,,,,,,,,,,,,
GRC,GRC0002,Greece,6.0,,1200.0,1.0,SOVEL SA,ALMYROS-MAGNISIA,Operating,39.169632,22.840216,PlantFacts,Exact,4296104408,Sovel SA,,,https://sidenor.gr/en/start/production-facilities/,2020-05-13,5040438569.0,Viohalco SA,,,,,
GRC,GRC0004,Greece,5.0,,600.0,0.0,SIDENOR SA,THESSALONIKI,Operating,40.704458,22.816542000000002,PlantFacts,Exact,5035930827,Sidenor Steel Industry SA,,,https://sidenor.gr/en/start/production-facilities/,2020-05-13,5040438569.0,Viohalco SA,,,,,
GRC,GRC0007,Greece,,,,0.0,,,Operating,40.825869,22.891268,https://sidenor.gr/en/start/production-facilities/,Exact,4295870668,Erlikon SA,,,https://sidenor.gr/en/start/production-facilities/,2020-05-13,5040438569.0,Viohalco SA,,,,,
GTM,GTM0001,Guatemala,2.0,,,0.0,INGASA,GUATEMALA,Operating,14.467118,-90.645677,PlantFacts,Exact,,,,,,,,,,,,,
GTM,GTM0002,Guatemala,,,,0.0,,,Operating,14.508951999999999,-90.58386999999999,https://www.ternium.com/en/contact-us#our-offices,Exact,5035746176,Ternium Internacional Guatemala SA,,,https://www.ternium.com/en/contact-us#our-offices,2020-04-30,4295856130.0,Ternium SA,,,,,
HUN,HUN0001,Hungary,7.0,,550.0,0.0,DAM 2004,MISKOLC,Operating,48.096936,20.737722,PlantFacts,Exact,,DAM 2004 Acél-és Hengermű Kereskedelmi és Szolgáltató Kft.,,,http://www.dam2004.hu/,2020-05-14,,DAM 2004 Acél-és Hengermű Kereskedelmi és Szolgáltató Kft.,,,,,
HUN,HUN0002,Hungary,3.0,,,0.0,FINOMHENGERMÌÏ MUNKAS,OZD,Operating,48.219488,20.293272,PlantFacts,Exact,,,,,,,,,,,,,
HUN,HUN0003,Hungary,14.0,2.0,3960.0,1.0,ISD DUNAFERR ZRT,DUNAUIJVAROS,Operating,46.946236999999996,18.938078,PlantFacts,Exact,4297057468,ISD Dunaffer Dunai Vasmu Zrt,,,http://dunaferr.hu/en/gates-map,2020-05-14,4297057468.0,ISD Dunaffer Dunai Vasmu Zrt,,,,,
HUN,HUN0004,Hungary,5.0,,400.0,0.0,OAM OZDI ACELMÌÏVEK,OZD,Operating,48.242994,20.334486,PlantFacts,Exact,4296801372,Oam Ozdi Acelmuvek Kft,,,https://www.oamkft.hu/en/home/company,2020-05-14,4296801372.0,Oam Ozdi Acelmuvek Kft,,,,,
HUN,HUN0005,Hungary,1.0,,,0.0,WUPPERMANN HUNGARY KFT,GYÌÐR-GÌÐNYÌÏ,Operating,47.734589,17.780426000000002,PlantFacts,Exact,5057497805,Wuppermann Hungary Kft,0.5,2016.0,https://www.wuppermann.com/locations/business-unit-flat/wuppermann-hungary-kft,2020-05-14,4297659527.0,Wuppermann AG,,,,,
HUN,HUN0006,Hungary,2.0,,300.0,0.0,MISKOLC STEEL MILLS,MISKOLC,Operating,48.091327,20.717429,PlantFacts,Exact,,,,,,,,,,,,,
IRN,IRN0001,"Iran, Islamic Republic of",5.0,,,0.0,FERRO GILAN COMPLEX CO,RASHT,Operating,37.152881,49.610983000000004,PlantFacts,Exact,,,,,,,,,,,,,
IRN,IRN0002,"Iran, Islamic Republic of",18.0,3.0,10000.0,1.0,ESFAHAN STEEL CO,ESFAHAN,Operating,32.422712,51.331571999999994,PlantFacts,Exact,,,,,,,,,,,,,
IRN,IRN0003,"Iran, Islamic Republic of",7.0,,630.0,0.0,IRAN NATIONAL STEEL IND. GROUP (INSIG),AHWAZ,Operating,31.278602000000003,48.569093,PlantFacts,Exact,,,,,,,,,,,,,
IRN,IRN0005,"Iran, Islamic Republic of",24.0,,12120.0,1.0,KHOUZESTAN STEEL CO,AHWAZ I,Operating,31.271634000000002,48.733467,PlantFacts,Exact,,,,,,,,,,,,,
IRN,IRN0006,"Iran, Islamic Republic of",3.0,,1500.0,1.0,PASARGAD STEEL,"SHIRAZ, FARS",Operating,29.192171999999996,52.843385,PlantFacts,Exact,,,,,,,,,,,,,
IRN,IRN0007,"Iran, Islamic Republic of",5.0,,3060.0,1.0,SOUTH KAVEH STEEL,KISH,Operating,27.169108,56.098861,PlantFacts,Exact,,,,,,,,,,,,,
IRN,IRN0008,"Iran, Islamic Republic of",7.0,,3200.0,1.0,HORMOZGAN STEEL CO,"BANDAR ABBAS, HORMOZGAN",Operating,27.161706,56.102302,PlantFacts,Exact,,,,,,,,,,,,,
IRN,IRN0009,"Iran, Islamic Republic of",4.0,,1600.0,1.0,IMIDRO-QHAENAT STEEL,SOUTH KHORASAN,Operating,33.926625,59.007349,PlantFacts,Exact,,,,,,,,,,,,,
IRN,IRN0016,"Iran, Islamic Republic of",28.0,,15440.0,1.0,MOBARAKEH STEEL CO,"MOBARAKEH, ESFAHAN",Operating,32.239306,51.420695,PlantFacts,Exact,,,,,,,,,,,,,
ITA,ITA0001,Italy,6.0,,170.0,0.0,ACC. VALBRUNA SRL,VICENZA,Operating,45.523445,11.500805999999999,PlantFacts,Exact,4298375291,Acciaierie Valbruna SpA,,,https://www.valbruna-stainless-steel.com/group/structure,2020-05-15,4298375291.0,Acciaierie Valbruna SpA,,,,,
ITA,ITA0002,Italy,5.0,,250.0,0.0,OLIFER-ACP SPA,"CIVIDATE AL PIANO, BG",Operating,45.529346000000004,9.839718,PlantFacts,Exact,,,,,,,,,,,,,
ITA,ITA0003,Italy,1.0,,,0.0,FORGIATURA A. VIENNA,RHO (MI),Operating,45.537418,9.075547,PlantFacts,Exact,4298231785,Forgiatura A. Vienna S.R.L.,,,https://www.givagroup.it/network/forgiature-vienna.html,2020-05-16,5044195584.0,GIVA SpA,,,,,
ITA,ITA0004,Italy,4.0,,150.0,0.0,ASO SIDERURGICA,"OSPITALETTO, BS",Operating,45.547826,10.087098,PlantFacts,Exact,4298232768,ASO Siderurgica SpA,,,https://www.aso-specialsteel.com/contacts/contact-form/,2020-05-16,4298232768.0,ASO Siderurgica SpA,,,,,
ITA,ITA0005,Italy,1.0,,,0.0,FERROSIDER SpA,"OSPITALETTO, BS",Operating,45.553728,10.065434,PlantFacts,Exact,4298231663,Ferrosider SpA,,1962.0,http://www.ferrosider.it/en/company/;http://www.orimartin.com/news/press-release-ori-martin-ferrosider,2020-05-16,5042963109.0,Ori Martin SA,,,,,
ITA,ITA0006,Italy,7.0,,600.0,0.0,ORI MARTIN SpA,"BRESCIA, BS",Operating,45.566054,10.2147,PlantFacts,Exact,4297407799,Ori Martin S.p.A,,,http://www.orimartin.com/where-we-are,2020-05-15,5042963109.0,Ori Martin SA,,,,,
ITA,ITA0008,Italy,5.0,,780.0,0.0,RIVA ACCIAIO SpA,"CARONNO, VA",Operating,45.598187,9.035447,PlantFacts,Exact,4296717756,Riva Acciaio SpA,,1957.0,https://www.rivagroup.com/en/production_sites/riva_acciaio_caronno_pertusella,2020-05-13,5039934846.0,Riva Forni Elettrici SpA,,,,,
ITA,ITA0009,Italy,13.0,,1270.0,1.0,ACC.BERTOLI SAFAU,UDINE,Operating,46.007574,13.254957000000001,PlantFacts,Exact,4296968864,Acciaierie Bertoli Safau SpA,,,http://www.absacciai.it/#/nav/Sito_WEB_Page_1,2020-05-15,4295875649.0,Danieli & C Officine Meccaniche SpA,,,,,
ITA,ITA0010,Italy,8.0,2.0,1300.0,1.0,SIDERURGICA TRIESTINA,TRIESTE ,Operating,45.620315999999995,13.779254000000002,PlantFacts,Exact,4296539648,Acciaieria Arvedi SpA,1.2,,https://www.arvedi.it/en/acciaieria/production-sites/trieste/,2020-05-13,4296502705.0,Finarvedi SpA,,,,,
ITA,ITA0011,Italy,4.0,,900.0,0.0,FERRIERA VALSABBIA,"ODOLO, BS",Operating,45.642905,10.3801988,PlantFacts,Exact,4296811577,Ferriera Valsabbia SpA,,,https://www.ferriera-valsabbia.com/?lang=en,2020-05-15,4296811577.0,Ferriera Valsabbia SpA,,,,,
ITA,ITA0012,Italy,4.0,,600.0,0.0,LEALI SpA (KLESCH GROUP),"BORGO VALSUGANA, TN",Operating,46.049182,11.440394,PlantFacts,Exact,4295945787,Acciaierie Venete SpA,,,http://www.acciaierievenete.com/en/company-structure,2020-05-14,4295945787.0,Acciaierie Venete SpA,,,,,
ITA,ITA0013,Italy,5.0,,700.0,0.0,TENARIS DALMINE SpA,"DALMINE, BG",Operating,45.642768,9.597408,PlantFacts,Exact,4295875523,Dalmine SpA,,,https://www.tenaris.com/en/contact/tenaris-around-the-world/,2020-05-15,4295883040.0,Tenaris SA,,,,,
ITA,ITA0014,Italy,5.0,,540.0,0.0,ACC. VENETE SpA,"SAREZZO, BS",Operating,45.648691,10.209114,PlantFacts,Exact,4295945787,Acciaierie Venete SpA,,,http://www.acciaierievenete.com/en/company-structure,2020-05-14,4295945787.0,Acciaierie Venete SpA,,,,,
ITA,ITA0015,Italy,1.0,,,0.0,DUFERCO-FERALPI,"CALEOTTO, LECCO",Operating,45.849035,9.401349,PlantFacts,Exact,5046048203,Caleotto SPA,,,https://www.feralpigroup.com/en/caleotto-en/,2020-05-16,4298452820.0,Feralpi Holding SpA,,,,,
ITA,ITA0016,Italy,1.0,,,0.0,ACC. VENETE SpA,"MURA, BS",Operating,45.700497,10.365387,PlantFacts,Exact,4295945787,Acciaierie Venete SpA,,,http://www.acciaierievenete.com/en/company-structure,2020-05-14,4295945787.0,Acciaierie Venete SpA,,,,,
ITA,ITA0017,Italy,9.0,,260.0,0.0,COGNE ACCIAI SPEC.,AOSTA ,Operating,45.734276,7.329758999999999,PlantFacts,Exact,4296026637,Cogne Acciai Speciali SpA,,,https://www.cogne.com/en/le-nostre-sedi/,2020-05-16,4296026637.0,Cogne Acciai Speciali SpA,,,,,
ITA,ITA0018,Italy,1.0,,,0.0,OFFICINE TECNOSIDER,"S.GIORGIO DI NOGARO, UD",Operating,45.768928,13.232582,PlantFacts,Exact,5039600938,Officine Tecnosider Srl,,,http://www.officinetecnosider.it/en/index.html,2020-05-16,5039600938.0,Officine Tecnosider Srl,,,,,
ITA,ITA0019,Italy,1.0,,,0.0,MARCEGAGLIA SpA,"S.GIORGIO DI NOGARO, UD",Operating,45.788288,13.232176999999998,PlantFacts,Exact,5052515816,Marcegaglia Holding S.P.A.,,,https://www.plants.marcegaglia.com/san-giorgio-di-nogaro-plant/,2020-05-13,5037837993.0,Marfin Srl,,,,,
ITA,ITA0021,Italy,1.0,,,0.0,METINVEST TRAMETAL SpA,"S.GIORGIO DI NOGARO, UD",Operating,45.791956,13.223414000000002,PlantFacts,Exact,4298510120,Metinvest Trametal SpA,,,https://metinvestholding.com/en/about/steel,2020-02-19,5000048980.0,SCM System Capital Management Ltd,,,,,"SCM System Capital Management Ltd owns Metinvest Holding TOV: ""As of 31 December 2018, Metinvest B.V. is owned
71.24% by SCM and 23.76% by SMART"" (AR2018, p. 50: https://metinvestholding.com/Content/Entities/Report/23/ru/Metinvest_AR_2018.pdf)"
ITA,ITA0022,Italy,2.0,,,0.0,RODACCIAI SpA,SIRONE,Operating,45.798778000000006,9.302716,PlantFacts,Exact,4296106788,Rodacciai SpA,,,https://www.rodacciai.com/aziendedelgruppo.php,2020-05-16,4296106788.0,Rodacciai SpA,,,,,
ITA,ITA0023,Italy,4.0,,150.0,0.0,LUCCHINI RS SpA ,"LOVERE, BG",Operating,45.805215999999994,10.071382,PlantFacts,Exact,4298235087,Lucchini RS SpA,,,https://lucchinirs.com/,2020-05-16,4298235087.0,Lucchini RS SpA,,,,,
ITA,ITA0024,Italy,1.0,,,0.0,EVRAZ PALINI & BERTOLI ,"S.GIORGIO DI NOGARO, UD",Operating,45.806490000000004,13.215432999999999,PlantFacts,Exact,4298234020,Evraz Palini e Bertoli Srl,0.5,,https://www.marcegagliapaliniebertoli.it/en/,2020-04-08,5036227579.0,EVRAZ plc,,,,,suspended since 2013
ITA,ITA0025,Italy,1.0,,,0.0,OFFICINE DI CROCETTA,CROSETTA D. MONTELLO,Operating,45.819705,12.014532,PlantFacts,Exact,4298235495,Ocsa Officine DI Crocetta SpA,,,http://www.ocsaspa.com/en/contacts/,2020-05-16,4298235495.0,Ocsa Officine DI Crocetta SpA,,,,,
ITA,ITA0026,Italy,1.0,,,0.0,RIVA ACCIAIO SpA,"SELLERO, BS",Operating,46.047191,10.344968,PlantFacts,Exact,4296717756,Riva Acciaio SpA,,,https://www.rivagroup.com/en/production_sites/riva_acciaio_sellero,2020-05-13,5039934846.0,Riva Forni Elettrici SpA,,,,,
ITA,ITA0027,Italy,5.0,,1400.0,1.0,FERRIERE NORD (PITTINI GROUP),"OSOPPO, UD",Operating,46.229127000000005,13.076014,PlantFacts,Exact,4297966561,Ferriere Nord SpA,,,https://www.pittini.it/en/corporate/companies/ferriere-nord//#cont,2020-05-15,4297656422.0,Gruppo Pittini S.p.A.,,,,,
ITA,ITA0028,Italy,1.0,,,0.0,RIVA ACCIAIO SpA,"CERVENO, BS",Operating,46.001783,10.339466999999999,PlantFacts,Exact,4296717756,Riva Acciaio SpA,,,https://www.rivagroup.com/en/production_sites/riva_acciaio_cerveno,2020-05-13,5039934846.0,Riva Forni Elettrici SpA,,,,,
ITA,ITA0029,Italy,6.0,,1200.0,1.0,AFV BELTRAME,"VICENZA, VL",Operating,45.52213,11.498998,PlantFacts,Exact,5055422112,AFV Accaierie Beltrame SpA,,,https://siprostahl.ch/en/steel-producers-afv-beltrame-group/,2020-05-14,5055422112.0,AFV Accaierie Beltrame SpA,,,,,
ITA,ITA0030,Italy,1.0,,,0.0,LEALI SpA (KLESCH GROUP),"ODOLO, BS",Operating,45.648928000000005,10.38556,PlantFacts,Exact,4295945787,Acciaierie Venete SpA,,,http://www.acciaierievenete.com/en/company-structure,2020-05-14,4295945787.0,Acciaierie Venete SpA,,,,,
ITA,ITA0031,Italy,9.0,,1200.0,1.0,ALFA ACCIAI SpA,"BRESCIA, BS",Operating,45.5092439,10.2482343,PlantFacts,Exact,4296544525,Alfa Acciai,,,https://www.alfaacciai.it/en/italy-largest-eaf-steel-mills,2020-05-15,4296544525.0,Alfa Acciai,,,,,
ITA,ITA0032,Italy,3.0,,,0.0,SAFAS,"ALTAVILLA, VI",Operating,45.507025,11.448063000000001,PlantFacts,Exact,5044195603,Safas Group SPA,,,http://www.safas.it/en/profile/where-we-are,2020-05-16,5044195603.0,Safas Group SPA,,,,,
ITA,ITA0033,Italy,3.0,,500.0,0.0,ACC. DI SICILIA SpA,"CATANIA, SICILIA",Operating,37.438448,15.03287,PlantFacts,Exact,4298232427,Acciaierie di Sicilia SpA,,,https://www.alfaacciai.it/en/italy-largest-eaf-steel-mills,2020-05-15,4296544525.0,Alfa Acciai,,,,,
ITA,ITA0034,Italy,2.0,,,0.0,DUFERDOFIN-NUCOR SRL,"GIAMMORO- MILAZZO, ME",Operating,38.20319,15.300629999999998,PlantFacts,Exact,4297154003,Duferdofin Nucor SRL,0.8,,https://www.duferdofin-nucor.com/en/giammoro/,2020-04-08,4295904636.0,Nucor Corp,,,,,
ITA,ITA0035,Italy,35.0,5.0,33914.0,1.0,ILVA SpA ,TARANTO,Operating,40.510191,17.204776000000003,PlantFacts,Exact,5067495106,Arcelormittal Italia SpA,,,https://italia.arcelormittal.com/en/who-we-are/our-operations/taranto,2020-05-14,5000030092.0,Arcelormittal SA,,,,,
ITA,ITA0036,Italy,3.0,,800.0,0.0,FERRIERE NORD (PITTINI GROUP),POTENZA,Operating,40.640845,15.829832999999999,PlantFacts,Exact,,Siderpotenza SpA,,,https://www.pittini.it/en/corporate/companies/siderpotenza/,2020-05-15,4297656422.0,Gruppo Pittini S.p.A.,,,,,
ITA,ITA0037,Italy,1.0,,,0.0,ARCELORMITTAL AVELLINO,"LUOGOSANO, AV",Operating,40.976298,14.974159,PlantFacts,Exact,5000034057,Arcelormittal Avellino,,,https://flateurope.arcelormittal.com/ourmills/706/avellino,2020-04-08,5000030092.0,Arcelormittal SA,,,,,
ITA,ITA0038,Italy,1.0,,,0.0,ORI MARTIN SpA,CEPRANO,Operating,41.524351,13.513228,PlantFacts,Exact,5044809820,Siderurgica Latina Martin SPA,,,http://www.orimartin.com/where-we-are,2020-05-15,5042963109.0,Ori Martin SA,,,,,
ITA,ITA0039,Italy,25.0,,1600.0,1.0,ACCIAI SPECIALI TERNI SpA,TERNI ,Operating,42.564881,12.669834,PlantFacts,Exact,5001127948,Acciai Speciali Terni SpA,,,https://www.acciaiterni.it/en/about-us/impianti/,2020-05-14,4295869754.0,Thyssenkrupp AG,,,,,
ITA,ITA0041,Italy,9.0,,1200.0,1.0,ACC. E FERRIERE PIOMBINO,"PIOMBINO, LI",Operating,42.931709999999995,10.535195,PlantFacts,Exact,4297699486,Jsw Steel Italy Piombino SpA,,,https://www.jswitaly.com/en/steel-long-products/,2020-05-15,4295872888.0,JSW Steel Ltd,,,,,
ITA,ITA0042,Italy,1.0,,,0.0,AFV BELTRAME,"SAN G. VALDARNO, AR",Operating,43.56798,11.526487,PlantFacts,Exact,5055422112,AFV Accaierie Beltrame SpA,,,https://siprostahl.ch/en/steel-producers-afv-beltrame-group/,2020-05-14,5055422112.0,AFV Accaierie Beltrame SpA,,,,,
